상가업소번호,상호명,지점명,상권업종대분류코드,상권업종대분류명,상권업종중분류코드,상권업종중분류명,상권업종소분류코드,상권업종소분류명,표준산업분류코드,표준산업분류명,시도코드,시도명,시군구코드,시군구명,행정동코드,행정동명,법정동코드,법정동명,지번코드,대지구분코드,대지구분명,지번본번지,지번부번지,지번주소,도로명코드,도로명,건물본번지,건물부번지,건물관리번호,건물명,도로명주소,구우편번호,신우편번호,동정보,층정보,호정보,경도,위도
MA0101202210A0072343,선해횟집,,I2,음식,I201,한식,I20111,횟집,I56111,한식 일반 음식점업,26,부산광역시,26410,금정구,26410555,금사회동동,2641011100,금사동,2.64101E+18,1,대지,30,27,부산광역시 금정구 금사동 30-27,2.64104E+11,부산광역시 금정구 사천로3번길,2,null,2.64101E+24,,부산광역시 금정구 사천로3번길 2,609808,46264,,1,,129.1133211,35.22336331
MA010120220805430802,미즈노,,G2,소매,G209,섬유·의복·신발 소매,G20905,기타 의류 소매업,G47419,기타 의복 소매업,26,부산광역시,26350,해운대구,26350520,우2동,2635010500,우동,2.63501E+18,1,대지,1496,null,부산광역시 해운대구 우동 1496,2.63502E+11,부산광역시 해운대구 센텀남대로,59,null,2.63501E+24,롯데백화점센텀시티점,부산광역시 해운대구 센텀남대로 59,612022,48058,,5,,129.1310993,35.1698729
MA010120220805430814,리스트,,G2,소매,G209,섬유·의복·신발 소매,G20902,여성 의류 소매업,G47412,여자용 겉옷 소매업,26,부산광역시,26440,강서구,26440535,명지1동,2644010400,명지동,2.64401E+18,1,대지,3438,null,부산광역시 강서구 명지동 3438,2.64403E+11,부산광역시 강서구 명지국제6로,168,null,2.64401E+24,스타필드시티명지점,부산광역시 강서구 명지국제6로 168,618200,46772,,2,,128.9181743,35.09312519
MA010120220805430900,눈썹그리기교실동안눈썹,,S2,수리·개인,S207,이용·미용,S20702,피부 관리실,S96113,피부 미용업,26,부산광역시,26320,북구,26320543,화명3동,2632010200,화명동,2.63201E+18,1,대지,2272,5,부산광역시 북구 화명동 2272-5,2.63202E+11,부산광역시 북구 화명대로,31,null,2.63201E+24,현호타워,부산광역시 북구 화명대로 31,616852,46525,,null,,129.0116405,35.23521661
MA010120220805430935,카페051남포역점,,I2,음식,I212,비알코올 ,I21201,카페,I56221,커피 전문점,26,부산광역시,26110,중구,26110580,남포동,2611013700,남포동2가,2.61101E+18,1,대지,1,5,부산광역시 중구 남포동2가 1-5,2.61104E+11,부산광역시 중구 남포길,47,null,2.61101E+24,,부산광역시 중구 남포길 47,600042,48954,,1,,129.0338749,35.09803496
MA010120220805430948,안심공인중개사무소,,L1,부동산,L102,부동산 서비스,L10203,부동산 중개/대리업,L68221,부동산 중개 및 대리업,26,부산광역시,26470,연제구,26470730,연산9동,2647010200,연산동,2.64701E+18,1,대지,398,25,부산광역시 연제구 연산동 398-25,2.64704E+11,부산광역시 연제구 연안로13번길,85,null,2.64701E+24,,부산광역시 연제구 연안로13번길 85,611817,47565,,1,,129.1023857,35.18881431
MA010120220805431216,레이카운티강남공인중개사사무소,,L1,부동산,L102,부동산 서비스,L10203,부동산 중개/대리업,L68221,부동산 중개 및 대리업,26,부산광역시,26470,연제구,26470620,거제2동,2647010100,거제동,2.64701E+18,1,대지,867,9,부산광역시 연제구 거제동 867-9,2.64703E+11,부산광역시 연제구 금용로,5,null,2.64701E+24,,부산광역시 연제구 금용로 5,611807,47530,,null,,129.0679846,35.18790569
MA010120220805431109,잎새뷰티끄,,G2,소매,G215,의약·화장품 소매,G21503,화장품 소매업,G47813,"화장품, 비누 및 방향제 소매업",26,부산광역시,26350,해운대구,26350552,좌2동,2635010700,좌동,2.63501E+18,1,대지,1473,2,부산광역시 해운대구 좌동 1473-2,2.63502E+11,부산광역시 해운대구 해운대로,794,null,2.63501E+24,엘리움,부산광역시 해운대구 해운대로 794,612842,48104,,2,,129.1757619,35.16881666
MA010120220805431249,미래네트워크,,G2,소매,G208,가전·통신 소매,G20801,컴퓨터/소프트웨어 소매업,G47311,"컴퓨터 및 주변장치, 소프트웨어 소매업",26,부산광역시,26230,부산진구,26230700,당감4동,2623010900,당감동,2.62301E+18,1,대지,362,16,부산광역시 부산진구 당감동 362-16,2.62304E+11,부산광역시 부산진구 동평로66번길,10,null,2.62301E+24,,부산광역시 부산진구 동평로66번길 10,614879,47177,,null,,129.0364966,35.16473408
MA010120220805431253,오케이도매횟집,,I2,음식,I201,한식,I20111,횟집,I56114,한식 해산물 요리 전문점,26,부산광역시,26470,연제구,26470720,연산8동,2647010200,연산동,2.64701E+18,1,대지,384,12,부산광역시 연제구 연산동 384-12,2.64703E+11,부산광역시 연제구 안연로,17,1,2.64701E+24,,부산광역시 연제구 안연로 17-1,611816,47564,,1,,129.1003032,35.18908564
MA010120220805431313,필라스튜디오,,P1,교육,P106,기타 교육,P10603,요가/필라테스 학원,P85612,기타 스포츠 교육기관,26,부산광역시,26410,금정구,26410610,장전2동,2641010800,장전동,2.64101E+18,1,대지,609,13,부산광역시 금정구 장전동 609-13,2.64103E+11,부산광역시 금정구 금정로,3,null,2.64101E+24,,부산광역시 금정구 금정로 3,609392,46297,,3,,129.0853532,35.22493332
MA010120220805431583,네일#,,S2,수리·개인,S207,이용·미용,S20703,네일숍,S96119,기타 미용업,26,부산광역시,26230,부산진구,26230710,가야1동,2623011000,가야동,2.62301E+18,1,대지,345,3,부산광역시 부산진구 가야동 345-3,2.62303E+11,부산광역시 부산진구 대학로,29,null,2.62301E+24,,부산광역시 부산진구 대학로 29,614804,47335,,null,,129.0363352,35.15287311
MA010120220805431585,봄동떡방,,I2,음식,I210,기타 간이,I21002,떡/한과,C10711,떡류 제조업,26,부산광역시,26170,동구,26170570,수정2동,2617010200,수정동,2.61701E+18,1,대지,280,1,부산광역시 동구 수정동 280-1,2.61704E+11,부산광역시 동구 중앙대로361번길,40,null,2.61701E+24,,부산광역시 동구 중앙대로361번길 40,601812,48781,,1,,129.0461621,35.1291811
MA010120220805431627,아뜰리에,,S2,수리·개인,S207,이용·미용,S20701,미용실,S96112,두발 미용업,26,부산광역시,26350,해운대구,26350530,중1동,2635010600,중동,2.63501E+18,1,대지,1271,71,부산광역시 해운대구 중동 1271-71,2.63504E+11,부산광역시 해운대구 해운대해변로357번길,6,null,2.63501E+24,,부산광역시 해운대구 해운대해변로357번길 6,612848,48096,,2,,129.1685752,35.16445142
MA010120220805431660,장안새벽집,,I2,음식,I201,한식,I20101,백반/한정식,I56111,한식 일반 음식점업,26,부산광역시,26710,기장군,26710253,장안읍,2671025325,장안읍,2.67103E+18,1,대지,438,null,부산광역시 기장군 장안읍 장안리 438,2.67104E+11,부산광역시 기장군 장안읍 상장안1길,8,null,2.67103E+24,,부산광역시 기장군 장안읍 상장안1길 8,619951,46028,,1,,129.2454765,35.36908634
MA010120220805431666,어글리팬,,I2,음식,I202,중식,I20201,중국집,I56121,중식 음식점업,26,부산광역시,26350,해운대구,26350540,중2동,2635010600,중동,2.63501E+18,1,대지,1516,2,부산광역시 해운대구 중동 1516-2,2.63503E+11,부산광역시 해운대구 좌동순환로,443,null,2.63501E+24,신혼서민아파트,부산광역시 해운대구 좌동순환로 443,612850,48117,,null,,129.1723162,35.16125143
MA010120220805431686,삼세판,,I2,음식,I201,한식,I20107,돼지고기 구이/찜,I56113,한식 육류 요리 전문점,26,부산광역시,26200,영도구,26200540,영선1동,2620010900,영선동2가,2.62001E+18,1,대지,25,1,부산광역시 영도구 영선동2가 25-1,2.62004E+11,부산광역시 영도구 절영로93번길,36,null,2.62001E+24,,부산광역시 영도구 절영로93번길 36,606042,49056,,null,,129.0407884,35.08797023
MA010120220805431795,컴퓨터수리,,S2,수리·개인,S201,컴퓨터 수리,S20101,컴퓨터/노트북/프린터 수리업,S95110,컴퓨터 및 주변 기기 수리업,26,부산광역시,26170,동구,26170660,범일2동,2617010400,범일동,2.61701E+18,1,대지,830,42,부산광역시 동구 범일동 830-42,2.61703E+11,부산광역시 동구 조방로,39,null,2.61701E+24,썬오피스텔,부산광역시 동구 조방로 39,601719,48738,,12,,129.0606203,35.13996232
MA010120220805431998,시리즈,,G2,소매,G209,섬유·의복·신발 소매,G20901,남성 의류 소매업,G47411,남자용 겉옷 소매업,26,부산광역시,26260,동래구,26260560,온천2동,2626010800,온천동,2.62601E+18,1,대지,502,3,부산광역시 동래구 온천동 502-3,2.62602E+11,부산광역시 동래구 중앙대로,1393,null,2.62601E+24,롯데백화점,부산광역시 동래구 중앙대로 1393,607716,47727,,4,,129.0775003,35.21172612
MA010120220805432126,황여사한우,,I2,음식,I201,한식,I20108,소고기 구이/찜,I56113,한식 육류 요리 전문점,26,부산광역시,26530,사상구,26530620,괘법동,2653010400,괘법동,2.65301E+18,1,대지,274,38,부산광역시 사상구 괘법동 274-38,2.65304E+11,부산광역시 사상구 사상로212번길,29,null,2.65301E+24,,부산광역시 사상구 사상로212번길 29,617806,46965,,1,,128.9853988,35.16467373
MA010120220805432221,몽쉐리,,I2,음식,I210,기타 간이,I21001,빵/도넛,I56191,제과점업,26,부산광역시,26410,금정구,26410690,구서2동,2641010700,구서동,2.64101E+18,1,대지,184,17,부산광역시 금정구 구서동 184-17,2.64104E+11,부산광역시 금정구 두실로7번길,97,null,2.64101E+24,서원아파트,부산광역시 금정구 두실로7번길 97,609801,46230,,null,,129.0905373,35.25606536
MA010120220805432417,조은공인중개사사무소,,L1,부동산,L102,부동산 서비스,L10203,부동산 중개/대리업,L68221,부동산 중개 및 대리업,26,부산광역시,26320,북구,26320571,만덕1동,2632010300,만덕동,2.63201E+18,1,대지,676,7,부산광역시 북구 만덕동 676-7,2.63203E+11,부산광역시 북구 만덕1로,94,null,2.63201E+24,,부산광역시 북구 만덕1로 94,616828,46559,,null,,129.027456,35.21391886
MA010120220805432364,편한약국,,G2,소매,G215,의약·화장품 소매,G21501,약국,G47811,의약품 및 의료용품 소매업,26,부산광역시,26530,사상구,26530645,감전동,2653010500,감전동,2.65301E+18,1,대지,157,9,부산광역시 사상구 감전동 157-9,2.65302E+11,부산광역시 사상구 학감대로,226,null,2.65301E+24,,부산광역시 사상구 학감대로 226,617801,46985,,1,,128.9901295,35.15106009
MA010120220805434218,향촌오리불고기식당,,I2,음식,I201,한식,I20107,돼지고기 구이/찜,I56111,한식 일반 음식점업,26,부산광역시,26170,동구,26170660,범일2동,2617010400,범일동,2.61701E+18,1,대지,830,46,부산광역시 동구 범일동 830-46,2.61704E+11,부산광역시 동구 조방로49번길,13,null,2.61701E+24,,부산광역시 동구 조방로49번길 13,601807,48738,,1,,129.060539,35.13961148
MA010120220805434362,옹기골식당,,I2,음식,I201,한식,I20101,백반/한정식,I56111,한식 일반 음식점업,26,부산광역시,26350,해운대구,26350660,재송2동,2635010400,재송동,2.63501E+18,1,대지,1145,2,부산광역시 해운대구 재송동 1145-2,2.63503E+11,부산광역시 해운대구 재반로,148,1,2.63501E+24,,부산광역시 해운대구 재반로 148-1,612832,48053,,null,,129.1280441,35.19107486
MA010120220805433778,아리김밥,,I2,음식,I210,기타 간이,I21007,김밥/만두/분식,I56194,김밥 및 기타 간이 음식점업,26,부산광역시,26500,수영구,26500740,망미1동,2650010100,망미동,2.65001E+18,1,대지,693,1,부산광역시 수영구 망미동 693-1,2.65004E+11,부산광역시 수영구 연수로315번길,16,null,2.65001E+24,더샵파크리치,부산광역시 수영구 연수로315번길 16,613777,48211,,1,,129.1073632,35.17369776
MA010120220805434404,마구로강,,I2,음식,I203,일식,I20301,일식 회/초밥,I56122,일식 음식점업,26,부산광역시,26380,사하구,26380510,괴정1동,2638010100,괴정동,2.63801E+18,1,대지,944,2,부산광역시 사하구 괴정동 944-2,2.63804E+11,부산광역시 사하구 사하로197번길,24,null,2.63801E+24,,부산광역시 사하구 사하로197번길 24,604814,49381,,1,,128.9920878,35.09897901
MA010120220805433995,구공반점,,I2,음식,I202,중식,I20201,중국집,I56121,중식 음식점업,26,부산광역시,26140,서구,26140560,서대신3동,2614010600,서대신동3가,2.61401E+18,1,대지,335,2,부산광역시 서구 서대신동3가 335-2,2.61404E+11,부산광역시 서구 대영로27번길,59,null,2.61401E+24,,부산광역시 서구 대영로27번길 59,602825,49225,,1,,129.0134516,35.11211606
MA010120220805433754,카페진이네,,I2,음식,I201,한식,I20101,백반/한정식,I56111,한식 일반 음식점업,26,부산광역시,26500,수영구,26500800,민락동,2650010300,민락동,2.65001E+18,1,대지,32,19,부산광역시 수영구 민락동 32-19,2.65004E+11,부산광역시 수영구 민락본동로31번길,65,null,2.65001E+24,,부산광역시 수영구 민락본동로31번길 65,613828,48288,,1,,129.1249926,35.15847317
MA010120220805433575,가죽/가방/신발 수선업,,S2,수리·개인,S206,기타 가정용품 수리,S20602,가죽/가방/신발 수선업,S95392,"가죽, 가방 및 신발 수리업",26,부산광역시,26350,해운대구,26350520,우2동,2635010500,우동,2.63501E+18,1,대지,1087,3,부산광역시 해운대구 우동 1087-3,2.63502E+11,부산광역시 해운대구 해운대로,401,null,2.63501E+24,,부산광역시 해운대구 해운대로 401,612826,48063,,null,,129.1401319,35.16817475
MA010120220805433036,풀루,,I2,음식,I212,비알코올 ,I21201,카페,I56221,커피 전문점,26,부산광역시,26200,영도구,26200650,동삼1동,2620012100,동삼동,2.62001E+18,1,대지,578,3,부산광역시 영도구 동삼동 578-3,2.62003E+11,부산광역시 영도구 절영로,461,null,2.62001E+24,,부산광역시 영도구 절영로 461,606809,49118,,1,,129.0671363,35.06993851
MA010120220805432837,카이커피컴퍼니,,G2,소매,G208,가전·통신 소매,G20803,가전제품 소매업,G47320,가전제품 소매업,26,부산광역시,26380,사하구,26380601,다대1동,2638010600,다대동,2.63801E+18,1,대지,355,38,부산광역시 사하구 다대동 355-38,2.63804E+11,부산광역시 사하구 다대동로8번길,87,null,2.63801E+24,,부산광역시 사하구 다대동로8번길 87,604824,49522,,1,,128.9737243,35.0571942
MA010120220805432925,대성식당,,I2,음식,I201,한식,I20101,백반/한정식,I56111,한식 일반 음식점업,26,부산광역시,26170,동구,26170650,범일1동,2617010400,범일동,2.61701E+18,1,대지,1308,10,부산광역시 동구 범일동 1308-10,2.61703E+11,부산광역시 동구 범곡북로,7,null,2.61701E+24,,부산광역시 동구 범곡북로 7,601800,48722,,1,,129.0549243,35.14159849
MA010120220805432990,올인노래연습장,,R1,예술·스포츠,R104,유원지·오락,R10407,노래방,R91223,노래 연습장 운영업,26,부산광역시,26710,기장군,26710250,기장읍,2671025021,기장읍,2.67103E+18,1,대지,134,10,부산광역시 기장군 기장읍 동부리 134-10,2.67104E+11,부산광역시 기장군 기장읍 차성로338번길,6,null,2.67103E+24,,부산광역시 기장군 기장읍 차성로338번길 6,619905,46061,,null,,129.2142122,35.24757751
MA010120220805432809,밸라,,G2,소매,G209,섬유·의복·신발 소매,G20911,가방 소매업,G47440,가방 및 기타 가죽제품 소매업,26,부산광역시,26260,동래구,26260750,안락2동,2626010200,안락동,2.62601E+18,1,대지,603,109,부산광역시 동래구 안락동 603-109,2.62604E+11,부산광역시 동래구 충렬대로428번길,42,null,2.62601E+24,,부산광역시 동래구 충렬대로428번길 42,607830,47890,,1,,129.1041788,35.19473809
MA010120220805432569,석박사공인중개사사무소,,L1,부동산,L102,부동산 서비스,L10203,부동산 중개/대리업,L68221,부동산 중개 및 대리업,26,부산광역시,26230,부산진구,26230510,부전1동,2623010300,부전동,2.62301E+18,1,대지,474,80,부산광역시 부산진구 부전동 474-80,2.62303E+11,부산광역시 부산진구 서면문화로,27,null,2.62301E+24,유원골든타워오피스텔,부산광역시 부산진구 서면문화로 27,614731,47257,,null,,129.0556267,35.15944898
MA010120220805432947,파티박스,,I2,음식,I207,구내식당·뷔페,I20701,구내식당,I56130,기관 구내식당업,26,부산광역시,26350,해운대구,26350520,우2동,2635010500,우동,2.63501E+18,1,대지,1465,null,부산광역시 해운대구 우동 1465,2.63503E+11,부산광역시 해운대구 센텀중앙로,55,null,2.63501E+24,경남정보대학교및동서대학교센텀산학캠퍼스,부산광역시 해운대구 센텀중앙로 55,612022,48058,,1,,129.128006,35.17321884
MA010120220805432953,부띠끄화요일,,G2,소매,G219,식물 소매,G21901,꽃집,G47851,화초 및 식물 소매업,26,부산광역시,26140,서구,26140560,서대신3동,2614010600,서대신동3가,2.61401E+18,1,대지,465,8,부산광역시 서구 서대신동3가 465-8,2.61403E+11,부산광역시 서구 망양로,5,null,2.61401E+24,,부산광역시 서구 망양로 5,602826,49210,,1,,129.01228,35.11140473
MA010120220805436030,세양씨엔티,,S2,수리·개인,S209,세탁,S20901,세탁소,S96913,세탁물 공급업,26,부산광역시,26350,해운대구,26350540,중2동,2635010600,중동,2.63501E+18,1,대지,490,2,부산광역시 해운대구 중동 490-2,2.63503E+11,부산광역시 해운대구 청사포로,88,null,2.63501E+24,그린힐하이츠빌라6차,부산광역시 해운대구 청사포로 88,612845,48116,,1,,129.1893437,35.16224823
MA010120220805436320,빅트리이앤디,,M1,과학·기술,M105,광고,M10501,광고 대행업,M71310,광고 대행업,26,부산광역시,26350,해운대구,26350520,우2동,2635010500,우동,2.63501E+18,1,대지,1458,null,부산광역시 해운대구 우동 1458,2.63503E+11,부산광역시 해운대구 센텀6로,21,null,2.63501E+24,인텔리움센텀,부산광역시 해운대구 센텀6로 21,612022,48059,,null,,129.129241,35.17361295
MA010120220805435696,꿈+블렌딩종합사회복지관,,I2,음식,I212,비알코올 ,I21201,카페,I56221,커피 전문점,26,부산광역시,26350,해운대구,26350595,반여4동,2635010300,반여동,2.63501E+18,1,대지,1122,null,부산광역시 해운대구 반여동 1122,2.63504E+11,부산광역시 해운대구 삼어로133번길,50,null,2.63501E+24,반여4동주민센터,부산광역시 해운대구 삼어로133번길 50,612859,48044,,2,,129.1171152,35.20925785
MA010120220805436418,부산제이에스,,R1,예술·스포츠,R103,스포츠 서비스,R10309,볼링장,R91134,볼링장 운영업,26,부산광역시,26380,사하구,26380562,하단2동,2638010300,하단동,2.63801E+18,1,대지,492,2,부산광역시 사하구 하단동 492-2,2.63802E+11,부산광역시 사하구 낙동대로,542,null,2.63801E+24,대우에덴프라자,부산광역시 사하구 낙동대로 542,604851,49324,,2,,128.9648158,35.11247685
MA010120220805435675,지승인베스트먼트,,M1,과학·기술,M107,본사·경영 컨설팅,M10703,경영 컨설팅업,M71531,경영 컨설팅업,26,부산광역시,26500,수영구,26500770,광안2동,2650010400,광안동,2.65001E+18,1,대지,143,1,부산광역시 수영구 광안동 143-1,2.65004E+11,부산광역시 수영구 수영로582번길,10,null,2.65001E+24,광안역성원상떼빌,부산광역시 수영구 수영로582번길 10,613804,48297,,1,,129.1136077,35.15745162
MA010120220805436342,서울한강,,M1,과학·기술,M112,전문 디자인,M11201,인테리어 디자인업,M73201,인테리어 디자인업,26,부산광역시,26500,수영구,26500790,광안4동,2650010400,광안동,2.65001E+18,1,대지,537,13,부산광역시 수영구 광안동 537-13,2.65004E+11,부산광역시 수영구 장대골로52번길,19,null,2.65001E+24,신광,부산광역시 수영구 장대골로52번길 19,613809,48251,,2,,129.1079748,35.1605139
MA010120220805434528,에이스부동산중개사무소,,L1,부동산,L102,부동산 서비스,L10203,부동산 중개/대리업,L68221,부동산 중개 및 대리업,26,부산광역시,26470,연제구,26470690,연산5동,2647010200,연산동,2.64701E+18,1,대지,1371,13,부산광역시 연제구 연산동 1371-13,2.64703E+11,부산광역시 연제구 시청로,26,1,2.64701E+24,,부산광역시 연제구 시청로 26-1,611830,47542,,6,,129.0744129,35.18162025
MA010120220805434657,더젠틀호텔,,I1,숙박,I101,일반 숙박,I10102,여관/모텔,I55102,여관업,26,부산광역시,26320,북구,26320572,만덕2동,2632010300,만덕동,2.63201E+18,1,대지,74,4,부산광역시 북구 만덕동 74-4,2.63204E+11,부산광역시 북구 만덕고개길,72,null,2.63201E+24,,부산광역시 북구 만덕고개길 72,616832,46608,,null,,129.0470626,35.21145235
MA010120220805434547,세무사이명원세무회계사무소,,M1,과학·기술,M104,회계·세무,M10402,세무사,M71202,세무사업,26,부산광역시,26470,연제구,26470620,거제2동,2647010100,거제동,2.64701E+18,1,대지,1177,4,부산광역시 연제구 거제동 1177-4,2.64703E+11,부산광역시 연제구 월드컵대로,231,null,2.64701E+24,태연빌딩,부산광역시 연제구 월드컵대로 231,611808,47525,,null,,129.0715715,35.18930721
MA010120220805434613,컴퓨터수리,,S2,수리·개인,S201,컴퓨터 수리,S20101,컴퓨터/노트북/프린터 수리업,S95110,컴퓨터 및 주변 기기 수리업,26,부산광역시,26530,사상구,26530660,주례2동,2653010600,주례동,2.65301E+18,1,대지,139,15,부산광역시 사상구 주례동 139-15,2.65304E+11,부산광역시 사상구 주례로10번길,67,null,2.65301E+24,,부산광역시 사상구 주례로10번길 67,617835,47007,,null,,129.0077407,35.14987829
MA010120220805435127,모다이불,,G2,소매,G209,섬유·의복·신발 소매,G20906,침구류/커튼 소매업,G47421,가정용 직물제품 소매업,26,부산광역시,26380,사하구,26380550,당리동,2638010200,당리동,2.63801E+18,1,대지,313,25,부산광역시 사하구 당리동 313-25,2.63802E+11,부산광역시 사하구 낙동대로,426,null,2.63801E+24,,부산광역시 사하구 낙동대로 426,604829,49326,,null,,128.9719176,35.10452379
MA010120220805434568,컴퓨터수리,,S2,수리·개인,S201,컴퓨터 수리,S20101,컴퓨터/노트북/프린터 수리업,S95110,컴퓨터 및 주변 기기 수리업,26,부산광역시,26440,강서구,26440560,녹산동,2644010900,송정동,2.64401E+18,1,대지,1506,9,부산광역시 강서구 송정동 1506-9,2.64403E+11,부산광역시 강서구 녹산산업중로,113,null,2.64401E+24,,부산광역시 강서구 녹산산업중로 113,618817,46752,,null,,128.8327839,35.09434567
MA010120220805434693,낭만이벤트,,N1,시설관리·임대,N108,기타 사업 서비스,N10802,전시/컨벤션/행사 대행 서비스업,N75992,"전시, 컨벤션 및 행사 대행업",26,부산광역시,26380,사하구,26380630,감천2동,2638010800,감천동,2.63801E+18,1,대지,12,377,부산광역시 사하구 감천동 12-377,2.63803E+11,부산광역시 사하구 옥천로,97,1,2.63801E+24,,부산광역시 사하구 옥천로 97-1,604800,49365,,1,,129.0102464,35.09506119
MA010120220805435406,투어누리앤드조이,,N1,시설관리·임대,N105,여행사·보조,N10501,여행사,N75210,여행사업,26,부산광역시,26230,부산진구,26230770,범천1동,2623010400,범천동,2.62301E+18,1,대지,839,48,부산광역시 부산진구 범천동 839-48,2.62303E+11,부산광역시 부산진구 자유평화로,11,null,2.62301E+24,누리엔,부산광역시 부산진구 자유평화로 11,614720,47366,,1,,129.0612253,35.14175981
MA010120220805434461,라온텔레콤,,G2,소매,G208,가전·통신 소매,G20802,핸드폰 소매업,G47312,통신기기 소매업,26,부산광역시,26410,금정구,26410610,장전2동,2641010800,장전동,2.64101E+18,1,대지,414,12,부산광역시 금정구 장전동 414-12,2.64104E+11,부산광역시 금정구 금정로68번길,41,null,2.64101E+24,청송아파트,부산광역시 금정구 금정로68번길 41,609392,46291,,2,,129.0888321,35.23043654
MA010120220805437870,에뜨와,,G2,소매,G209,섬유·의복·신발 소매,G20903,유아용 의류 소매업,G47417,유아용 의류 소매업,26,부산광역시,26260,동래구,26260560,온천2동,2626010800,온천동,2.62601E+18,1,대지,502,3,부산광역시 동래구 온천동 502-3,2.62602E+11,부산광역시 동래구 중앙대로,1393,null,2.62601E+24,롯데백화점,부산광역시 동래구 중앙대로 1393,607716,47727,,6,,129.0775003,35.21172612
MA010120220805438116,승승학장점,,I2,음식,I201,한식,I20107,돼지고기 구이/찜,I56113,한식 육류 요리 전문점,26,부산광역시,26530,사상구,26530670,학장동,2653010700,학장동,2.65301E+18,1,대지,612,3,부산광역시 사상구 학장동 612-3,2.65303E+11,부산광역시 사상구 대동로,154,null,2.65301E+24,,부산광역시 사상구 대동로 154,617846,47049,,null,,128.9837776,35.14125051
MA010120220805438057,롤로토바코,,G2,소매,G207,담배 소매,G20701,담배/전자담배 소매업,G47222,담배 소매업,26,부산광역시,26380,사하구,26380601,다대1동,2638010600,다대동,2.63801E+18,1,대지,931,2,부산광역시 사하구 다대동 931-2,2.63803E+11,부산광역시 사하구 윤공단로,104,null,2.63801E+24,,부산광역시 사하구 윤공단로 104,604823,49493,,1,,128.9711405,35.06025268
MA010120220805438163,아토즈마이스,,N1,시설관리·임대,N108,기타 사업 서비스,N10802,전시/컨벤션/행사 대행 서비스업,N75992,"전시, 컨벤션 및 행사 대행업",26,부산광역시,26350,해운대구,26350660,재송2동,2635010400,재송동,2.63501E+18,1,대지,1027,null,부산광역시 해운대구 재송동 1027,2.63504E+11,부산광역시 해운대구 재반로165번길,82,null,2.63501E+24,시영아파트,부산광역시 해운대구 재반로165번길 82,612780,48051,,5,,129.1251621,35.19229149
MA010120220805438419,글래머,,I2,음식,I211,주점,I21101,일반 유흥 주점,I56211,일반 유흥 주점업,26,부산광역시,26320,북구,26320510,구포1동,2632010500,구포동,2.63201E+18,1,대지,599,15,부산광역시 북구 구포동 599-15,2.63204E+11,부산광역시 북구 구포시장1길,10,null,2.63201E+24,,부산광역시 북구 구포시장1길 10,616801,46581,,null,,129.0039551,35.20886091
MA010120220805438091,예설,,M1,과학·기술,M112,전문 디자인,M11202,제품 디자인업,M73202,제품 디자인업,26,부산광역시,26110,중구,26110510,중앙동,2611010700,중앙동4가,2.61101E+18,1,대지,40,25,부산광역시 중구 중앙동4가 40-25,2.61104E+11,부산광역시 중구 동광길,42,null,2.61101E+24,,부산광역시 중구 동광길 42,600815,48928,,2,,129.0347478,35.10461677
MA010120220805437702,보수커피,,I2,음식,I212,비알코올 ,I21201,카페,I56221,커피 전문점,26,부산광역시,26110,중구,26110545,보수동,2611012200,보수동3가,2.61101E+18,1,대지,25,2,부산광역시 중구 보수동3가 25-2,2.61104E+11,부산광역시 중구 흑교로71번길,24,null,2.61101E+24,보수에코팰리스,부산광역시 중구 흑교로71번길 24,600083,48966,,null,,129.021541,35.10458454
MA010120220805437473,라바유,,G2,소매,G204,종합 소매,G20499,그 외 기타 종합 소매업,G47190,그 외 기타 종합 소매업,26,부산광역시,26110,중구,26110560,부평동,2611012300,부평동1가,2.61101E+18,1,대지,35,4,부산광역시 중구 부평동1가 35-4,2.61103E+11,부산광역시 중구 중구로,21,2,2.61101E+24,,부산광역시 중구 중구로 21-2,600805,48979,,1,,129.0277008,35.09984519
MA010120220805437781,비비안아트몰링,,G2,소매,G209,섬유·의복·신발 소매,G20905,기타 의류 소매업,G47413,속옷 및 잠옷 소매업,26,부산광역시,26380,사하구,26380562,하단2동,2638010300,하단동,2.63801E+18,1,대지,526,6,부산광역시 사하구 하단동 526-6,2.63803E+11,부산광역시 사하구 낙동남로,1413,null,2.63801E+24,아트몰링,부산광역시 사하구 낙동남로 1413,604852,49311,,3,,128.9665592,35.10682916
MA010120220805437986,유진컴퓨터,,G2,소매,G208,가전·통신 소매,G20803,가전제품 소매업,G47320,가전제품 소매업,26,부산광역시,26230,부산진구,26230510,부전1동,2623010300,부전동,2.62301E+18,1,대지,29,1,부산광역시 부산진구 부전동 29-1,2.62303E+11,부산광역시 부산진구 부전로,196,null,2.62301E+24,부산전자종합상가,부산광역시 부산진구 부전로 196,614842,47250,,1,,129.0624551,35.16377005
MA010120220805438254,토곡할매칼국수,,I2,음식,I201,한식,I20105,국수/칼국수,I56112,한식 면 요리 전문점,26,부산광역시,26470,연제구,26470730,연산9동,2647010200,연산동,2.64701E+18,1,대지,406,23,부산광역시 연제구 연산동 406-23,2.64704E+11,부산광역시 연제구 과정로191번가길,70,null,2.64701E+24,,부산광역시 연제구 과정로191번가길 70,611817,47558,,null,,129.1025064,35.18718171
MA010120220805436475,237랜드,,L1,부동산,L102,부동산 서비스,L10203,부동산 중개/대리업,L68221,부동산 중개 및 대리업,26,부산광역시,26200,영도구,26200650,동삼1동,2620012100,동삼동,2.62001E+18,1,대지,363,40,부산광역시 영도구 동삼동 363-40,2.62003E+11,부산광역시 영도구 절영로,550,null,2.62001E+24,삼창파크맨션,부산광역시 영도구 절영로 550,606808,49109,,1,,129.0733552,35.07513881
MA010120220805437083,스마트종합정비,,S2,수리·개인,S203,자동차 수리·세차,S20301,자동차 정비소,S95212,자동차 전문 수리업,26,부산광역시,26710,기장군,26710256,정관읍,2671025622,정관읍,2.67103E+18,1,대지,122,19,부산광역시 기장군 정관읍 매학리 122-19,2.67104E+11,부산광역시 기장군 정관읍 매곡길,8,null,2.67103E+24,,부산광역시 기장군 정관읍 매곡길 8,619963,46006,,null,,129.1755894,35.31672379
MA010120220805437354,무지개부동산공인중개사사무소,,L1,부동산,L102,부동산 서비스,L10203,부동산 중개/대리업,L68221,부동산 중개 및 대리업,26,부산광역시,26410,금정구,26410580,부곡2동,2641010900,부곡동,2.64101E+18,1,대지,267,16,부산광역시 금정구 부곡동 267-16,2.64104E+11,부산광역시 금정구 중앙대로1629번길,6,null,2.64101E+24,승주빌딩,부산광역시 금정구 중앙대로1629번길 6,609822,46279,,1,,129.090794,35.2301034
MA010120220805436565,춘해,,M1,과학·기술,M107,본사·경영 컨설팅,M10703,경영 컨설팅업,M71531,경영 컨설팅업,26,부산광역시,26440,강서구,26440530,강동동,2644010300,강동동,2.64401E+18,1,대지,661,76,부산광역시 강서구 강동동 661-76,2.64403E+11,부산광역시 강서구 낙동북로,140,null,2.64401E+24,,부산광역시 강서구 낙동북로 140,618800,46706,,null,,128.9440996,35.21557106
MA010120220805436831,해롯스수학교습소,,P1,교육,P105,일반 교육,P10501,입시·교과학원,P85501,일반 교과학원,26,부산광역시,26350,해운대구,26350530,중1동,2635010600,중동,2.63501E+18,1,대지,1839,null,부산광역시 해운대구 중동 1839,2.63504E+11,부산광역시 해운대구 중동2로34번길,15,null,2.63501E+24,롯데캐슬스타,부산광역시 해운대구 중동2로34번길 15,612011,48096,,2,,129.1633126,35.16565583
MA010120220805436832,일타수학영어학원,,P1,교육,P105,일반 교육,P10501,입시·교과학원,P85501,일반 교과학원,26,부산광역시,26290,남구,26290570,용호1동,2629010700,용호동,2.62901E+18,1,대지,957,1,부산광역시 남구 용호동 957-1,2.62903E+11,부산광역시 남구 분포로,115,null,2.62901E+24,힐탑탑플레이스,부산광역시 남구 분포로 115,608091,48515,,7,,129.1127482,35.13221162
MA010120220805436771,선정음악학원,,P1,교육,P106,기타 교육,P10609,음악학원,P85621,음악학원,26,부산광역시,26710,기장군,26710250,기장읍,2671025022,기장읍,2.67103E+18,1,대지,354,11,부산광역시 기장군 기장읍 교리 354-11,2.67104E+11,부산광역시 기장군 기장읍 차성동로172번길,1,null,2.67103E+24,제일학원,부산광역시 기장군 기장읍 차성동로172번길 1,619901,46055,,3,,129.2175493,35.25324059
MA010120220805436912,쵸리네,,G2,소매,G205,식료품 소매,G20505,수산물 소매업,G47214,"신선, 냉동 및 기타 수산물 소매업",26,부산광역시,26500,수영구,26500800,민락동,2650010300,민락동,2.65001E+18,1,대지,113,51,부산광역시 수영구 민락동 113-51,2.65004E+11,부산광역시 수영구 광안해변로312번길,60,null,2.65001E+24,민락어민활어직판장,부산광역시 수영구 광안해변로312번길 60,613827,48281,,null,,129.1278866,35.1542368
MA010120220805437048,디와이비최선어학원동래캠퍼스학원,,P1,교육,P105,일반 교육,P10501,입시·교과학원,P85501,일반 교과학원,26,부산광역시,26260,동래구,26260600,사직3동,2626010900,사직동,2.62601E+18,1,대지,129,8,부산광역시 동래구 사직동 129-8,2.62603E+11,부산광역시 동래구 여고로,57,null,2.62601E+24,,부산광역시 동래구 여고로 57,607818,47843,,null,,129.0701041,35.19630593
MA010120220805439489,브리머,,I2,음식,I204,서양식,I20401,경양식,I56123,서양식 음식점업,26,부산광역시,26500,수영구,26500770,광안2동,2650010400,광안동,2.65001E+18,1,대지,182,16,부산광역시 수영구 광안동 182-16,2.65004E+11,부산광역시 수영구 수영로510번길,43,null,2.65001E+24,광남빌라,부산광역시 수영구 수영로510번길 43,613805,48302,,1,,129.1139791,35.1508771
MA010120220805440053,길세이로무시&만타스시,,I2,음식,I201,한식,I20101,백반/한정식,I56111,한식 일반 음식점업,26,부산광역시,26230,부산진구,26230540,연지동,2623010600,연지동,2.62301E+18,1,대지,340,8,부산광역시 부산진구 연지동 340-8,2.62303E+11,부산광역시 부산진구 새싹로,168,null,2.62301E+24,,부산광역시 부산진구 새싹로 168,614860,47132,,null,,129.0500486,35.17123358
MA010120220805439521,원네일,,S2,수리·개인,S207,이용·미용,S20703,네일숍,S96119,기타 미용업,26,부산광역시,26260,동래구,26260545,명륜동,2626010700,명륜동,2.62601E+18,1,대지,16,12,부산광역시 동래구 명륜동 16-12,2.62603E+11,부산광역시 동래구 시실로,48,null,2.62601E+24,,부산광역시 동래구 시실로 48,607802,47744,,1,,129.0881349,35.21524555
MA010120220805440092,뉴SK뷰공인중개사사무소,,L1,부동산,L102,부동산 서비스,L10203,부동산 중개/대리업,L68221,부동산 중개 및 대리업,26,부산광역시,26290,남구,26290510,대연1동,2629010600,대연동,2.62901E+18,1,대지,1729,2,부산광역시 남구 대연동 1729-2,2.62904E+11,부산광역시 남구 수영로250번길,2,null,2.62901E+24,,부산광역시 남구 수영로250번길 2,608811,48496,,1,,129.0939136,35.13503319
MA010120220805440359,지중해,,I2,음식,I210,기타 간이,I21006,치킨,I56193,치킨 전문점,26,부산광역시,26350,해운대구,26350650,재송1동,2635010400,재송동,2.63501E+18,1,대지,1103,8,부산광역시 해운대구 재송동 1103-8,2.63504E+11,부산광역시 해운대구 해운대로143번길,24,null,2.63501E+24,,부산광역시 해운대구 해운대로143번길 24,612831,48055,,1,,129.1225204,35.18463624
MA010120220805438843,씨이오,,I2,음식,I211,주점,I21103,생맥주 전문,I56213,생맥주 전문점,26,부산광역시,26230,부산진구,26230510,부전1동,2623010300,부전동,2.62301E+18,1,대지,404,27,부산광역시 부산진구 부전동 404-27,2.62303E+11,부산광역시 부산진구 서면문화로,46,null,2.62301E+24,,부산광역시 부산진구 서면문화로 46,614849,47256,,2,,129.0556942,35.16127822
MA010120220805439033,도토리,,M1,과학·기술,M112,전문 디자인,M11203,시각 디자인업,M73203,시각 디자인업,26,부산광역시,26410,금정구,26410680,구서1동,2641010700,구서동,2.64101E+18,1,대지,487,4,부산광역시 금정구 구서동 487-4,2.64104E+11,부산광역시 금정구 체육공원로19번길,43,null,2.64101E+24,골든빌,부산광역시 금정구 체육공원로19번길 43,609800,46251,,null,,129.0960959,35.24775854
MA010120220805439346,명남엔시스,,G2,소매,G208,가전·통신 소매,G20802,핸드폰 소매업,G47312,통신기기 소매업,26,부산광역시,26500,수영구,26500760,광안1동,2650010400,광안동,2.65001E+18,1,대지,99,5,부산광역시 수영구 광안동 99-5,2.65003E+11,부산광역시 수영구 수영로,648,null,2.65001E+24,광안동롯데골드로즈,부산광역시 수영구 수영로 648,613801,48269,,2,,129.1148192,35.16338963
MA010120220805438856,힐,,S2,수리·개인,S208,욕탕·신체관리,S20803,체형/비만 관리,S96129,체형 등 기타 신체 관리 서비스업,26,부산광역시,26350,해운대구,26350580,반여2동,2635010300,반여동,2.63501E+18,1,대지,1291,1335,부산광역시 해운대구 반여동 1291-1335,2.63503E+11,부산광역시 해운대구 재반로,228,1,2.63501E+24,,부산광역시 해운대구 재반로 228-1,612814,48027,,null,,129.1312856,35.19757962
MA010120220805438732,양혜자숯불나라,,I2,음식,I201,한식,I20107,돼지고기 구이/찜,I56113,한식 육류 요리 전문점,26,부산광역시,26290,남구,26290530,대연3동,2629010600,대연동,2.62901E+18,1,대지,40,3,부산광역시 남구 대연동 40-3,2.62904E+11,부산광역시 남구 용소로13번길,61,null,2.62901E+24,아침햇살,부산광역시 남구 용소로13번길 61,608804,48511,,null,,129.1036383,35.13768525
MA010120220805439037,우노건축,,M1,과학·기술,M109,기술 서비스,M10901,건축 설계 및 관련 서비스업,M72111,건축 설계 및 관련 서비스업,26,부산광역시,26350,해운대구,26350650,재송1동,2635010400,재송동,2.63501E+18,1,대지,1216,null,부산광역시 해운대구 재송동 1216,2.63503E+11,부산광역시 해운대구 센텀동로,99,null,2.63501E+24,벽산이센텀클래스원,부산광역시 해운대구 센텀동로 99,612051,48059,,5,,129.1258732,35.17617719
MA010120220805439233,안동화로1970,,I2,음식,I201,한식,I20107,돼지고기 구이/찜,I56113,한식 육류 요리 전문점,26,부산광역시,26350,해운대구,26350650,재송1동,2635010400,재송동,2.63501E+18,1,대지,1353,null,부산광역시 해운대구 재송동 1353,2.63504E+11,부산광역시 해운대구 해운대로76번길,40,null,2.63501E+24,센텀리슈빌,부산광역시 해운대구 해운대로76번길 40,612051,48047,,2,,129.1159067,35.19156589
MA010120220805439291,라테니스존,,P1,교육,P106,기타 교육,P10613,기타 예술/스포츠 교육기관,P85612,기타 스포츠 교육기관,26,부산광역시,26350,해운대구,26350552,좌2동,2635010700,좌동,2.63501E+18,1,대지,1479,1,부산광역시 해운대구 좌동 1479-1,2.63502E+11,부산광역시 해운대구 해운대로,802,null,2.63501E+24,웅신시네아트,부산광역시 해운대구 해운대로 802,612842,48111,,null,,129.1766891,35.16917722
MA010120220805438741,헤어보그,,S2,수리·개인,S207,이용·미용,S20701,미용실,S96112,두발 미용업,26,부산광역시,26140,서구,26140530,동대신3동,2614010300,동대신동3가,2.61401E+18,1,대지,191,3,부산광역시 서구 동대신동3가 191-3,2.61403E+11,부산광역시 서구 구덕로,342,null,2.61401E+24,,부산광역시 서구 구덕로 342,602812,49211,,null,,129.0158253,35.1142235
MA010120220805438749,신성보리밥,,I2,음식,I201,한식,I20101,백반/한정식,I56111,한식 일반 음식점업,26,부산광역시,26410,금정구,26410555,금사회동동,2641011100,금사동,2.64101E+18,1,대지,68,25,부산광역시 금정구 금사동 68-25,2.64103E+11,부산광역시 금정구 개좌로,75,null,2.64101E+24,,부산광역시 금정구 개좌로 75,609809,46330,,1,,129.1120983,35.21988622
MA010120220805438804,별헤는,,N1,시설관리·임대,N105,여행사·보조,N10501,여행사,N75210,여행사업,26,부산광역시,26200,영도구,26200530,남항동,2620010100,대교동1가,2.62001E+18,1,대지,59,null,부산광역시 영도구 대교동1가 59,2.62003E+11,부산광역시 영도구 봉래나루로,33,null,2.62001E+24,SEA-SIDECOMPLEXTOWN,부산광역시 영도구 봉래나루로 33,606011,49037,,null,,129.0376871,35.09420748
MA010120220805438997,호호상사,,G2,소매,G215,의약·화장품 소매,G21503,화장품 소매업,G47813,"화장품, 비누 및 방향제 소매업",26,부산광역시,26230,부산진구,26230600,전포1동,2623010200,전포동,2.62301E+18,1,대지,689,28,부산광역시 부산진구 전포동 689-28,2.62302E+11,부산광역시 부산진구 전포대로,189,null,2.62301E+24,,부산광역시 부산진구 전포대로 189,614869,47297,,5,,129.0650776,35.15359736
MA010120220805439055,쉬즈본여성의원,,Q1,보건의료,Q102,의원,Q10207,산부인과 의원,Q86201,일반의원,26,부산광역시,26500,수영구,26500780,광안3동,2650010400,광안동,2.65001E+18,1,대지,1077,13,부산광역시 수영구 광안동 1077-13,2.65003E+11,부산광역시 수영구 수영로,669,null,2.65001E+24,신세계메디컬센터,부산광역시 수영구 수영로 669,613812,48243,,8,,129.114509,35.16559187
MA010120220805439057,예바디스튜디오,,P1,교육,P106,기타 교육,P10603,요가/필라테스 학원,P85612,기타 스포츠 교육기관,26,부산광역시,26410,금정구,26410600,장전1동,2641010800,장전동,2.64101E+18,1,대지,96,27,부산광역시 금정구 장전동 96-27,2.64103E+11,부산광역시 금정구 금강로,389,null,2.64101E+24,,부산광역시 금정구 금강로 389,609836,46246,,3,,129.0864928,35.2428425
MA010120220805439061,정탁구교실,,R1,예술·스포츠,R103,스포츠 서비스,R10313,탁구장,R91139,그 외 기타 스포츠시설 운영업,26,부산광역시,26710,기장군,26710250,기장읍,2671025027,기장읍,2.67103E+18,1,대지,136,3,부산광역시 기장군 기장읍 청강리 136-3,2.67103E+11,부산광역시 기장군 기장읍 청강로,99,null,2.67103E+24,모임빌딩,부산광역시 기장군 기장읍 청강로 99,619906,46080,,5,,129.2208065,35.24035434
MA010120220805441873,쿠르토스비콘,,I2,음식,I211,주점,I21104,요리 주점,I56219,기타 주점업,26,부산광역시,26500,수영구,26500740,망미1동,2650010100,망미동,2.65001E+18,1,대지,603,2,부산광역시 수영구 망미동 603-2,2.65003E+11,부산광역시 수영구 망미번영로,49,1,2.65001E+24,,부산광역시 수영구 망미번영로 49-1,613824,48219,,1,,129.1095546,35.17177578
MA010120220805441888,유명당구장,,R1,예술·스포츠,R103,스포츠 서비스,R10310,당구장,R91135,당구장 운영업,26,부산광역시,26470,연제구,26470680,연산4동,2647010200,연산동,2.64701E+18,1,대지,726,11,부산광역시 연제구 연산동 726-11,2.64703E+11,부산광역시 연제구 반송로,13,7,2.64701E+24,,부산광역시 연제구 반송로 13-7,611822,47520,,null,,129.0822478,35.18710303
MA010120220805442155,가비커피,,I2,음식,I212,비알코올 ,I21201,카페,I56221,커피 전문점,26,부산광역시,26320,북구,26320572,만덕2동,2632010300,만덕동,2.63201E+18,1,대지,944,6,부산광역시 북구 만덕동 944-6,2.63204E+11,부산광역시 북구 함박봉로140번길,21,null,2.63201E+24,만덕3단지주공아파트,부산광역시 북구 함박봉로140번길 21,616796,46617,,null,,129.0337629,35.20285022
MA010120220805441935,컴포즈커피용호,,I2,음식,I212,비알코올 ,I21201,카페,I56221,커피 전문점,26,부산광역시,26290,남구,26290570,용호1동,2629010700,용호동,2.62901E+18,1,대지,370,18,부산광역시 남구 용호동 370-18,2.62903E+11,부산광역시 남구 동명로,137,null,2.62901E+24,원진찜질방,부산광역시 남구 동명로 137,608833,48528,,1,,129.1119113,35.11987926
MA010120220805441581,도쿄뱃살,,I2,음식,I211,주점,I21104,요리 주점,I56219,기타 주점업,26,부산광역시,26500,수영구,26500800,민락동,2650010300,민락동,2.65001E+18,1,대지,713,40,부산광역시 수영구 민락동 713-40,2.65004E+11,부산광역시 수영구 광안로61번길,35,null,2.65001E+24,,부산광역시 수영구 광안로61번길 35,613828,48284,,1,,129.1207661,35.15521327
MA010120220805441968,산마루,,I2,음식,I201,한식,I20111,횟집,I56114,한식 해산물 요리 전문점,26,부산광역시,26350,해운대구,26350570,반여1동,2635010300,반여동,2.63501E+18,1,대지,907,7,부산광역시 해운대구 반여동 907-7,2.63503E+11,부산광역시 해운대구 선수촌로,155,null,2.63501E+24,명호공주얼큰이칼국수,부산광역시 해운대구 선수촌로 155,612809,48032,,1,,129.1222137,35.20704739
MA010120220805442443,리프패럿일광점,,G2,소매,G220,애완동물·용품 소매,G22001,애완동물/애완용품 소매업,R91299,그 외 기타 분류 안된 오락관련 서비스업,26,부산광역시,26710,기장군,26710259,일광읍,2671025921,일광읍,2.67103E+18,1,대지,779,5,부산광역시 기장군 일광읍 삼성리 779-5,2.67103E+11,부산광역시 기장군 일광읍 해빛로,51,null,2.67103E+24,,부산광역시 기장군 일광읍 해빛로 51,619912,46048,,null,,129.2225086,35.267378
MA010120220805441425,빵굽는남자,,I2,음식,I210,기타 간이,I21001,빵/도넛,I56191,제과점업,26,부산광역시,26440,강서구,26440545,명지2동,2644010400,명지동,2.64401E+18,1,대지,3231,null,부산광역시 강서구 명지동 3231,2.64403E+11,부산광역시 강서구 명지오션시티10로,16,null,2.64401E+24,영어도시퀸덤1차,부산광역시 강서구 명지오션시티10로 16,618709,46762,,null,,128.8968134,35.08642528
MA010120220805440684,연희옥,,I2,음식,I201,한식,I20102,국/탕/찌개류,I56111,한식 일반 음식점업,26,부산광역시,26410,금정구,26410680,구서1동,2641010700,구서동,2.64101E+18,1,대지,420,20,부산광역시 금정구 구서동 420-20,2.64104E+11,부산광역시 금정구 중앙대로1793번길,38,null,2.64101E+24,,부산광역시 금정구 중앙대로1793번길 38,609853,46274,,null,,129.0915213,35.24339216
MA010120220805440754,타타타,,I2,음식,I211,주점,I21104,요리 주점,I56219,기타 주점업,26,부산광역시,26380,사하구,26380550,당리동,2638010200,당리동,2.63801E+18,1,대지,305,61,부산광역시 사하구 당리동 305-61,2.63804E+11,부산광역시 사하구 승학로2번길,25,null,2.63801E+24,,부산광역시 사하구 승학로2번길 25,604829,49326,,2,,128.9703621,35.10561794
MA010120220805441064,오케이피트니스,,R1,예술·스포츠,R103,스포츠 서비스,R10307,헬스장,P85612,기타 스포츠 교육기관,26,부산광역시,26230,부산진구,26230780,범천2동,2623010400,범천동,2.62301E+18,1,대지,1298,117,부산광역시 부산진구 범천동 1298-117,2.62303E+11,부산광역시 부산진구 신암로,9,null,2.62301E+24,,부산광역시 부산진구 신암로 9,614833,47369,,3,,129.0557204,35.14291661
MA010120220805440759,새우야,,I2,음식,I201,한식,I20111,횟집,I56114,한식 해산물 요리 전문점,26,부산광역시,26440,강서구,26440535,명지1동,2644010400,명지동,2.64401E+18,1,대지,3440,3,부산광역시 강서구 명지동 3440-3,2.64403E+11,부산광역시 강서구 명지국제8로,284,null,2.64401E+24,,부산광역시 강서구 명지국제8로 284,618200,46772,,null,,128.9238046,35.09737315
MA010120220805441209,끌리오바디테라피,,S2,수리·개인,S208,욕탕·신체관리,S20803,체형/비만 관리,S96129,체형 등 기타 신체 관리 서비스업,26,부산광역시,26260,동래구,26260545,명륜동,2626010700,명륜동,2.62601E+18,1,대지,440,null,부산광역시 동래구 명륜동 440,2.62603E+11,부산광역시 동래구 명륜로,113,null,2.62601E+24,,부산광역시 동래구 명륜로 113,607804,47738,,3,,129.0827012,35.20390079
MA010120220805440724,지에스25양정골드로즈점,,G2,소매,G204,종합 소매,G20405,편의점,G47122,체인화 편의점,26,부산광역시,26230,부산진구,26230570,양정2동,2623010100,양정동,2.62301E+18,1,대지,150,3,부산광역시 부산진구 양정동 150-3,2.62302E+11,부산광역시 부산진구 중앙대로,993,null,2.62301E+24,시청역롯데골드로즈,부산광역시 부산진구 중앙대로 993,614854,47209,,7,,129.0746511,35.17803062
MA010120220805440963,오후전포,,I2,음식,I201,한식,I20101,백반/한정식,I56111,한식 일반 음식점업,26,부산광역시,26230,부산진구,26230600,전포1동,2623010200,전포동,2.62301E+18,1,대지,349,28,부산광역시 부산진구 전포동 349-28,2.62304E+11,부산광역시 부산진구 전포대로186번길,43,null,2.62301E+24,,부산광역시 부산진구 전포대로186번길 43,614867,47305,,1,,129.0679805,35.15317519
MA010120220805441347,인코브부산지사,,G2,소매,G202,자동차 부품 소매,G20202,자동차 부품 소매업,G45219,기타 자동차 신품 부품 및 내장품 판매업,26,부산광역시,26230,부산진구,26230550,초읍동,2623010700,초읍동,2.62301E+18,1,대지,279,11,부산광역시 부산진구 초읍동 279-11,2.62303E+11,부산광역시 부산진구 초읍천로,70,null,2.62301E+24,,부산광역시 부산진구 초읍천로 70,614872,47104,,1,,129.0468608,35.17860751
MA010120220805441352,뉴발란스키즈동부산,,G2,소매,G209,섬유·의복·신발 소매,G20905,기타 의류 소매업,G47419,기타 의복 소매업,26,부산광역시,26710,기장군,26710250,기장읍,2671025032,기장읍,2.67103E+18,1,대지,524,null,부산광역시 기장군 기장읍 당사리 524,2.67103E+11,부산광역시 기장군 기장읍 기장해안로,147,null,2.67103E+24,롯데몰동부산점,부산광역시 기장군 기장읍 기장해안로 147,619902,46084,,1,,129.2128062,35.19222964
MA010120220805441355,픽미픽미아이스,,I2,음식,I201,한식,I20101,백반/한정식,G47216,"빵류, 과자류 및 당류 소매업",26,부산광역시,26530,사상구,26530660,주례2동,2653010600,주례동,2.65301E+18,1,대지,92,78,부산광역시 사상구 주례동 92-78,2.65304E+11,부산광역시 사상구 가야대로330번길,90,null,2.65301E+24,이모네집,부산광역시 사상구 가야대로330번길 90,617012,47008,,1,,129.0092057,35.14675627
MA010120220805441174,대산공인중개사사무소,,L1,부동산,L102,부동산 서비스,L10203,부동산 중개/대리업,L68221,부동산 중개 및 대리업,26,부산광역시,26440,강서구,26440535,명지1동,2644010400,명지동,2.64401E+18,1,대지,3432,3,부산광역시 강서구 명지동 3432-3,2.64403E+11,부산광역시 강서구 명지국제6로,107,null,2.64401E+24,,부산광역시 강서구 명지국제6로 107,618200,46726,,15,,128.910912,35.09295461
MA010120220805441235,명품달인김밥,,I2,음식,I210,기타 간이,I21007,김밥/만두/분식,I56194,김밥 및 기타 간이 음식점업,26,부산광역시,26320,북구,26320541,화명1동,2632010200,화명동,2.63201E+18,1,대지,2337,null,부산광역시 북구 화명동 2337,2.63202E+11,부산광역시 북구 금곡대로,175,null,2.63201E+24,화명2차동원로얄듀크비스타,부산광역시 북구 금곡대로 175,616121,46541,,null,,129.0095024,35.22491359
MA010120220805441051,백프로홈케어,,N1,시설관리·임대,N102,청소·방제,N10202,"산업설비, 운송장비 및 공공장소 청소업",N74212,"산업설비, 운송장비 및 공공장소 청소업",26,부산광역시,26230,부산진구,26230560,양정1동,2623010100,양정동,2.62301E+18,1,대지,363,11,부산광역시 부산진구 양정동 363-11,2.62304E+11,부산광역시 부산진구 양지로8번길,8,null,2.62301E+24,,부산광역시 부산진구 양지로8번길 8,614853,47229,,2,,129.0692479,35.16950623
MA010120220805443737,폭스뷰티,,S2,수리·개인,S207,이용·미용,S20702,피부 관리실,S96113,피부 미용업,26,부산광역시,26410,금정구,26410690,구서2동,2641010700,구서동,2.64101E+18,1,대지,203,5,부산광역시 금정구 구서동 203-5,2.64104E+11,부산광역시 금정구 구서중앙로15번길,20,null,2.64101E+24,금정산온천레포츠,부산광역시 금정구 구서중앙로15번길 20,609804,46230,,1,,129.0890796,35.25388815
MA010120220805443806,게하식당롯데백화점,,I2,음식,I201,한식,I20101,백반/한정식,I56111,한식 일반 음식점업,26,부산광역시,26350,해운대구,26350520,우2동,2635010500,우동,2.63501E+18,1,대지,1496,null,부산광역시 해운대구 우동 1496,2.63502E+11,부산광역시 해운대구 센텀남대로,59,null,2.63501E+24,롯데백화점센텀시티점,부산광역시 해운대구 센텀남대로 59,612022,48058,,1,,129.1310993,35.1698729
MA010120220805444051,제일칼국수,,I2,음식,I201,한식,I20105,국수/칼국수,I56111,한식 일반 음식점업,26,부산광역시,26140,서구,26140520,동대신2동,2614010200,동대신동2가,2.61401E+18,1,대지,376,4,부산광역시 서구 동대신동2가 376-4,2.61403E+11,부산광역시 서구 구덕로,304,null,2.61401E+24,,부산광역시 서구 구덕로 304,602811,49217,,1,,129.0175637,35.1111081
MA010120220805443882,지에스25부산,,G2,소매,G204,종합 소매,G20405,편의점,G47122,체인화 편의점,26,부산광역시,26290,남구,26290600,용호4동,2629010700,용호동,2.62901E+18,1,대지,533,1,부산광역시 남구 용호동 533-1,2.62904E+11,부산광역시 남구 용호로198번길,11,null,2.62901E+24,,부산광역시 남구 용호로198번길 11,608838,48568,,null,,129.1104254,35.11467381
MA010120220805444127,하숙집,,I2,음식,I201,한식,I20107,돼지고기 구이/찜,I56113,한식 육류 요리 전문점,26,부산광역시,26290,남구,26290570,용호1동,2629010700,용호동,2.62901E+18,1,대지,957,1,부산광역시 남구 용호동 957-1,2.62903E+11,부산광역시 남구 분포로,115,null,2.62901E+24,힐탑탑플레이스,부산광역시 남구 분포로 115,608091,48515,,null,,129.1127482,35.13221162
MA010120220805444139,이모포차,,I2,음식,I211,주점,I21104,요리 주점,I56219,기타 주점업,26,부산광역시,26470,연제구,26470680,연산4동,2647010200,연산동,2.64701E+18,1,대지,726,15,부산광역시 연제구 연산동 726-15,2.64702E+11,부산광역시 연제구 중앙대로,1116,4,2.64701E+24,,부산광역시 연제구 중앙대로 1116-4,611822,47520,,null,,129.0818519,35.1870615
MA010120220805444271,시골삼계탕,,I2,음식,I201,한식,I20102,국/탕/찌개류,I56111,한식 일반 음식점업,26,부산광역시,26710,기장군,26710256,정관읍,2671025622,정관읍,2.67103E+18,1,대지,768,7,부산광역시 기장군 정관읍 매학리 768-7,2.67103E+11,부산광역시 기장군 정관읍 구연1로,6,null,2.67103E+24,,부산광역시 기장군 정관읍 구연1로 6,619963,46023,,1,,129.1835977,35.3206567
MA010120220805443966,구석,,I2,음식,I201,한식,I20101,백반/한정식,I56111,한식 일반 음식점업,26,부산광역시,26470,연제구,26470690,연산5동,2647010200,연산동,2.64701E+18,1,대지,1503,26,부산광역시 연제구 연산동 1503-26,2.64704E+11,부산광역시 연제구 시청로32번길,14,1,2.64701E+24,,부산광역시 연제구 시청로32번길 14-1,611830,47542,,1,,129.0745068,35.18207913
MA010120220805444104,바른참치,,I2,음식,I203,일식,I20301,일식 회/초밥,I56114,한식 해산물 요리 전문점,26,부산광역시,26350,해운대구,26350650,재송1동,2635010400,재송동,2.63501E+18,1,대지,1091,9,부산광역시 해운대구 재송동 1091-9,2.63504E+11,부산광역시 해운대구 해운대로143번길,47,null,2.63501E+24,,부산광역시 해운대구 해운대로143번길 47,612831,48055,,null,,129.1236805,35.18516631
MA010120220805443727,몽몽팩토리,,G2,소매,G213,오락용품 소매,G21302,문구/회화용품 소매업,G47612,문구용품 및 회화용품 소매업,26,부산광역시,26410,금정구,26410610,장전2동,2641010800,장전동,2.64101E+18,1,대지,312,21,부산광역시 금정구 장전동 312-21,2.64104E+11,부산광역시 금정구 금정로68번길,12,12,2.64101E+24,,부산광역시 금정구 금정로68번길 12-12,609392,46291,,1,,129.0872251,35.23020761
MA010120220805444193,부산공인중개사사무소,,L1,부동산,L102,부동산 서비스,L10203,부동산 중개/대리업,L68221,부동산 중개 및 대리업,26,부산광역시,26470,연제구,26470630,거제3동,2647010100,거제동,2.64701E+18,1,대지,38,45,부산광역시 연제구 거제동 38-45,2.64704E+11,부산광역시 연제구 거제대로214번길,6,null,2.64701E+24,경남,부산광역시 연제구 거제대로214번길 6,611757,47537,,1,,129.0743934,35.18681241
MA010120220805443254,죽이야기,,I2,음식,I201,한식,I20101,백반/한정식,I56111,한식 일반 음식점업,26,부산광역시,26230,부산진구,26230520,부전2동,2623010300,부전동,2.62301E+18,1,대지,256,7,부산광역시 부산진구 부전동 256-7,2.62304E+11,부산광역시 부산진구 서면로68번길,14,null,2.62301E+24,,부산광역시 부산진구 서면로68번길 14,614847,47286,,2,,129.0582767,35.15643324
MA010120220805442573,강헤어라인,,S2,수리·개인,S207,이용·미용,S20701,미용실,S96112,두발 미용업,26,부산광역시,26350,해운대구,26350570,반여1동,2635010300,반여동,2.63501E+18,1,대지,1405,36,부산광역시 해운대구 반여동 1405-36,2.63504E+11,부산광역시 해운대구 선수촌로21번길,21,null,2.63501E+24,그린종합상가,부산광역시 해운대구 선수촌로21번길 21,612815,48043,,1,,129.1173078,35.19605987
MA010120220805442888,보림종합세탁소,,S2,수리·개인,S209,세탁,S20901,세탁소,S96912,가정용 세탁업,26,부산광역시,26260,동래구,26260510,수민동,2626010400,낙민동,2.62601E+18,1,대지,84,8,부산광역시 동래구 낙민동 84-8,2.62603E+11,부산광역시 동래구 안남로,23,null,2.62601E+24,보림프라자,부산광역시 동래구 안남로 23,607801,47892,,1,,129.0948441,35.19466059
MA010120220805443278,인아헤어,,S2,수리·개인,S207,이용·미용,S20701,미용실,S96112,두발 미용업,26,부산광역시,26140,서구,26140640,충무동,2614012200,충무동3가,2.61401E+18,1,대지,1,22,부산광역시 서구 충무동3가 1-22,2.61404E+11,부산광역시 서구 충무대로255번길,10,null,2.61401E+24,,부산광역시 서구 충무대로255번길 10,602013,49253,,null,,129.0233112,35.09350938
MA010120220805443025,다선,,I2,음식,I201,한식,I20101,백반/한정식,I56111,한식 일반 음식점업,26,부산광역시,26710,기장군,26710259,일광읍,2671025931,일광읍,2.67103E+18,1,대지,331,null,부산광역시 기장군 일광읍 화전리 331,2.67104E+11,부산광역시 기장군 일광읍 화용길,32,null,2.67103E+24,솔밭집,부산광역시 기장군 일광읍 화용길 32,619912,46047,,1,,129.2296886,35.28141147
MA010120220805442485,벤처,,I2,음식,I201,한식,I20101,백반/한정식,I56111,한식 일반 음식점업,26,부산광역시,26320,북구,26320510,구포1동,2632010500,구포동,2.63201E+18,1,대지,146,8,부산광역시 북구 구포동 146-8,2.63202E+11,부산광역시 북구 백양대로,1199,6,2.63201E+24,,부산광역시 북구 백양대로 1199-6,616800,46581,,null,,129.0050061,35.20948317
MA010120220805442739,학장집,,I2,음식,I211,주점,I21104,요리 주점,I56219,기타 주점업,26,부산광역시,26530,사상구,26530670,학장동,2653010700,학장동,2.65301E+18,1,대지,574,82,부산광역시 사상구 학장동 574-82,2.65303E+11,부산광역시 사상구 대동로,104,8,2.65301E+24,목화아파트,부산광역시 사상구 대동로 104-8,617777,47051,,3,,128.9805152,35.13823922
MA010120220805443239,제일이용원,,S2,수리·개인,S207,이용·미용,S20701,미용실,S96111,이용업,26,부산광역시,26410,금정구,26410580,부곡2동,2641010900,부곡동,2.64101E+18,1,대지,242,8,부산광역시 금정구 부곡동 242-8,2.64103E+11,부산광역시 금정구 무학송로,22,1,2.64101E+24,,부산광역시 금정구 무학송로 22-1,609852,46269,,null,,129.0925255,35.23306233
MA010120220805445512,일오육CM_MMM,,G2,소매,G209,섬유·의복·신발 소매,G20905,기타 의류 소매업,G47414,셔츠 및 블라우스 소매업,26,부산광역시,26230,부산진구,26230520,부전2동,2623010300,부전동,2.62301E+18,1,대지,573,1,부산광역시 부산진구 부전동 573-1,2.62302E+11,부산광역시 부산진구 중앙대로,717,null,2.62301E+24,서면지하도상가서면몰,부산광역시 부산진구 중앙대로 717,614727,47286,,null,,129.0591615,35.1552537
MA010120220805445686,시소건축,,M1,과학·기술,M109,기술 서비스,M10901,건축 설계 및 관련 서비스업,M72111,건축 설계 및 관련 서비스업,26,부산광역시,26470,연제구,26470690,연산5동,2647010200,연산동,2.64701E+18,1,대지,1405,33,부산광역시 연제구 연산동 1405-33,2.64704E+11,부산광역시 연제구 거제천로124번길,43,null,2.64701E+24,,부산광역시 연제구 거제천로124번길 43,611830,47541,,2,,129.0772638,35.18383938
MA010120220805445936,회계법인공감양정지점,,M1,과학·기술,M104,회계·세무,M10401,공인회계사,M71201,공인회계사업,26,부산광역시,26230,부산진구,26230560,양정1동,2623010100,양정동,2.62301E+18,1,대지,369,19,부산광역시 부산진구 양정동 369-19,2.62302E+11,부산광역시 부산진구 중앙대로,919,null,2.62301E+24,,부산광역시 부산진구 중앙대로 919,614853,47213,,8,,129.070416,35.17236233
MA010120220805446445,건축사사무소상상인,,M1,과학·기술,M109,기술 서비스,M10901,건축 설계 및 관련 서비스업,M72111,건축 설계 및 관련 서비스업,26,부산광역시,26350,해운대구,26350530,중1동,2635010600,중동,2.63501E+18,1,대지,1768,5,부산광역시 해운대구 중동 1768-5,2.63503E+11,부산광역시 해운대구 좌동순환로,505,null,2.63501E+24,센트럴메디타워,부산광역시 해운대구 좌동순환로 505,612851,48096,,null,,129.1682527,35.16568942
MA010120220805445948,신세계푸드스무디킹김해,,I2,음식,I212,비알코올 ,I21201,카페,I56221,커피 전문점,26,부산광역시,26440,강서구,26440520,대저2동,2644010200,대저2동,2.64401E+18,1,대지,2350,null,부산광역시 강서구 대저2동 2350,2.64403E+11,부산광역시 강서구 공항진입로,108,null,2.64401E+24,,부산광역시 강서구 공항진입로 108,618702,46718,,3,,128.9457559,35.17273274
MA010120220805445602,카페베네,,I2,음식,I212,비알코올 ,I21201,카페,I56221,커피 전문점,26,부산광역시,26110,중구,26110560,부평동,2611012300,부평동1가,2.61101E+18,1,대지,47,2,부산광역시 중구 부평동1가 47-2,2.61103E+11,부산광역시 중구 비프광장로,19,null,2.61101E+24,,부산광역시 중구 비프광장로 19,600805,48980,,1,,129.0273254,35.0987757
MA010120220805444494,박승철헤어스투디오,,S2,수리·개인,S207,이용·미용,S20701,미용실,S96112,두발 미용업,26,부산광역시,26410,금정구,26410610,장전2동,2641010800,장전동,2.64101E+18,1,대지,423,30,부산광역시 금정구 장전동 423-30,2.64103E+11,부산광역시 금정구 장전로,40,null,2.64101E+24,덕암빌딩,부산광역시 금정구 장전로 40,609392,46293,,null,,129.0847599,35.22904893
MA010120220805444744,가남,,G2,소매,G209,섬유·의복·신발 소매,G20907,액세서리/잡화 소매업,G47422,의복 액세서리 및 모조 장신구 소매업,26,부산광역시,26110,중구,26110560,부평동,2611012400,부평동2가,2.61101E+18,1,대지,2,null,부산광역시 중구 부평동2가 2,2.61103E+11,부산광역시 중구 대청로,60,null,2.61101E+24,월드밸리,부산광역시 중구 대청로 60,600806,48977,,1,,129.026389,35.10282192
MA010120220805444941,필엔터치디자인,,M1,과학·기술,M112,전문 디자인,M11201,인테리어 디자인업,M73201,인테리어 디자인업,26,부산광역시,26350,해운대구,26350552,좌2동,2635010700,좌동,2.63501E+18,1,대지,1476,1,부산광역시 해운대구 좌동 1476-1,2.63503E+11,부산광역시 해운대구 양운로,45,null,2.63501E+24,해운대베르나움,부산광역시 해운대구 양운로 45,612842,48104,,null,,129.1768061,35.16739136
MA010120220805445314,희망공인중개사사무소,,L1,부동산,L102,부동산 서비스,L10203,부동산 중개/대리업,L68221,부동산 중개 및 대리업,26,부산광역시,26260,동래구,26260550,온천1동,2626010800,온천동,2.62601E+18,1,대지,191,10,부산광역시 동래구 온천동 191-10,2.62603E+11,부산광역시 동래구 금강로,84,1,2.62601E+24,,부산광역시 동래구 금강로 84-1,607833,47713,,null,,129.0784093,35.21651338
MA010120220805444571,페이지,,G2,소매,G209,섬유·의복·신발 소매,G20901,남성 의류 소매업,G47411,남자용 겉옷 소매업,26,부산광역시,26230,부산진구,26230600,전포1동,2623010200,전포동,2.62301E+18,1,대지,349,70,부산광역시 부산진구 전포동 349-70,2.62304E+11,부산광역시 부산진구 전포대로186번길,41,null,2.62301E+24,,부산광역시 부산진구 전포대로186번길 41,614867,47305,,1,,129.0678268,35.15316753
MA010120220805445022,오빠차,,G2,소매,G202,자동차 부품 소매,G20202,자동차 부품 소매업,G45219,기타 자동차 신품 부품 및 내장품 판매업,26,부산광역시,26410,금정구,26410670,남산동,2641010400,남산동,2.64101E+18,1,대지,23,8,부산광역시 금정구 남산동 23-8,2.64102E+11,부산광역시 금정구 중앙대로,2094,null,2.64101E+24,,부산광역시 금정구 중앙대로 2094,609813,46214,,null,,129.0930042,35.27119519
MA010120220805445349,신데렐라,,S2,수리·개인,S207,이용·미용,S20701,미용실,S96112,두발 미용업,26,부산광역시,26230,부산진구,26230660,부암3동,2623010800,부암동,2.62301E+18,1,대지,386,1,부산광역시 부산진구 부암동 386-1,2.62303E+11,부산광역시 부산진구 백양순환로,144,null,2.62301E+24,부암상가,부산광역시 부산진구 백양순환로 144,614839,47144,,null,,129.0409062,35.16794128
MA010120220805444599,금성당구장,,R1,예술·스포츠,R103,스포츠 서비스,R10310,당구장,R91135,당구장 운영업,26,부산광역시,26290,남구,26290510,대연1동,2629010600,대연동,2.62901E+18,1,대지,1757,9,부산광역시 남구 대연동 1757-9,2.62904E+11,부산광역시 남구 수영로196번길,6,null,2.62901E+24,수한의원,부산광역시 남구 수영로196번길 6,608816,48492,,3,,129.0879057,35.13460052
MA010120220805444732,하얀기쁨빨래방,,S2,수리·개인,S209,세탁,S20902,셀프 빨래방,S96912,가정용 세탁업,26,부산광역시,26320,북구,26320561,덕천3동,2632010400,덕천동,2.63201E+18,1,대지,792,3,부산광역시 북구 덕천동 792-3,2.63203E+11,부산광역시 북구 덕천로,166,null,2.63201E+24,,부산광역시 북구 덕천로 166,616815,46601,,null,,129.0224238,35.21114913
MA010120220805445048,다사랑,,I2,음식,I211,주점,I21104,요리 주점,I56219,기타 주점업,26,부산광역시,26110,중구,26110560,부평동,2611012400,부평동2가,2.61101E+18,1,대지,18,16,부산광역시 중구 부평동2가 18-16,2.61104E+11,부산광역시 중구 중구로33번길,36,null,2.61101E+24,,부산광역시 중구 중구로33번길 36,600806,48977,,1,,129.0259393,35.10106799
MA010120220805447726,프롬슈가비,,I2,음식,I212,비알코올 ,I21201,카페,I56221,커피 전문점,26,부산광역시,26380,사하구,26380572,신평2동,2638010400,신평동,2.63801E+18,1,대지,628,1,부산광역시 사하구 신평동 628-1,2.63804E+11,부산광역시 사하구 하신번영로157번길,51,null,2.63801E+24,,부산광역시 사하구 하신번영로157번길 51,604834,49431,,1,,128.9571829,35.09670861
MA010120220805448076,마왕꼬지,,I2,음식,I211,주점,I21104,요리 주점,I56219,기타 주점업,26,부산광역시,26470,연제구,26470680,연산4동,2647010200,연산동,2.64701E+18,1,대지,630,12,부산광역시 연제구 연산동 630-12,2.64704E+11,부산광역시 연제구 쌍미천로155번길,31,null,2.64701E+24,,부산광역시 연제구 쌍미천로155번길 31,611822,47550,,null,,129.0855347,35.18657786
MA010120220805447844,캐슬스크린골프,,R1,예술·스포츠,R103,스포츠 서비스,R10311,골프 연습장,R91136,골프 연습장 운영업,26,부산광역시,26530,사상구,26530580,삼락동,2653010100,삼락동,2.65301E+18,1,대지,363,5,부산광역시 사상구 삼락동 363-5,2.65303E+11,부산광역시 사상구 모덕로,43,null,2.65301E+24,,부산광역시 사상구 모덕로 43,617826,46906,,2,,128.9812773,35.1825188
MA010120220805447930,한잔해콜한방울,,I2,음식,I201,한식,I20101,백반/한정식,I56111,한식 일반 음식점업,26,부산광역시,26200,영도구,26200530,남항동,2620010500,남항동1가,2.62001E+18,1,대지,158,20,부산광역시 영도구 남항동1가 158-20,2.62004E+11,부산광역시 영도구 남항로25번길,38,null,2.62001E+24,,부산광역시 영도구 남항로25번길 38,606801,49054,,null,,129.0403415,35.09077743
MA010120220805447601,토흐,,I2,음식,I204,서양식,I20401,경양식,I56123,서양식 음식점업,26,부산광역시,26410,금정구,26410600,장전1동,2641010800,장전동,2.64101E+18,1,대지,385,6,부산광역시 금정구 장전동 385-6,2.64103E+11,부산광역시 금정구 금강로,295,1,2.64101E+24,,부산광역시 금정구 금강로 295-1,609837,46286,,1,,129.0857668,35.23453831
MA010120220805447858,협성공인중개사사무소,,L1,부동산,L102,부동산 서비스,L10203,부동산 중개/대리업,L68221,부동산 중개 및 대리업,26,부산광역시,26440,강서구,26440560,녹산동,2644011400,지사동,2.64401E+18,1,대지,1187,15,부산광역시 강서구 지사동 1187-15,2.64404E+11,부산광역시 강서구 과학산단로306번길,11,1,2.64401E+24,,부산광역시 강서구 과학산단로306번길 11-1,618210,46743,,1,,128.8359307,35.15010372
MA010120220805447544,바다풍경횟집,,I2,음식,I201,한식,I20111,횟집,I56114,한식 해산물 요리 전문점,26,부산광역시,26710,기장군,26710250,기장읍,2671025029,기장읍,2.67103E+18,1,대지,374,null,부산광역시 기장군 기장읍 연화리 374,2.67104E+11,부산광역시 기장군 기장읍 연화1길,45,null,2.67103E+24,,부산광역시 기장군 기장읍 연화1길 45,619904,46082,,null,,129.2227564,35.21434831
MA010120220805447489,테인566,,I2,음식,I212,비알코올 ,I21201,카페,I56221,커피 전문점,26,부산광역시,26710,기장군,26710259,일광읍,2671025921,일광읍,2.67103E+18,1,대지,46,2,부산광역시 기장군 일광읍 삼성리 46-2,2.67104E+11,부산광역시 기장군 일광읍 삼성3길,33,null,2.67103E+24,흑진주,부산광역시 기장군 일광읍 삼성3길 33,619912,46044,,null,,129.2347643,35.2645765
MA010120220805447692,다대초장횟집,,I2,음식,I201,한식,I20111,횟집,I56114,한식 해산물 요리 전문점,26,부산광역시,26380,사하구,26380601,다대1동,2638010600,다대동,2.63801E+18,1,대지,798,2,부산광역시 사하구 다대동 798-2,2.63803E+11,부산광역시 사하구 다대동로,40,null,2.63801E+24,다대빌딩,부산광역시 사하구 다대동로 40,604825,49522,,null,,128.9724041,35.05679014
MA010120220805447947,삼성리다방,,I2,음식,I212,비알코올 ,I21201,카페,I56221,커피 전문점,26,부산광역시,26710,기장군,26710259,일광읍,2671025921,일광읍,2.67103E+18,1,대지,779,null,부산광역시 기장군 일광읍 삼성리 779,2.67103E+11,부산광역시 기장군 일광읍 해빛3로,122,null,2.67103E+24,,부산광역시 기장군 일광읍 해빛3로 122,619912,46048,,null,,129.222326,35.26692916
MA010120220805447882,황토&편백타운,,S2,수리·개인,S208,욕탕·신체관리,S20803,체형/비만 관리,S96129,체형 등 기타 신체 관리 서비스업,26,부산광역시,26260,동래구,26260550,온천1동,2626010800,온천동,2.62601E+18,1,대지,137,null,부산광역시 동래구 온천동 137,2.62604E+11,부산광역시 동래구 온천장로107번길,32,null,2.62601E+24,허심청,부산광역시 동래구 온천장로107번길 32,607832,47709,,3,,129.0827108,35.22117118
MA010120220805447503,블루문에프앤씨,,I2,음식,I201,한식,I20101,백반/한정식,I56111,한식 일반 음식점업,26,부산광역시,26230,부산진구,26230770,범천1동,2623010400,범천동,2.62301E+18,1,대지,870,4,부산광역시 부산진구 범천동 870-4,2.62304E+11,부산광역시 부산진구 중앙대로621번길,7,null,2.62301E+24,,부산광역시 부산진구 중앙대로621번길 7,614829,47351,,2,,129.0587839,35.14813599
MA010120220805447757,애가타지,,G2,소매,G204,종합 소매,G20404,슈퍼마켓,G47216,"빵류, 과자류 및 당류 소매업",26,부산광역시,26200,영도구,26200540,영선1동,2620010900,영선동2가,2.62001E+18,1,대지,58,3,부산광역시 영도구 영선동2가 58-3,2.62002E+11,부산광역시 영도구 영선대로,79,null,2.62001E+24,,부산광역시 영도구 영선대로 79,606042,49056,,null,,129.0419412,35.08807751
MA010120220805447758,666버거,,I2,음식,I210,기타 간이,I21004,버거,I56192,"피자, 햄버거, 샌드위치 및 유사 음식점업",26,부산광역시,26710,기장군,26710256,정관읍,2671025622,정관읍,2.67103E+18,1,대지,718,5,부산광역시 기장군 정관읍 매학리 718-5,2.67103E+11,부산광역시 기장군 정관읍 정관로,566,null,2.67103E+24,,부산광역시 기장군 정관읍 정관로 566,619963,46017,,null,,129.1756006,35.32129356
MA010120220805447956,이건창호홈인테리어,,M1,과학·기술,M112,전문 디자인,M11201,인테리어 디자인업,F42412,"도배, 실내 장식 및 내장 목공사업",26,부산광역시,26350,해운대구,26350510,우1동,2635010500,우동,2.63501E+18,1,대지,641,7,부산광역시 해운대구 우동 641-7,2.63502E+11,부산광역시 해운대구 해운대로,580,null,2.63501E+24,,부산광역시 해운대구 해운대로 580,612821,48094,,1,,129.1551272,35.16122726
MA010120220805447645,모아횟집,,I2,음식,I201,한식,I20111,횟집,I56114,한식 해산물 요리 전문점,26,부산광역시,26320,북구,26320510,구포1동,2632010500,구포동,2.63201E+18,1,대지,599,4,부산광역시 북구 구포동 599-4,2.63204E+11,부산광역시 북구 낙동대로1776번길,8,null,2.63201E+24,,부산광역시 북구 낙동대로1776번길 8,616801,46581,,1,,129.0039049,35.20924893
MA010120220805447510,모어샌드위치,,I2,음식,I210,기타 간이,I21005,토스트/샌드위치/샐러드,I56111,한식 일반 음식점업,26,부산광역시,26230,부산진구,26230510,부전1동,2623010300,부전동,2.62301E+18,1,대지,397,2,부산광역시 부산진구 부전동 397-2,2.62303E+11,부산광역시 부산진구 새싹로,21,null,2.62301E+24,,부산광역시 부산진구 새싹로 21,614849,47256,,1,,129.0573633,35.15963214
MA010120220805446756,비모크,,P1,교육,P106,기타 교육,P10625,기타 기술/직업 훈련학원,P85669,기타 기술 및 직업 훈련학원,26,부산광역시,26440,강서구,26440535,명지1동,2644010400,명지동,2.64401E+18,1,대지,3586,2,부산광역시 강서구 명지동 3586-2,2.64403E+11,부산광역시 강서구 명지국제8로10번길,46,null,2.64401E+24,플러스존1,부산광역시 강서구 명지국제8로10번길 46,618200,46726,,1,,128.9024181,35.0944694
MA010120220805446770,킴스에듀,,P1,교육,P107,교육 지원,P10701,교육컨설팅업,P85701,교육관련 자문 및 평가업,26,부산광역시,26260,동래구,26260550,온천1동,2626010800,온천동,2.62601E+18,1,대지,475,18,부산광역시 동래구 온천동 475-18,2.62603E+11,부산광역시 동래구 온천장로,15,null,2.62601E+24,,부산광역시 동래구 온천장로 15,607834,47715,,3,,129.0789213,35.21370552
MA010120220805447119,부산금오,,S2,수리·개인,S210,장례식장 ,S21001,장례식장,S96921,장례식장 및 장의관련 서비스업,26,부산광역시,26290,남구,26290510,대연1동,2629010600,대연동,2.62901E+18,1,대지,1740,12,부산광역시 남구 대연동 1740-12,2.62904E+11,부산광역시 남구 유엔로157번길,101,null,2.62901E+24,,부산광역시 남구 유엔로157번길 101,608811,48496,,4,,129.093076,35.13476132
MA010120220805446605,스타크래드컴,,M1,과학·기술,M105,광고,M10501,광고 대행업,M71310,광고 대행업,26,부산광역시,26350,해운대구,26350520,우2동,2635010500,우동,2.63501E+18,1,대지,1454,null,부산광역시 해운대구 우동 1454,2.63503E+11,부산광역시 해운대구 센텀동로,71,null,2.63501E+24,벽산이센텀클래스원2차,부산광역시 해운대구 센텀동로 71,612022,48059,,null,,129.1282443,35.17457771
MA010120220805447189,루미너스영어,,P1,교육,P105,일반 교육,P10501,입시·교과학원,P85501,일반 교과학원,26,부산광역시,26200,영도구,26200650,동삼1동,2620012100,동삼동,2.62001E+18,1,대지,231,155,부산광역시 영도구 동삼동 231-155,2.62004E+11,부산광역시 영도구 동삼로81번길,16,null,2.62001E+24,가온빌,부산광역시 영도구 동삼로81번길 16,606806,49098,,null,,129.0702234,35.08133209
MA010120220805447334,청조식당,,I2,음식,I211,주점,I21104,요리 주점,I56219,기타 주점업,26,부산광역시,26290,남구,26290550,대연5동,2629010600,대연동,2.62901E+18,1,대지,1283,51,부산광역시 남구 대연동 1283-51,2.62904E+11,부산광역시 남구 못골로53번길,9,null,2.62901E+24,,부산광역시 남구 못골로53번길 9,608818,48438,,1,,129.0882124,35.13621126
MA010120220805447439,베스트크린홈,,N1,시설관리·임대,N102,청소·방제,N10201,건축물 일반 청소업,N74211,건축물 일반 청소업,26,부산광역시,26470,연제구,26470730,연산9동,2647010200,연산동,2.64701E+18,1,대지,414,1,부산광역시 연제구 연산동 414-1,2.64704E+11,부산광역시 연제구 과정로191번가길,45,null,2.64701E+24,연일종합상가맨션,부산광역시 연제구 과정로191번가길 45,611818,47558,,1,,129.1038884,35.18706997
MA010120220805448175,족발의장인족장,,I2,음식,I201,한식,I20103,족발/보쌈,I56111,한식 일반 음식점업,26,부산광역시,26530,사상구,26530661,주례3동,2653010600,주례동,2.65301E+18,1,대지,519,14,부산광역시 사상구 주례동 519-14,2.65303E+11,부산광역시 사상구 냉정로,45,null,2.65301E+24,,부산광역시 사상구 냉정로 45,617838,47013,,null,,129.0049536,35.14902708
MA010120220805447211,메가탑농수산,,G2,소매,G205,식료품 소매,G20506,채소/과일 소매업,G47215,"채소, 과실 및 뿌리작물 소매업",26,부산광역시,26440,강서구,26440535,명지1동,2644010400,명지동,2.64401E+18,1,대지,3598,5,부산광역시 강서구 명지동 3598-5,2.64403E+11,부산광역시 강서구 명지국제1로,56,3,2.64401E+24,,부산광역시 강서구 명지국제1로 56-3,618200,46726,,null,,128.9066856,35.09358122
MA010120220805449590,삼성식당,,I2,음식,I201,한식,I20101,백반/한정식,I56111,한식 일반 음식점업,26,부산광역시,26440,강서구,26440560,녹산동,2644011000,화전동,2.64401E+18,1,대지,583,5,부산광역시 강서구 화전동 583-5,2.64403E+11,부산광역시 강서구 화전산단2로,69,7,2.64401E+24,,부산광역시 강서구 화전산단2로 69-7,618210,46738,,1,,128.8790986,35.10444813
MA010120220805449535,구포국일정비,,S2,수리·개인,S203,자동차 수리·세차,S20301,자동차 정비소,S95212,자동차 전문 수리업,26,부산광역시,26320,북구,26320520,구포2동,2632010500,구포동,2.63201E+18,1,대지,1070,5,부산광역시 북구 구포동 1070-5,2.63204E+11,부산광역시 북구 구포만세길,2,null,2.63201E+24,,부산광역시 북구 구포만세길 2,616807,46503,,null,,128.9940954,35.20278576
MA010120220805450384,지에스25해운화목점,,G2,소매,G204,종합 소매,G20405,편의점,G47122,체인화 편의점,26,부산광역시,26350,해운대구,26350551,좌1동,2635010700,좌동,2.63501E+18,1,대지,1310,null,부산광역시 해운대구 좌동 1310,2.63503E+11,부산광역시 해운대구 대천로,187,null,2.63501E+24,해운대화목타운,부산광역시 해운대구 대천로 187,612776,48107,,1,,129.1793684,35.17151278
MA010120220805449744,전원일기,,I2,음식,I210,기타 간이,I21007,김밥/만두/분식,I56194,김밥 및 기타 간이 음식점업,26,부산광역시,26530,사상구,26530661,주례3동,2653010600,주례동,2.65301E+18,1,대지,92,378,부산광역시 사상구 주례동 92-378,2.65304E+11,부산광역시 사상구 가야대로318번길,74,null,2.65301E+24,,부산광역시 사상구 가야대로318번길 74,617834,47014,,1,,129.0077085,35.1472645
MA010120220805450333,디저트시네마,,I2,음식,I210,기타 간이,I21001,빵/도넛,I56191,제과점업,26,부산광역시,26470,연제구,26470700,연산6동,2647010200,연산동,2.64701E+18,1,대지,2145,15,부산광역시 연제구 연산동 2145-15,2.64703E+11,부산광역시 연제구 쌍미천로,32,1,2.64701E+24,,부산광역시 연제구 쌍미천로 32-1,611836,47589,,1,,129.0905137,35.17628437
MA010120220805450476,마후닭,,I2,음식,I210,기타 간이,I21006,치킨,I56193,치킨 전문점,26,부산광역시,26530,사상구,26530661,주례3동,2653010600,주례동,2.65301E+18,1,대지,1163,17,부산광역시 사상구 주례동 1163-17,2.65302E+11,부산광역시 사상구 가야대로,282,null,2.65301E+24,,부산광역시 사상구 가야대로 282,617838,47012,,1,,129.003531,35.15025576
MA010120220805449579,바로바로도매횟집,,I2,음식,I201,한식,I20111,횟집,I56114,한식 해산물 요리 전문점,26,부산광역시,26410,금정구,26410591,부곡4동,2641010900,부곡동,2.64101E+18,1,대지,391,16,부산광역시 금정구 부곡동 391-16,2.64104E+11,부산광역시 금정구 오시게로42번길,9,null,2.64101E+24,,부산광역시 금정구 오시게로42번길 9,609824,46306,,2,,129.0879146,35.22096228
MA010120220805449827,카페요있다,,I2,음식,I212,비알코올 ,I21201,카페,I56221,커피 전문점,26,부산광역시,26380,사하구,26380530,괴정3동,2638010100,괴정동,2.63801E+18,1,대지,964,17,부산광역시 사하구 괴정동 964-17,2.63803E+11,부산광역시 사하구 사하로,198,null,2.63801E+24,,부산광역시 사하구 사하로 198,604083,49356,,1,,128.9937266,35.0993532
MA010120220805449651,정상인테리어,,M1,과학·기술,M112,전문 디자인,M11201,인테리어 디자인업,F42412,"도배, 실내 장식 및 내장 목공사업",26,부산광역시,26260,동래구,26260570,온천3동,2626010800,온천동,2.62601E+18,1,대지,1451,43,부산광역시 동래구 온천동 1451-43,2.62604E+11,부산광역시 동래구 충렬대로108번길,58,null,2.62601E+24,,부산광역시 동래구 충렬대로108번길 58,607843,47826,,null,,129.0729971,35.2042035
MA010120220805448534,하늘뜨개까페,,I2,음식,I212,비알코올 ,I21201,카페,I56221,커피 전문점,26,부산광역시,26170,동구,26170660,범일2동,2617010400,범일동,2.61701E+18,1,대지,294,2,부산광역시 동구 범일동 294-2,2.61704E+11,부산광역시 동구 범일로65번길,21,null,2.61701E+24,,부산광역시 동구 범일로65번길 21,601806,48737,,1,,129.0582287,35.13576469
MA010120220805448782,수복분식,,I2,음식,I210,기타 간이,I21007,김밥/만두/분식,I56194,김밥 및 기타 간이 음식점업,26,부산광역시,26260,동래구,26260570,온천3동,2626010800,온천동,2.62601E+18,1,대지,1380,2,부산광역시 동래구 온천동 1380-2,2.62604E+11,부산광역시 동래구 아시아드대로220번길,30,null,2.62601E+24,,부산광역시 동래구 아시아드대로220번길 30,607840,47838,,null,,129.0683237,35.20290176
MA010120220805449414,푸른나무유아체육,,P1,교육,P106,기타 교육,P10625,기타 기술/직업 훈련학원,P85669,기타 기술 및 직업 훈련학원,26,부산광역시,26320,북구,26320572,만덕2동,2632010300,만덕동,2.63201E+18,1,대지,302,null,부산광역시 북구 만덕동 302,2.63204E+11,부산광역시 북구 만덕2로17번길,1,null,2.63201E+24,다산타워,부산광역시 북구 만덕2로17번길 1,616826,46607,,1,,129.0376355,35.21202927
MA010120220805448747,제이제이지고트롯데백화점,,G2,소매,G209,섬유·의복·신발 소매,G20902,여성 의류 소매업,G47412,여자용 겉옷 소매업,26,부산광역시,26350,해운대구,26350520,우2동,2635010500,우동,2.63501E+18,1,대지,1496,null,부산광역시 해운대구 우동 1496,2.63502E+11,부산광역시 해운대구 센텀남대로,59,null,2.63501E+24,롯데백화점센텀시티점,부산광역시 해운대구 센텀남대로 59,612022,48058,,4,,129.1310993,35.1698729
MA010120220805448939,이디야광안역점,,I2,음식,I212,비알코올 ,I21201,카페,I56221,커피 전문점,26,부산광역시,26500,수영구,26500770,광안2동,2650010400,광안동,2.65001E+18,1,대지,142,6,부산광역시 수영구 광안동 142-6,2.65004E+11,부산광역시 수영구 수영로588번길,7,null,2.65001E+24,광안협성엠파이어Ⅱ,부산광역시 수영구 수영로588번길 7,613804,48294,,1,,129.1136751,35.15837042
MA010120220805449198,주미,,I2,음식,I212,비알코올 ,I21201,카페,I56229,기타 비알코올 음료점업,26,부산광역시,26110,중구,26110600,영주2동,2611010100,영주동,2.61101E+18,1,대지,293,14,부산광역시 중구 영주동 293-14,2.61103E+11,부산광역시 중구 망양로,364,null,2.61101E+24,,부산광역시 중구 망양로 364,600112,48917,,null,,129.0310122,35.10935391
MA010120220805448571,달맞이빵,,I2,음식,I210,기타 간이,I21001,빵/도넛,I56191,제과점업,26,부산광역시,26350,해운대구,26350560,송정동,2635010800,송정동,2.63501E+18,1,대지,100,4,부산광역시 해운대구 송정동 100-4,2.63502E+11,부산광역시 해운대구 해운대로,1196,null,2.63501E+24,,부산광역시 해운대구 해운대로 1196,612040,48069,,1,,129.2050223,35.19155921
MA010120220805448521,아이비클럽학생복,,G2,소매,G209,섬유·의복·신발 소매,G20905,기타 의류 소매업,G47419,기타 의복 소매업,26,부산광역시,26710,기장군,26710256,정관읍,2671025628,정관읍,2.67103E+18,1,대지,636,9,부산광역시 기장군 정관읍 용수리 636-9,2.67103E+11,부산광역시 기장군 정관읍 용수로,83,null,2.67103E+24,치킨피자,부산광역시 기장군 정관읍 용수로 83,619963,46004,,null,,129.1731378,35.32895197
MA010120220805448832,보람약국,,G2,소매,G215,의약·화장품 소매,G21501,약국,G47811,의약품 및 의료용품 소매업,26,부산광역시,26410,금정구,26410580,부곡2동,2641010900,부곡동,2.64101E+18,1,대지,295,6,부산광역시 금정구 부곡동 295-6,2.64103E+11,부산광역시 금정구 부곡로,120,1,2.64101E+24,명성빌딩,부산광역시 금정구 부곡로 120-1,609823,46271,,1,,129.0920872,35.22659439
MA010120220805448970,어부심해풍코다리,,I2,음식,I201,한식,I20112,해산물 구이/찜,I56111,한식 일반 음식점업,26,부산광역시,26350,해운대구,26350551,좌1동,2635010700,좌동,2.63501E+18,1,대지,985,4,부산광역시 해운대구 좌동 985-4,2.63504E+11,부산광역시 해운대구 좌동로91번길,17,null,2.63501E+24,,부산광역시 해운대구 좌동로91번길 17,612835,48079,,null,,129.1743811,35.17279612
MA010120220805451899,센스원의원,,Q1,보건의료,Q102,의원,Q10208,성형외과 의원,Q86201,일반의원,26,부산광역시,26110,중구,26110560,부평동,2611012400,부평동2가,2.61101E+18,1,대지,47,10,부산광역시 중구 부평동2가 47-10,2.61102E+11,부산광역시 중구 보수대로,18,null,2.61101E+24,,부산광역시 중구 보수대로 18,600807,48980,,2,,129.025285,35.0987479
MA010120220805452436,쫑생쫑사,,R1,예술·스포츠,R103,스포츠 서비스,R10310,당구장,R91135,당구장 운영업,26,부산광역시,26530,사상구,26530660,주례2동,2653010600,주례동,2.65301E+18,1,대지,55,175,부산광역시 사상구 주례동 55-175,2.65303E+11,부산광역시 사상구 냉정로,123,null,2.65301E+24,도내누,부산광역시 사상구 냉정로 123,617833,47006,,4,,129.0135011,35.14976715
MA010120220805452308,다루도시락,,I2,음식,I201,한식,I20101,백반/한정식,I56111,한식 일반 음식점업,26,부산광역시,26470,연제구,26470730,연산9동,2647010200,연산동,2.64701E+18,1,대지,398,37,부산광역시 연제구 연산동 398-37,2.64704E+11,부산광역시 연제구 온천천남로92번길,55,null,2.64701E+24,,부산광역시 연제구 온천천남로92번길 55,611817,47565,,1,,129.1015603,35.18866859
MA010120220805451859,산에산에,,I2,음식,I201,한식,I20101,백반/한정식,I56111,한식 일반 음식점업,26,부산광역시,26530,사상구,26530591,모라1동,2653010200,모라동,2.65301E+18,1,대지,1354,10,부산광역시 사상구 모라동 1354-10,2.65302E+11,부산광역시 사상구 백양대로,921,14,2.65301E+24,,부산광역시 사상구 백양대로 921-14,617818,46929,,null,,128.9902694,35.18886354
MA010120220805451863,에듀스학습코칭서면센터,,P1,교육,P105,일반 교육,P10501,입시·교과학원,P85501,일반 교과학원,26,부산광역시,26230,부산진구,26230510,부전1동,2623010300,부전동,2.62301E+18,1,대지,404,14,부산광역시 부산진구 부전동 404-14,2.62303E+11,부산광역시 부산진구 서면문화로,52,null,2.62301E+24,,부산광역시 부산진구 서면문화로 52,614849,47256,,5,,129.0553272,35.16175916
MA010120220805451917,용소식당,,I2,음식,I201,한식,I20107,돼지고기 구이/찜,I56113,한식 육류 요리 전문점,26,부산광역시,26290,남구,26290510,대연1동,2629010600,대연동,2.62901E+18,1,대지,1730,7,부산광역시 남구 대연동 1730-7,2.62904E+11,부산광역시 남구 유엔평화로9번길,25,null,2.62901E+24,목화베스트빌라,부산광역시 남구 유엔평화로9번길 25,608811,48504,,1,,129.0934217,35.13435257
MA010120220805451796,화화돼지왕갈비명륜점,,I2,음식,I201,한식,I20107,돼지고기 구이/찜,I56113,한식 육류 요리 전문점,26,부산광역시,26260,동래구,26260545,명륜동,2626010700,명륜동,2.62601E+18,1,대지,680,3,부산광역시 동래구 명륜동 680-3,2.62604E+11,부산광역시 동래구 동래로79번길,19,null,2.62601E+24,,부산광역시 동래구 동래로79번길 19,607806,47743,,1,,129.0813327,35.20919512
MA010120220805452045,"심피트니스,주짓수",,R1,예술·스포츠,R103,스포츠 서비스,R10307,헬스장,P85611,태권도 및 무술 교육기관,26,부산광역시,26500,수영구,26500780,광안3동,2650010400,광안동,2.65001E+18,1,대지,89,21,부산광역시 수영구 광안동 89-21,2.65003E+11,부산광역시 수영구 수영로,672,null,2.65001E+24,,부산광역시 수영구 수영로 672,613800,48267,,1,,129.1150569,35.16552373
MA010120220805451621,에이치엔씨파트너즈,,M1,과학·기술,M105,광고,M10501,광고 대행업,M71310,광고 대행업,26,부산광역시,26500,수영구,26500670,남천2동,2650010500,남천동,2.65001E+18,1,대지,7,14,부산광역시 수영구 남천동 7-14,2.65003E+11,부산광역시 수영구 광남로,44,null,2.65001E+24,,부산광역시 수영구 광남로 44,613813,48304,,7,,129.1119327,35.14647008
MA010120220805451962,안동국시,,I2,음식,I201,한식,I20105,국수/칼국수,I56194,김밥 및 기타 간이 음식점업,26,부산광역시,26470,연제구,26470680,연산4동,2647010200,연산동,2.64701E+18,1,대지,636,28,부산광역시 연제구 연산동 636-28,2.64703E+11,부산광역시 연제구 고분로,24,null,2.64701E+24,연일아파트,부산광역시 연제구 고분로 24,611822,47578,,1,,129.0849067,35.18559196
MA010120220805452406,해피샐러드클럽,,I2,음식,I210,기타 간이,I21003,피자,I56192,"피자, 햄버거, 샌드위치 및 유사 음식점업",26,부산광역시,26350,해운대구,26350530,중1동,2635010600,중동,2.63501E+18,1,대지,145,32,부산광역시 해운대구 중동 145-32,2.63504E+11,부산광역시 해운대구 좌동순환로8번길,54,14,2.63501E+24,,부산광역시 해운대구 좌동순환로8번길 54-14,612846,48082,,1,,129.1699464,35.16899015
MA010120220805452329,메디컬오한의원부산,,Q1,보건의료,Q102,의원,Q10211,한의원,Q86203,한의원,26,부산광역시,26350,해운대구,26350520,우2동,2635010500,우동,2.63501E+18,1,대지,1510,null,부산광역시 해운대구 우동 1510,2.63503E+11,부산광역시 해운대구 센텀2로,25,null,2.63501E+24,센텀드림월드,부산광역시 해운대구 센텀2로 25,612889,48060,,null,,129.13298,35.16696189
MA010120220805452476,우리부동산중개,,L1,부동산,L102,부동산 서비스,L10203,부동산 중개/대리업,L68221,부동산 중개 및 대리업,26,부산광역시,26530,사상구,26530670,학장동,2653010700,학장동,2.65301E+18,1,대지,820,36,부산광역시 사상구 학장동 820-36,2.65303E+11,부산광역시 사상구 대동로,67,null,2.65301E+24,,부산광역시 사상구 대동로 67,617846,47050,,2,,128.9759421,35.13662657
MA010120220805451760,달리는커피,,I2,음식,I212,비알코올 ,I21201,카페,I56221,커피 전문점,26,부산광역시,26500,수영구,26500760,광안1동,2650010400,광안동,2.65001E+18,1,대지,113,7,부산광역시 수영구 광안동 113-7,2.65004E+11,부산광역시 수영구 무학로33번길,9,null,2.65001E+24,,부산광역시 수영구 무학로33번길 9,613802,48270,,null,,129.1174885,35.16193183
MA010120220805452076,삼성부동산중개,,L1,부동산,L102,부동산 서비스,L10203,부동산 중개/대리업,L68221,부동산 중개 및 대리업,26,부산광역시,26350,해운대구,26350510,우1동,2635010500,우동,2.63501E+18,1,대지,265,39,부산광역시 해운대구 우동 265-39,2.63504E+11,부산광역시 해운대구 우동3로11번길,33,null,2.63501E+24,예음음악학원,부산광역시 해운대구 우동3로11번길 33,612818,48086,,1,,129.16245,35.16982849
MA010120220805451650,웰메이드,,G2,소매,G209,섬유·의복·신발 소매,G20901,남성 의류 소매업,G47411,남자용 겉옷 소매업,26,부산광역시,26530,사상구,26530680,엄궁동,2653010800,엄궁동,2.65301E+18,1,대지,506,3,부산광역시 사상구 엄궁동 506-3,2.65302E+11,부산광역시 사상구 낙동대로,770,null,2.65301E+24,축산물판매장,부산광역시 사상구 낙동대로 770,617828,47039,,null,,128.9712474,35.12938995
MA010120220805451652,도배갤러리,,G2,소매,G210,철물·건설자재 소매,G21002,벽지/장판/마루 소매업,G47513,"벽지, 마루덮개 및 장판류 소매업",26,부산광역시,26290,남구,26290540,대연4동,2629010600,대연동,2.62901E+18,1,대지,1204,85,부산광역시 남구 대연동 1204-85,2.62904E+11,부산광역시 남구 천제등로28번길,35,null,2.62901E+24,,부산광역시 남구 천제등로28번길 35,608814,48461,,1,,129.0869562,35.13167951
MA010120220805451654,나래헤어,,S2,수리·개인,S207,이용·미용,S20701,미용실,S96112,두발 미용업,26,부산광역시,26440,강서구,26440560,녹산동,2644011000,화전동,2.64401E+18,1,대지,570,6,부산광역시 강서구 화전동 570-6,2.64404E+11,부산광역시 강서구 화전산단5로132번길,38,null,2.64401E+24,,부산광역시 강서구 화전산단5로132번길 38,618210,46735,,1,,128.8823959,35.11015718
MA010120220805452197,투썸플레이스기장죽성점,,I2,음식,I212,비알코올 ,I21201,카페,I56221,커피 전문점,26,부산광역시,26710,기장군,26710250,기장읍,2671025024,기장읍,2.67103E+18,1,대지,154,23,부산광역시 기장군 기장읍 죽성리 154-23,2.67104E+11,부산광역시 기장군 기장읍 월전해안길,31,null,2.67103E+24,,부산광역시 기장군 기장읍 월전해안길 31,619906,46078,,null,,129.245368,35.23788675
MA010120220805450801,서울순두부,,I2,음식,I201,한식,I20101,백반/한정식,I56111,한식 일반 음식점업,26,부산광역시,26110,중구,26110580,남포동,2611013700,남포동2가,2.61101E+18,1,대지,15,1,부산광역시 중구 남포동2가 15-1,2.61104E+11,부산광역시 중구 남포길,25,3,2.61101E+24,,부산광역시 중구 남포길 25-3,600042,48953,,3,,129.0314834,35.09886659
MA010120220805451195,엑스솔루션,,G2,소매,G208,가전·통신 소매,G20802,핸드폰 소매업,G47312,통신기기 소매업,26,부산광역시,26110,중구,26110510,중앙동,2611010600,중앙동3가,2.61101E+18,1,대지,18,1,부산광역시 중구 중앙동3가 18-1,2.61103E+11,부산광역시 중구 대청로,135,null,2.61101E+24,,부산광역시 중구 대청로 135,600013,48931,,3,,129.0348608,35.10314652
MA010120220805450639,위런정보,,N1,시설관리·임대,N111,산업용품 대여,N11102,컴퓨터/사무기기 대여업,N76320,컴퓨터 및 사무용 기계ㆍ장비 임대업,26,부산광역시,26260,동래구,26260580,사직1동,2626010900,사직동,2.62601E+18,1,대지,101,33,부산광역시 동래구 사직동 101-33,2.62603E+11,부산광역시 동래구 여고로,7,null,2.62601E+24,,부산광역시 동래구 여고로 7,607817,47875,,null,,129.0648534,35.19533365
MA010120220805451020,라이프라이크,,I2,음식,I212,비알코올 ,I21201,카페,I56221,커피 전문점,26,부산광역시,26710,기장군,26710259,일광읍,2671025924,일광읍,2.67103E+18,1,대지,152,1,부산광역시 기장군 일광읍 동백리 152-1,2.67103E+11,부산광역시 기장군 일광읍 일광로,524,null,2.67103E+24,,부산광역시 기장군 일광읍 일광로 524,619911,46041,,1,,129.256938,35.28920752
MA010120220805450840,수아카롱,,I2,음식,I210,기타 간이,I21001,빵/도넛,I56191,제과점업,26,부산광역시,26350,해운대구,26350551,좌1동,2635010700,좌동,2.63501E+18,1,대지,1310,null,부산광역시 해운대구 좌동 1310,2.63503E+11,부산광역시 해운대구 대천로,187,null,2.63501E+24,해운대화목타운,부산광역시 해운대구 대천로 187,612776,48107,,1,,129.1793684,35.17151278
MA010120220805453598,우샤우샤금곡점,,I2,음식,I201,한식,I20107,돼지고기 구이/찜,I56113,한식 육류 요리 전문점,26,부산광역시,26320,북구,26320530,금곡동,2632010100,금곡동,2.63201E+18,1,대지,732,null,부산광역시 북구 금곡동 732,2.63204E+11,부산광역시 북구 효열로203번가길,4,null,2.63201E+24,,부산광역시 북구 효열로203번가길 4,616810,46506,,null,,129.0171195,35.26311357
MA010120220805454436,제이에스미라클모터스,,S2,수리·개인,S203,자동차 수리·세차,S20301,자동차 정비소,S95212,자동차 전문 수리업,26,부산광역시,26710,기장군,26710256,정관읍,2671025630,정관읍,2.67103E+18,1,대지,704,null,부산광역시 기장군 정관읍 예림리 704,2.67104E+11,부산광역시 기장군 정관읍 예림2길,35,null,2.67103E+24,,부산광역시 기장군 정관읍 예림2길 35,619961,46020,,null,,129.2066085,35.3223942
MA010120220805453561,개미인력,,N1,시설관리·임대,N104,고용 알선,N10401,고용 알선업,N75110,고용 알선업,26,부산광역시,26260,동래구,26260550,온천1동,2626010800,온천동,2.62601E+18,1,대지,1750,33,부산광역시 동래구 온천동 1750-33,2.62603E+11,부산광역시 동래구 온천장로,14,null,2.62601E+24,프리존오피스텔,부산광역시 동래구 온천장로 14,607834,47714,,null,,129.0792696,35.21346805
MA010120220805454394,아이엘유,,I2,음식,I212,비알코올 ,I21201,카페,I56221,커피 전문점,26,부산광역시,26110,중구,26110560,부평동,2611012600,부평동4가,2.61101E+18,1,대지,21,1,부산광역시 중구 부평동4가 21-1,2.61104E+11,부산광역시 중구 흑교로25번길,15,null,2.61101E+24,,부산광역시 중구 흑교로25번길 15,600074,48974,,1,,129.0236893,35.10182616
MA010120220805453748,서호차병원,,S2,수리·개인,S203,자동차 수리·세차,S20301,자동차 정비소,S95212,자동차 전문 수리업,26,부산광역시,26290,남구,26290645,우암동,2629011000,우암동,2.62901E+18,1,대지,6,3,부산광역시 남구 우암동 6-3,2.62903E+11,부산광역시 남구 유엔로,68,null,2.62901E+24,동원카경정비,부산광역시 남구 유엔로 68,608841,48483,,null,,129.0842951,35.12793553
MA010120220805453756,프롬당구클럽,,R1,예술·스포츠,R103,스포츠 서비스,R10310,당구장,R91135,당구장 운영업,26,부산광역시,26380,사하구,26380530,괴정3동,2638010100,괴정동,2.63801E+18,1,대지,427,1,부산광역시 사하구 괴정동 427-1,2.63802E+11,부산광역시 사하구 낙동대로,187,null,2.63801E+24,,부산광역시 사하구 낙동대로 187,604810,49350,,2,,128.9961819,35.10102769
MA010120220805454064,수머리家,,S2,수리·개인,S207,이용·미용,S20701,미용실,S96112,두발 미용업,26,부산광역시,26350,해운대구,26350620,반송2동,2635010100,반송동,2.63501E+18,1,대지,216,74,부산광역시 해운대구 반송동 216-74,2.63504E+11,부산광역시 해운대구 윗반송로51번길,35,null,2.63501E+24,덕일슈퍼,부산광역시 해운대구 윗반송로51번길 35,612807,48007,,null,,129.155266,35.22997395
MA010120220805454413,더마트,,G2,소매,G204,종합 소매,G20404,슈퍼마켓,G47121,슈퍼마켓,26,부산광역시,26260,동래구,26260570,온천3동,2626010800,온천동,2.62601E+18,1,대지,1292,null,부산광역시 동래구 온천동 1292,2.62604E+11,부산광역시 동래구 아시아드대로255번길,19,null,2.62601E+24,,부산광역시 동래구 아시아드대로255번길 19,607839,47846,,null,,129.0677588,35.20672862
MA010120220805454239,코코래빗,,G2,소매,G213,오락용품 소매,G21302,문구/회화용품 소매업,G47612,문구용품 및 회화용품 소매업,26,부산광역시,26320,북구,26320572,만덕2동,2632010300,만덕동,2.63201E+18,1,대지,955,null,부산광역시 북구 만덕동 955,2.63204E+11,부산광역시 북구 덕천로276번길,60,null,2.63201E+24,백양산동문굿모닝힐,부산광역시 북구 덕천로276번길 60,616112,46611,,1,,129.0333611,35.20580118
MA010120220805452604,미니바이유니크스테이,,I1,숙박,I101,일반 숙박,I10102,여관/모텔,I55102,여관업,26,부산광역시,26230,부산진구,26230520,부전2동,2623010300,부전동,2.62301E+18,1,대지,457,4,부산광역시 부산진구 부전동 457-4,2.62304E+11,부산광역시 부산진구 신천대로162번길,115,null,2.62301E+24,,부산광역시 부산진구 신천대로162번길 115,614876,47283,,null,,129.0548517,35.15298373
MA010120220805452550,금정불백,,I2,음식,I201,한식,I20101,백반/한정식,I56111,한식 일반 음식점업,26,부산광역시,26410,금정구,26410590,부곡3동,2641010900,부곡동,2.64101E+18,1,대지,22,11,부산광역시 금정구 부곡동 22-11,2.64103E+11,부산광역시 금정구 무학송로,126,1,2.64101E+24,경남주택,부산광역시 금정구 무학송로 126-1,609817,46253,,1,,129.0939906,35.24236032
MA010120220805453378,"온천더샵공인중개사사무소,이상봉가맹거래사.행정사사무소",,L1,부동산,L102,부동산 서비스,L10203,부동산 중개/대리업,L68221,부동산 중개 및 대리업,26,부산광역시,26230,부산진구,26230600,전포1동,2623010200,전포동,2.62301E+18,1,대지,330,471,부산광역시 부산진구 전포동 330-471,2.62304E+11,부산광역시 부산진구 진남로305번길,13,null,2.62301E+24,,부산광역시 부산진구 진남로305번길 13,614868,47314,,3,,129.0726281,35.15189021
MA010120220805453008,두건쓴형제광안리점,,I2,음식,I201,한식,I20107,돼지고기 구이/찜,I56193,치킨 전문점,26,부산광역시,26500,수영구,26500800,민락동,2650010300,민락동,2.65001E+18,1,대지,179,17,부산광역시 수영구 민락동 179-17,2.65003E+11,부산광역시 수영구 광안로,65,null,2.65001E+24,,부산광역시 수영구 광안로 65,613828,48284,,1,,129.1192435,35.15463243
MA010120220805452956,아지트,,I2,음식,I201,한식,I20111,횟집,I56114,한식 해산물 요리 전문점,26,부산광역시,26260,동래구,26260580,사직1동,2626010900,사직동,2.62601E+18,1,대지,20,11,부산광역시 동래구 사직동 20-11,2.62604E+11,부산광역시 동래구 아시아드대로181번가길,17,null,2.62601E+24,,부산광역시 동래구 아시아드대로181번가길 17,607814,47853,,null,,129.0625403,35.20237576
MA010120220805453091,바이요니네일,,S2,수리·개인,S207,이용·미용,S20703,네일숍,S96119,기타 미용업,26,부산광역시,26470,연제구,26470660,연산2동,2647010200,연산동,2.64701E+18,1,대지,1320,68,부산광역시 연제구 연산동 1320-68,2.64703E+11,부산광역시 연제구 중앙천로,77,2,2.64701E+24,,부산광역시 연제구 중앙천로 77-2,611826,47599,,1,,129.0798374,35.1808509
MA010120220805452599,랄랄라컴퍼니,,P1,교육,P106,기타 교육,P10625,기타 기술/직업 훈련학원,P85669,기타 기술 및 직업 훈련학원,26,부산광역시,26290,남구,26290610,용당동,2629010800,용당동,2.62901E+18,1,대지,548,2,부산광역시 남구 용당동 548-2,2.62904E+11,부산광역시 남구 신선로447번길,9,null,2.62901E+24,,부산광역시 남구 신선로447번길 9,608830,48531,,2,,129.0994614,35.12491443
MA010120220805452853,힐링,,S2,수리·개인,S208,욕탕·신체관리,S20802,마사지/안마,S96122,마사지업,26,부산광역시,26230,부산진구,26230510,부전1동,2623010300,부전동,2.62301E+18,1,대지,400,11,부산광역시 부산진구 부전동 400-11,2.62304E+11,부산광역시 부산진구 새싹로29번길,11,null,2.62301E+24,,부산광역시 부산진구 새싹로29번길 11,614849,47256,,2,,129.0564036,35.16011825
MA010120220805452855,녹두밭,,I2,음식,I201,한식,I20101,백반/한정식,I56111,한식 일반 음식점업,26,부산광역시,26230,부산진구,26230770,범천1동,2623010400,범천동,2.62301E+18,1,대지,847,8,부산광역시 부산진구 범천동 847-8,2.62304E+11,부산광역시 부산진구 골드테마길,47,null,2.62301E+24,,부산광역시 부산진구 골드테마길 47,614827,47361,,1,,129.0598824,35.14398899
MA010120220805453106,별미칼국수,,I2,음식,I201,한식,I20105,국수/칼국수,I56112,한식 면 요리 전문점,26,부산광역시,26320,북구,26320572,만덕2동,2632010300,만덕동,2.63201E+18,1,대지,848,null,부산광역시 북구 만덕동 848,2.63203E+11,부산광역시 북구 은행나무로,11,null,2.63201E+24,백양종합상가,부산광역시 북구 은행나무로 11,616831,46613,,null,,129.0378872,35.20850269
MA010120220805453109,빅월드오토바이공작소,,S2,수리·개인,S204,모터사이클 수리,S20401,모터사이클 수리업,S95220,모터사이클 수리업,26,부산광역시,26380,사하구,26380610,구평동,2638010700,구평동,2.63801E+18,1,대지,489,4,부산광역시 사하구 구평동 489-4,2.63804E+11,부산광역시 사하구 감천항로405번길,76,null,2.63801E+24,,부산광역시 사하구 감천항로405번길 76,604866,49455,,null,,128.9981088,35.05211937
MA010120220805456062,원카피,,N1,시설관리·임대,N111,산업용품 대여,N11102,컴퓨터/사무기기 대여업,N76320,컴퓨터 및 사무용 기계ㆍ장비 임대업,26,부산광역시,26440,강서구,26440535,명지1동,2644010400,명지동,2.64401E+18,1,대지,3378,2,부산광역시 강서구 명지동 3378-2,2.64403E+11,부산광역시 강서구 명지국제6로318번길,24,null,2.64401E+24,,부산광역시 강서구 명지국제6로318번길 24,618200,46773,,null,,128.9263856,35.10351011
MA010120220805455614,미스,,I2,음식,I211,주점,I21101,일반 유흥 주점,I56211,일반 유흥 주점업,26,부산광역시,26230,부산진구,26230520,부전2동,2623010300,부전동,2.62301E+18,1,대지,519,38,부산광역시 부산진구 부전동 519-38,2.62304E+11,부산광역시 부산진구 중앙대로691번가길,24,6,2.62301E+24,,부산광역시 부산진구 중앙대로691번가길 24-6,614847,47287,,1,,129.0559139,35.15534514
MA010120220805456141,에스지메디코스,,G2,소매,G215,의약·화장품 소매,G21503,화장품 소매업,G47813,"화장품, 비누 및 방향제 소매업",26,부산광역시,26530,사상구,26530645,감전동,2653010500,감전동,2.65301E+18,1,대지,157,23,부산광역시 사상구 감전동 157-23,2.65302E+11,부산광역시 사상구 학감대로,238,30,2.65301E+24,오성빌딩,부산광역시 사상구 학감대로 238-30,617801,46985,,null,,128.9917944,35.15169549
MA010120220805456068,최고식품마싯는끼니,,I2,음식,I210,기타 간이,I21007,김밥/만두/분식,I56194,김밥 및 기타 간이 음식점업,26,부산광역시,26260,동래구,26260560,온천2동,2626010800,온천동,2.62601E+18,1,대지,502,3,부산광역시 동래구 온천동 502-3,2.62602E+11,부산광역시 동래구 중앙대로,1393,null,2.62601E+24,롯데백화점,부산광역시 동래구 중앙대로 1393,607716,47727,,1,,129.0775003,35.21172612
MA010120220805455970,세븐부산연제연산점,,G2,소매,G204,종합 소매,G20405,편의점,G47122,체인화 편의점,26,부산광역시,26470,연제구,26470690,연산5동,2647010200,연산동,2.64701E+18,1,대지,1386,37,부산광역시 연제구 연산동 1386-37,2.64704E+11,부산광역시 연제구 월드컵대로145번길,74,null,2.64701E+24,,부산광역시 연제구 월드컵대로145번길 74,611830,47541,,null,,129.0786212,35.18352984
MA010120220805455508,동원양곱창5호,,I2,음식,I201,한식,I20109,곱창 전골/구이,I56111,한식 일반 음식점업,26,부산광역시,26110,중구,26110580,남포동,2611014100,남포동6가,2.61101E+18,1,대지,34,null,부산광역시 중구 남포동6가 34,2.61103E+11,부산광역시 중구 자갈치로,27,null,2.61101E+24,,부산광역시 중구 자갈치로 27,600046,48982,,1,,129.0272689,35.09689224
MA010120220805455852,오지티켓,,G2,소매,G209,섬유·의복·신발 소매,G20905,기타 의류 소매업,G47414,셔츠 및 블라우스 소매업,26,부산광역시,26500,수영구,26500670,남천2동,2650010500,남천동,2.65001E+18,1,대지,6,15,부산광역시 수영구 남천동 6-15,2.65004E+11,부산광역시 수영구 남천동로108번길,20,null,2.65001E+24,,부산광역시 수영구 남천동로108번길 20,613813,48304,,4,,129.1124342,35.14623111
MA010120220805455295,낙원집,,I2,음식,I201,한식,I20107,돼지고기 구이/찜,I56113,한식 육류 요리 전문점,26,부산광역시,26410,금정구,26410700,금성동,2641011300,금성동,2.64101E+18,1,대지,247,3,부산광역시 금정구 금성동 247-3,2.64103E+11,부산광역시 금정구 산성로,418,null,2.64101E+24,,부산광역시 금정구 산성로 418,609420,46237,,null,,129.0528823,35.25130607
MA010120220805455052,이롬황성주생식국제신도시1지점,,G2,소매,G205,식료품 소매,G20508,건강보조식품 소매업,G47217,건강 보조식품 소매업,26,부산광역시,26440,강서구,26440535,명지1동,2644010400,명지동,2.64401E+18,1,대지,3358,5,부산광역시 강서구 명지동 3358-5,2.64403E+11,부산광역시 강서구 명지국제8로,265,null,2.64401E+24,SM빌딩,부산광역시 강서구 명지국제8로 265,618200,46773,,7,,128.9218398,35.09821741
MA010120220805455462,별부동산공인중개사사무소,,L1,부동산,L102,부동산 서비스,L10203,부동산 중개/대리업,L68221,부동산 중개 및 대리업,26,부산광역시,26260,동래구,26260550,온천1동,2626010800,온천동,2.62601E+18,1,대지,1850,null,부산광역시 동래구 온천동 1850,2.62604E+11,부산광역시 동래구 온천장로65번길,9,null,2.62601E+24,동래3차SKVIEW,부산광역시 동래구 온천장로65번길 9,607061,47712,,2,,129.0798359,35.21641954
MA010120220805454874,메디앤컬필라테스용호,,P1,교육,P106,기타 교육,P10603,요가/필라테스 학원,R91139,그 외 기타 스포츠시설 운영업,26,부산광역시,26290,남구,26290570,용호1동,2629010700,용호동,2.62901E+18,1,대지,957,1,부산광역시 남구 용호동 957-1,2.62903E+11,부산광역시 남구 분포로,115,null,2.62901E+24,힐탑탑플레이스,부산광역시 남구 분포로 115,608091,48515,,4,,129.1127482,35.13221162
MA010120220805454751,씨유연산동원룸점,,G2,소매,G204,종합 소매,G20405,편의점,G47122,체인화 편의점,26,부산광역시,26470,연제구,26470690,연산5동,2647010200,연산동,2.64701E+18,1,대지,1372,7,부산광역시 연제구 연산동 1372-7,2.64703E+11,부산광역시 연제구 신촌로,21,null,2.64701E+24,,부산광역시 연제구 신촌로 21,611830,47542,,null,,129.0760543,35.18286762
MA010120220805455432,띵땅상사,,G2,소매,G205,식료품 소매,G20509,반찬/식료품 소매업,G47219,기타 식료품 소매업,26,부산광역시,26290,남구,26290530,대연3동,2629010600,대연동,2.62901E+18,1,대지,510,10,부산광역시 남구 대연동 510-10,2.62904E+11,부산광역시 남구 용소로40번길,22,1,2.62901E+24,,부산광역시 남구 용소로40번길 22-1,608810,48498,,1,,129.0998136,35.13397023
MA010120220805454501,물댄동산,,G2,소매,G209,섬유·의복·신발 소매,G20909,실/섬유제품 소매업,G47422,의복 액세서리 및 모조 장신구 소매업,26,부산광역시,26170,동구,26170660,범일2동,2617010400,범일동,2.61701E+18,1,대지,830,24,부산광역시 동구 범일동 830-24,2.61703E+11,부산광역시 동구 조방로,48,null,2.61701E+24,,부산광역시 동구 조방로 48,601703,48739,,1,,129.0610616,35.14098604
MA010120220805454575,레드더타이,,S2,수리·개인,S207,이용·미용,S20702,피부 관리실,S96113,피부 미용업,26,부산광역시,26350,해운대구,26350551,좌1동,2635010700,좌동,2.63501E+18,1,대지,395,3,부산광역시 해운대구 좌동 395-3,2.63503E+11,부산광역시 해운대구 좌동로,104,null,2.63501E+24,,부산광역시 해운대구 좌동로 104,612835,48107,,3,,129.176367,35.17272277
MA010120220805454702,이영화부동산,,L1,부동산,L102,부동산 서비스,L10203,부동산 중개/대리업,L68221,부동산 중개 및 대리업,26,부산광역시,26440,강서구,26440510,대저1동,2644010100,대저1동,2.64401E+18,1,대지,1038,9,부산광역시 강서구 대저1동 1038-9,2.64403E+11,부산광역시 강서구 평강로,409,null,2.64401E+24,,부산광역시 강서구 평강로 409,618806,46700,,null,,128.9474122,35.2208544
MA010120220805455082,대신인테리어,,M1,과학·기술,M112,전문 디자인,M11201,인테리어 디자인업,F42412,"도배, 실내 장식 및 내장 목공사업",26,부산광역시,26200,영도구,26200650,동삼1동,2620012100,동삼동,2.62001E+18,1,대지,215,68,부산광역시 영도구 동삼동 215-68,2.62003E+11,부산광역시 영도구 동삼로,110,null,2.62001E+24,,부산광역시 영도구 동삼로 110,606806,49096,,3,,129.0717151,35.08304059
MA010120220805454524,고성상회,,I2,음식,I212,비알코올 ,I21201,카페,I56221,커피 전문점,26,부산광역시,26530,사상구,26530610,덕포2동,2653010300,덕포동,2.65301E+18,1,대지,761,1,부산광역시 사상구 덕포동 761-1,2.65302E+11,부산광역시 사상구 백양대로,820,null,2.65301E+24,자유아파트,부산광역시 사상구 백양대로 820,617781,46938,,null,,128.9887791,35.18004205
MA010120220805454591,주고,,I2,음식,I203,일식,I20301,일식 회/초밥,I56122,일식 음식점업,26,부산광역시,26500,수영구,26500780,광안3동,2650010400,광안동,2.65001E+18,1,대지,91,19,부산광역시 수영구 광안동 91-19,2.65004E+11,부산광역시 수영구 무학로49번길,85,null,2.65001E+24,,부산광역시 수영구 무학로49번길 85,613800,48267,,1,,129.1180328,35.16481125
MA010120220805454715,바오버거,,I2,음식,I210,기타 간이,I21004,버거,I56192,"피자, 햄버거, 샌드위치 및 유사 음식점업",26,부산광역시,26350,해운대구,26350560,송정동,2635010800,송정동,2.63501E+18,1,대지,311,17,부산광역시 해운대구 송정동 311-17,2.63503E+11,부산광역시 해운대구 송정광어골로,14,null,2.63501E+24,,부산광역시 해운대구 송정광어골로 14,612040,48073,,1,,129.1983094,35.18007021
MA010120220805455220,찌개마을,,I2,음식,I201,한식,I20101,백반/한정식,I56111,한식 일반 음식점업,26,부산광역시,26290,남구,26290570,용호1동,2629010700,용호동,2.62901E+18,1,대지,417,5,부산광역시 남구 용호동 417-5,2.62904E+11,부산광역시 남구 동명로101번길,1,null,2.62901E+24,자은주택,부산광역시 남구 동명로101번길 1,608833,48521,,null,,129.1079191,35.11996088
MA010120220805457618,만석미역,,I2,음식,I201,한식,I20101,백반/한정식,I56111,한식 일반 음식점업,26,부산광역시,26110,중구,26110510,중앙동,2611010700,중앙동4가,2.61101E+18,1,대지,81,15,부산광역시 중구 중앙동4가 81-15,2.61104E+11,부산광역시 중구 충장대로5번길,32,1,2.61101E+24,,부산광역시 중구 충장대로5번길 32-1,600817,48937,,1,,129.0374574,35.10810908
MA010120220805457776,고니스커피,,I2,음식,I212,비알코올 ,I21201,카페,I56221,커피 전문점,26,부산광역시,26110,중구,26110570,광복동,2611013200,창선동2가,2.61101E+18,1,대지,45,6,부산광역시 중구 창선동2가 45-6,2.61103E+11,부산광역시 중구 광복로,32,1,2.61101E+24,,부산광역시 중구 광복로 32-1,600819,48953,,2,,129.0285591,35.09919791
MA010120220805458403,토끼와거북이,,G2,소매,G205,식료품 소매,G20509,반찬/식료품 소매업,G47218,조리 반찬류 소매업,26,부산광역시,26380,사하구,26380562,하단2동,2638010300,하단동,2.63801E+18,1,대지,487,6,부산광역시 사하구 하단동 487-6,2.63804E+11,부산광역시 사하구 낙동대로535번길,28,null,2.63801E+24,에덴종합시장,부산광역시 사하구 낙동대로535번길 28,604851,49307,,1,,128.9629943,35.11149979
MA010120220805457698,시즌원PC방,,R1,예술·스포츠,R104,유원지·오락,R10406,PC방,R91222,컴퓨터 게임방 운영업,26,부산광역시,26230,부산진구,26230660,부암3동,2623010800,부암동,2.62301E+18,1,대지,430,3,부산광역시 부산진구 부암동 430-3,2.62304E+11,부산광역시 부산진구 당감로64번길,21,null,2.62301E+24,,부산광역시 부산진구 당감로64번길 21,614839,47143,,2,,129.0397533,35.16791513
MA010120220805457894,에클레시아카페,,I2,음식,I212,비알코올 ,I21201,카페,I56221,커피 전문점,26,부산광역시,26230,부산진구,26230700,당감4동,2623010900,당감동,2.62301E+18,1,대지,362,4,부산광역시 부산진구 당감동 362-4,2.62303E+11,부산광역시 부산진구 동평로,63,null,2.62301E+24,,부산광역시 부산진구 동평로 63,614879,47146,,2,,129.0364707,35.16529316
MA010120220805458144,착한소,,I2,음식,I201,한식,I20107,돼지고기 구이/찜,I56113,한식 육류 요리 전문점,26,부산광역시,26380,사하구,26380510,괴정1동,2638010100,괴정동,2.63801E+18,1,대지,531,21,부산광역시 사하구 괴정동 531-21,2.63804E+11,부산광역시 사하구 낙동대로249번길,46,null,2.63801E+24,,부산광역시 사하구 낙동대로249번길 46,604812,49384,,null,,128.9907641,35.09744843
MA010120220805458091,네임드,,S2,수리·개인,S207,이용·미용,S20703,네일숍,S96119,기타 미용업,26,부산광역시,26230,부산진구,26230570,양정2동,2623010100,양정동,2.62301E+18,1,대지,406,4,부산광역시 부산진구 양정동 406-4,2.62303E+11,부산광역시 부산진구 동평로,409,null,2.62301E+24,백조아파트,부산광역시 부산진구 동평로 409,614882,47210,,1,,129.0701833,35.17471701
MA010120220805458342,인형뽑기세상,,R1,예술·스포츠,R104,유원지·오락,R10405,기타 오락장,R91229,기타 오락장 운영업,26,부산광역시,26260,동래구,26260761,명장1동,2626010100,명장동,2.62601E+18,1,대지,59,5,부산광역시 동래구 명장동 59-5,2.62604E+11,부산광역시 동래구 명장로20번길,26,null,2.62601E+24,,부산광역시 동래구 명장로20번길 26,607808,47772,,1,,129.101987,35.20481747
MA010120220805458344,수아헤어,,S2,수리·개인,S207,이용·미용,S20701,미용실,S96112,두발 미용업,26,부산광역시,26230,부산진구,26230660,부암3동,2623010800,부암동,2.62301E+18,1,대지,724,null,부산광역시 부산진구 부암동 724,2.62303E+11,부산광역시 부산진구 백양산로,55,null,2.62301E+24,백양상가,부산광역시 부산진구 백양산로 55,614093,47148,,null,,129.0308155,35.17382352
MA010120220805458493,티제이씨,,G2,소매,G215,의약·화장품 소매,G21502,의료기기 소매업,G47811,의약품 및 의료용품 소매업,26,부산광역시,26350,해운대구,26350554,좌4동,2635010700,좌동,2.63501E+18,1,대지,1429,1,부산광역시 해운대구 좌동 1429-1,2.63503E+11,부산광역시 해운대구 좌동로,152,null,2.63501E+24,신도시시장,부산광역시 해운대구 좌동로 152,612862,48108,,null,,129.1811406,35.17488469
MA010120220805457869,쉼터,,I2,음식,I212,비알코올 ,I21201,카페,I56221,커피 전문점,26,부산광역시,26470,연제구,26470630,거제3동,2647010100,거제동,2.64701E+18,1,대지,589,10,부산광역시 연제구 거제동 589-10,2.64704E+11,부산광역시 연제구 거제천로87번길,39,null,2.64701E+24,,부산광역시 연제구 거제천로87번길 39,611804,47544,,2,,129.0712868,35.18267552
MA010120220805458446,지에스25기장,,G2,소매,G204,종합 소매,G20405,편의점,G47122,체인화 편의점,26,부산광역시,26710,기장군,26710250,기장읍,2671025021,기장읍,2.67103E+18,1,대지,274,29,부산광역시 기장군 기장읍 동부리 274-29,2.67103E+11,부산광역시 기장군 기장읍 읍내로,101,null,2.67103E+24,GS25,부산광역시 기장군 기장읍 읍내로 101,619905,46061,,null,,129.2153757,35.24528538
MA010120220805458449,신뷰티x카민,,S2,수리·개인,S207,이용·미용,S20702,피부 관리실,S96113,피부 미용업,26,부산광역시,26500,수영구,26500780,광안3동,2650010400,광안동,2.65001E+18,1,대지,89,21,부산광역시 수영구 광안동 89-21,2.65003E+11,부산광역시 수영구 수영로,672,null,2.65001E+24,,부산광역시 수영구 수영로 672,613800,48267,,4,,129.1150569,35.16552373
MA010120220805456561,케이엠지,,M1,과학·기술,M114,인쇄·제품제작,M11401,명함/간판/광고물 제작,C33910,간판 및 광고물 제조업,26,부산광역시,26380,사하구,26380601,다대1동,2638010600,다대동,2.63801E+18,1,대지,1506,13,부산광역시 사하구 다대동 1506-13,2.63803E+11,부산광역시 사하구 다산로,164,1,2.63801E+24,우체국,부산광역시 사하구 다산로 164-1,604826,49489,,null,,128.9579344,35.06717239
MA010120220805456688,라인컨설팅,,M1,과학·기술,M107,본사·경영 컨설팅,M10703,경영 컨설팅업,M71531,경영 컨설팅업,26,부산광역시,26230,부산진구,26230770,범천1동,2623010400,범천동,2.62301E+18,1,대지,839,48,부산광역시 부산진구 범천동 839-48,2.62303E+11,부산광역시 부산진구 자유평화로,11,null,2.62301E+24,누리엔,부산광역시 부산진구 자유평화로 11,614720,47366,,11,,129.0612253,35.14175981
MA010120220805457462,컴포즈광안비치,,I2,음식,I212,비알코올 ,I21201,카페,I56221,커피 전문점,26,부산광역시,26500,수영구,26500770,광안2동,2650010400,광안동,2.65001E+18,1,대지,193,4,부산광역시 수영구 광안동 193-4,2.65004E+11,부산광역시 수영구 광안로62번길,39,null,2.65001E+24,부산광안대우아이빌,부산광역시 수영구 광안로62번길 39,613805,48303,,1,,129.117741,35.15310493
MA010120220805457162,다대서점,,G2,소매,G213,오락용품 소매,G21301,서점,G47611,"서적, 신문 및 잡지류 소매업",26,부산광역시,26380,사하구,26380601,다대1동,2638010600,다대동,2.63801E+18,1,대지,903,null,부산광역시 사하구 다대동 903,2.63803E+11,부산광역시 사하구 다대로,556,null,2.63801E+24,,부산광역시 사하구 다대로 556,604825,49494,,null,,128.9705516,35.05680497
MA010120220805457168,태양수산,,G2,소매,G205,식료품 소매,G20505,수산물 소매업,G47214,"신선, 냉동 및 기타 수산물 소매업",26,부산광역시,26500,수영구,26500740,망미1동,2650010100,망미동,2.65001E+18,1,대지,431,14,부산광역시 수영구 망미동 431-14,2.65004E+11,부산광역시 수영구 과정로55번길,7,null,2.65001E+24,,부산광역시 수영구 과정로55번길 7,613822,48210,,null,,129.1068699,35.17618108
MA010120220805457247,진수의영어교습소,,P1,교육,P105,일반 교육,P10501,입시·교과학원,P85631,외국어학원,26,부산광역시,26710,기장군,26710259,일광읍,2671025921,일광읍,2.67103E+18,1,대지,779,10,부산광역시 기장군 일광읍 삼성리 779-10,2.67103E+11,부산광역시 기장군 일광읍 해빛로,43,null,2.67103E+24,,부산광역시 기장군 일광읍 해빛로 43,619912,46048,,null,,129.2233184,35.26714447
MA010120220805457056,대운학원,,P1,교육,P105,일반 교육,P10501,입시·교과학원,P85501,일반 교과학원,26,부산광역시,26470,연제구,26470700,연산6동,2647010200,연산동,2.64701E+18,1,대지,683,8,부산광역시 연제구 연산동 683-8,2.64703E+11,부산광역시 연제구 월드컵대로,12,null,2.64701E+24,연산메디파크,부산광역시 연제구 월드컵대로 12,611825,47591,,3,,129.0865109,35.17577951
MA010120220805460411,사랑공방,,P1,교육,P106,기타 교육,P10625,기타 기술/직업 훈련학원,P85669,기타 기술 및 직업 훈련학원,26,부산광역시,26260,동래구,26260560,온천2동,2626010800,온천동,2.62601E+18,1,대지,905,null,부산광역시 동래구 온천동 905,2.62603E+11,부산광역시 동래구 금정마을로,150,null,2.62601E+24,동래래미안아이파크,부산광역시 동래구 금정마을로 150,607838,47719,,3,,129.0675987,35.21128202
MA010120220805459626,꼬꼬아찌다대포점,,I2,음식,I210,기타 간이,I21006,치킨,I56121,중식 음식점업,26,부산광역시,26380,사하구,26380601,다대1동,2638010600,다대동,2.63801E+18,1,대지,956,23,부산광역시 사하구 다대동 956-23,2.63804E+11,부산광역시 사하구 윤공단로14번길,13,null,2.63801E+24,,부산광역시 사하구 윤공단로14번길 13,604825,49494,,1,,128.969002,35.05554637
MA010120220805459951,MS모바일,,G2,소매,G208,가전·통신 소매,G20802,핸드폰 소매업,G47312,통신기기 소매업,26,부산광역시,26230,부산진구,26230710,가야1동,2623011000,가야동,2.62301E+18,1,대지,437,30,부산광역시 부산진구 가야동 437-30,2.62303E+11,부산광역시 부산진구 대학로,56,null,2.62301E+24,,부산광역시 부산진구 대학로 56,614803,47336,,null,,129.0349058,35.15093831
MA010120220805460151,영도솔밭농원,,I2,음식,I201,한식,I20101,백반/한정식,I56111,한식 일반 음식점업,26,부산광역시,26200,영도구,26200650,동삼1동,2620012100,동삼동,2.62001E+18,1,대지,672,1,부산광역시 영도구 동삼동 672-1,2.62003E+11,부산광역시 영도구 와치로,318,null,2.62001E+24,,부산광역시 영도구 와치로 318,606807,49123,,null,,129.0736585,35.07151249
MA010120220805460251,타케야,,I2,음식,I211,주점,I21104,요리 주점,I56219,기타 주점업,26,부산광역시,26350,해운대구,26350650,재송1동,2635010400,재송동,2.63501E+18,1,대지,1084,8,부산광역시 해운대구 재송동 1084-8,2.63503E+11,부산광역시 해운대구 재송1로,82,null,2.63501E+24,,부산광역시 해운대구 재송1로 82,612831,48055,,1,,129.1252026,35.18726141
MA010120220805459777,카카오공인중개사사무소,,L1,부동산,L102,부동산 서비스,L10203,부동산 중개/대리업,L68221,부동산 중개 및 대리업,26,부산광역시,26440,강서구,26440535,명지1동,2644010400,명지동,2.64401E+18,1,대지,3412,6,부산광역시 강서구 명지동 3412-6,2.64403E+11,부산광역시 강서구 명지국제8로,246,null,2.64401E+24,,부산광역시 강서구 명지국제8로 246,618200,46772,,null,,128.9196411,35.09775636
MA010120220805459996,진주식품,,G2,소매,G205,식료품 소매,G20509,반찬/식료품 소매업,G47218,조리 반찬류 소매업,26,부산광역시,26500,수영구,26500740,망미1동,2650010100,망미동,2.65001E+18,1,대지,432,4,부산광역시 수영구 망미동 432-4,2.65004E+11,부산광역시 수영구 과정로55번길,8,null,2.65001E+24,,부산광역시 수영구 과정로55번길 8,613822,48204,,1,,129.1068502,35.17634351
MA010120220805460443,원현패밀리,,S2,수리·개인,S205,가전제품 수리,S20501,가전제품 수리업,S95310,가전제품 수리업,26,부산광역시,26320,북구,26320572,만덕2동,2632010300,만덕동,2.63201E+18,1,대지,384,16,부산광역시 북구 만덕동 384-16,2.63204E+11,부산광역시 북구 중리로20번가길,19,null,2.63201E+24,,부산광역시 북구 중리로20번가길 19,616827,46610,,null,,129.0405854,35.21167044
MA010120220805460370,하밍네일,,S2,수리·개인,S207,이용·미용,S20703,네일숍,S96119,기타 미용업,26,부산광역시,26260,동래구,26260545,명륜동,2626010700,명륜동,2.62601E+18,1,대지,172,25,부산광역시 동래구 명륜동 172-25,2.62603E+11,부산광역시 동래구 명륜로,208,1,2.62601E+24,,부산광역시 동래구 명륜로 208-1,607803,47744,,1,,129.0831652,35.21237865
MA010120220805459930,닭드리숯불두마리치킨덕천,,I2,음식,I210,기타 간이,I21006,치킨,I56193,치킨 전문점,26,부산광역시,26320,북구,26320561,덕천3동,2632010400,덕천동,2.63201E+18,1,대지,406,null,부산광역시 북구 덕천동 406,2.63204E+11,부산광역시 북구 만덕대로142번길,31,null,2.63201E+24,한성아파트,부산광역시 북구 만덕대로142번길 31,616815,46572,,null,,129.0206978,35.21189382
MA010120220805460181,주례껍데기집,,I2,음식,I201,한식,I20107,돼지고기 구이/찜,I56113,한식 육류 요리 전문점,26,부산광역시,26230,부산진구,26230700,당감4동,2623010900,당감동,2.62301E+18,1,대지,334,3,부산광역시 부산진구 당감동 334-3,2.62303E+11,부산광역시 부산진구 당감서로,60,null,2.62301E+24,,부산광역시 부산진구 당감서로 60,614879,47145,,1,,129.0368613,35.1657946
MA010120220805460059,남북유통,,G2,소매,G204,종합 소매,G20404,슈퍼마켓,G47129,기타 음ㆍ식료품 위주 종합 소매업,26,부산광역시,26230,부산진구,26230670,당감1동,2623010900,당감동,2.62301E+18,1,대지,252,117,부산광역시 부산진구 당감동 252-117,2.62304E+11,부산광역시 부산진구 당감로10번길,7,null,2.62301E+24,,부산광역시 부산진구 당감로10번길 7,614817,47189,,null,,129.0402036,35.16276431
MA010120220805459249,가나유통,,G2,소매,G205,식료품 소매,G20509,반찬/식료품 소매업,G47219,기타 식료품 소매업,26,부산광역시,26500,수영구,26500750,망미2동,2650010100,망미동,2.65001E+18,1,대지,411,1,부산광역시 수영구 망미동 411-1,2.65004E+11,부산광역시 수영구 망미번영로55번길,112,null,2.65001E+24,현대망미아파트,부산광역시 수영구 망미번영로55번길 112,613821,48218,,1,,129.1082978,35.17704236
MA010120220805459017,덕천24퍼펙스워시,,S2,수리·개인,S203,자동차 수리·세차,S20302,자동차 세차장,S95213,자동차 세차업,26,부산광역시,26320,북구,26320560,덕천2동,2632010400,덕천동,2.63201E+18,1,대지,312,3,부산광역시 북구 덕천동 312-3,2.63202E+11,부산광역시 북구 금곡대로,41,null,2.63201E+24,,부산광역시 북구 금곡대로 41,616817,46544,,null,,129.0038838,35.21377408
MA010120220805458656,종근당건강헬스벨스토리부산남항점,,G2,소매,G205,식료품 소매,G20508,건강보조식품 소매업,G47217,건강 보조식품 소매업,26,부산광역시,26200,영도구,26200530,남항동,2620010600,남항동2가,2.62001E+18,1,대지,247,17,부산광역시 영도구 남항동2가 247-17,2.62003E+11,부산광역시 영도구 남항로,22,1,2.62001E+24,,부산광역시 영도구 남항로 22-1,606802,49055,,null,,129.03894,35.08923002
MA010120220805459277,지에스25정관네오점,,G2,소매,G204,종합 소매,G20405,편의점,G47122,체인화 편의점,26,부산광역시,26710,기장군,26710256,정관읍,2671025622,정관읍,2.67103E+18,1,대지,717,10,부산광역시 기장군 정관읍 매학리 717-10,2.67103E+11,부산광역시 기장군 정관읍 정관8로,28,null,2.67103E+24,,부산광역시 기장군 정관읍 정관8로 28,619963,46015,,1,,129.1789036,35.32230697
MA010120220805458593,청명상회,,G2,소매,G204,종합 소매,G20404,슈퍼마켓,G47129,기타 음ㆍ식료품 위주 종합 소매업,26,부산광역시,26530,사상구,26530645,감전동,2653010500,감전동,2.65301E+18,1,대지,151,19,부산광역시 사상구 감전동 151-19,2.65304E+11,부산광역시 사상구 새벽시장로56번길,37,null,2.65301E+24,,부산광역시 사상구 새벽시장로56번길 37,617803,46989,,1,,128.9794036,35.15353598
MA010120220805458794,팀레전드부부동네헬스,,R1,예술·스포츠,R103,스포츠 서비스,R10307,헬스장,R91132,체력 단련시설 운영업,26,부산광역시,26500,수영구,26500760,광안1동,2650010400,광안동,2.65001E+18,1,대지,491,17,부산광역시 수영구 광안동 491-17,2.65003E+11,부산광역시 수영구 수영로,621,null,2.65001E+24,부광,부산광역시 수영구 수영로 621,613807,48253,,1,,129.1136487,35.16126411
MA010120220805458860,봉아이스크림할인점좌동뜨란채점,,G2,소매,G204,종합 소매,G20404,슈퍼마켓,G47216,"빵류, 과자류 및 당류 소매업",26,부산광역시,26350,해운대구,26350553,좌3동,2635010700,좌동,2.63501E+18,1,대지,1278,1,부산광역시 해운대구 좌동 1278-1,2.63504E+11,부산광역시 해운대구 대천로67번길,12,null,2.63501E+24,,부산광역시 해운대구 대천로67번길 12,612852,48081,,null,,129.1690348,35.17355091
MA010120220805458864,에이블커피,,I2,음식,I212,비알코올 ,I21201,카페,I56221,커피 전문점,26,부산광역시,26470,연제구,26470610,거제1동,2647010100,거제동,2.64701E+18,1,대지,1488,1,부산광역시 연제구 거제동 1488-1,2.64704E+11,부산광역시 연제구 법원남로16번길,24,null,2.64701E+24,남도빌딩,부산광역시 연제구 법원남로16번길 24,611718,47511,,null,,129.0752904,35.19155476
MA010120220805459131,몽실이비어,,I2,음식,I211,주점,I21103,생맥주 전문,I56213,생맥주 전문점,26,부산광역시,26500,수영구,26500760,광안1동,2650010400,광안동,2.65001E+18,1,대지,495,3,부산광역시 수영구 광안동 495-3,2.65003E+11,부산광역시 수영구 광일로,17,null,2.65001E+24,,부산광역시 수영구 광일로 17,613807,48253,,1,,129.1120797,35.16211681
MA010120220805461823,트리니티,,I2,음식,I211,주점,I21101,일반 유흥 주점,I56211,일반 유흥 주점업,26,부산광역시,26350,해운대구,26350530,중1동,2635010600,중동,2.63501E+18,1,대지,1124,6,부산광역시 해운대구 중동 1124-6,2.63504E+11,부산광역시 해운대구 해운대해변로298번길,25,null,2.63501E+24,영무파라드호텔,부산광역시 해운대구 해운대해변로298번길 25,612847,48099,,2,,129.1665051,35.16091993
MA010120220805462213,한울,,G2,소매,G208,가전·통신 소매,G20802,핸드폰 소매업,G47312,통신기기 소매업,26,부산광역시,26410,금정구,26410680,구서1동,2641010700,구서동,2.64101E+18,1,대지,87,9,부산광역시 금정구 구서동 87-9,2.64103E+11,부산광역시 금정구 구서로,12,null,2.64101E+24,구서오시게시장,부산광역시 금정구 구서로 12,609854,46243,,1,,129.0897946,35.24737378
MA010120220805461977,정인테리어,,M1,과학·기술,M112,전문 디자인,M11201,인테리어 디자인업,F42412,"도배, 실내 장식 및 내장 목공사업",26,부산광역시,26320,북구,26320573,만덕3동,2632010300,만덕동,2.63201E+18,1,대지,910,6,부산광역시 북구 만덕동 910-6,2.63204E+11,부산광역시 북구 만덕3로48번나길,33,null,2.63201E+24,,부산광역시 북구 만덕3로48번나길 33,616829,46571,,null,,129.0268823,35.21110238
MA010120220805462251,잡솨봐불막창사상점,,I2,음식,I201,한식,I20109,곱창 전골/구이,I56111,한식 일반 음식점업,26,부산광역시,26530,사상구,26530645,감전동,2653010500,감전동,2.65301E+18,1,대지,107,1,부산광역시 사상구 감전동 107-1,2.65303E+11,부산광역시 사상구 사상로,147,null,2.65301E+24,,부산광역시 사상구 사상로 147,617800,46982,,1,,128.9875904,35.15891398
MA010120220805461029,미밥,,I2,음식,I201,한식,I20101,백반/한정식,I56111,한식 일반 음식점업,26,부산광역시,26230,부산진구,26230520,부전2동,2623010300,부전동,2.62301E+18,1,대지,223,7,부산광역시 부산진구 부전동 223-7,2.62304E+11,부산광역시 부산진구 중앙대로680번길,49,null,2.62301E+24,,부산광역시 부산진구 중앙대로680번길 49,614846,47296,,null,,129.0619056,35.15358914
MA010120220805461111,부산설렁탕,,I2,음식,I201,한식,I20102,국/탕/찌개류,I56112,한식 면 요리 전문점,26,부산광역시,26230,부산진구,26230520,부전2동,2623010300,부전동,2.62301E+18,1,대지,254,10,부산광역시 부산진구 부전동 254-10,2.62304E+11,부산광역시 부산진구 서면로68번길,43,null,2.62301E+24,,부산광역시 부산진구 서면로68번길 43,614846,47286,,1,,129.0585773,35.1550605
MA010120220805461299,필라테스데이,,P1,교육,P106,기타 교육,P10603,요가/필라테스 학원,P85612,기타 스포츠 교육기관,26,부산광역시,26530,사상구,26530661,주례3동,2653010600,주례동,2.65301E+18,1,대지,1162,14,부산광역시 사상구 주례동 1162-14,2.65302E+11,부산광역시 사상구 가야대로,278,null,2.65301E+24,,부산광역시 사상구 가야대로 278,617838,47012,,3,,129.0028825,35.15017099
MA010120220805460546,더하다,,I2,음식,I201,한식,I20107,돼지고기 구이/찜,I56113,한식 육류 요리 전문점,26,부산광역시,26470,연제구,26470730,연산9동,2647010200,연산동,2.64701E+18,1,대지,489,10,부산광역시 연제구 연산동 489-10,2.64703E+11,부산광역시 연제구 과정로,126,null,2.64701E+24,,부산광역시 연제구 과정로 126,611812,47570,,null,,129.1074393,35.18254866
MA010120220805460738,뿌드망,,I2,음식,I212,비알코올 ,I21201,카페,I56221,커피 전문점,26,부산광역시,26140,서구,26140510,동대신1동,2614010100,동대신동1가,2.61401E+18,1,대지,222,4,부산광역시 서구 동대신동1가 222-4,2.61403E+11,부산광역시 서구 구덕로,274,null,2.61401E+24,,부산광역시 서구 구덕로 274,602808,49221,,1,,129.0189735,35.10892387
MA010120220805460559,시나브로워크룸,,I2,음식,I212,비알코올 ,I21201,카페,I56221,커피 전문점,26,부산광역시,26230,부산진구,26230540,연지동,2623010600,연지동,2.62301E+18,1,대지,189,6,부산광역시 부산진구 연지동 189-6,2.62304E+11,부산광역시 부산진구 동평로235번길,37,3,2.62301E+24,,부산광역시 부산진구 동평로235번길 37-3,614860,47131,,null,,129.051765,35.17153418
MA010120220805460800,대성탕,,S2,수리·개인,S208,욕탕·신체관리,S20801,목욕탕/사우나,S96121,욕탕업,26,부산광역시,26320,북구,26320520,구포2동,2632010500,구포동,2.63201E+18,1,대지,927,20,부산광역시 북구 구포동 927-20,2.63203E+11,부산광역시 북구 구남언덕로,29,null,2.63201E+24,,부산광역시 북구 구남언덕로 29,616806,46648,,null,,128.9962199,35.20139819
MA010120220805460999,오스본,,G2,소매,G209,섬유·의복·신발 소매,G20902,여성 의류 소매업,G47412,여자용 겉옷 소매업,26,부산광역시,26410,금정구,26410610,장전2동,2641010800,장전동,2.64101E+18,1,대지,40,null,부산광역시 금정구 장전동 40,2.64104E+11,부산광역시 금정구 부산대학로63번길,2,null,2.64101E+24,부산대학교,부산광역시 금정구 부산대학로63번길 2,609737,46241,,2,,129.0838468,35.232257
MA010120220805461312,남천자이공인중개사사무소,,L1,부동산,L102,부동산 서비스,L10203,부동산 중개/대리업,L68221,부동산 중개 및 대리업,26,부산광역시,26500,수영구,26500670,남천2동,2650010500,남천동,2.65001E+18,1,대지,148,47,부산광역시 수영구 남천동 148-47,2.65003E+11,부산광역시 수영구 남천동로,23,null,2.65001E+24,,부산광역시 수영구 남천동로 23,613818,48306,,1,,129.111092,35.1419438
MA010120220805460573,제이브로우,,S2,수리·개인,S207,이용·미용,S20702,피부 관리실,S96113,피부 미용업,26,부산광역시,26320,북구,26320571,만덕1동,2632010300,만덕동,2.63201E+18,1,대지,824,34,부산광역시 북구 만덕동 824-34,2.63203E+11,부산광역시 북구 상학로,3,null,2.63201E+24,,부산광역시 북구 상학로 3,616830,46557,,4,,129.0366429,35.21429124
MA010120220805460759,합천돼지국밥,,I2,음식,I201,한식,I20101,백반/한정식,I56111,한식 일반 음식점업,26,부산광역시,26440,강서구,26440510,대저1동,2644010100,대저1동,2.64401E+18,1,대지,1799,8,부산광역시 강서구 대저1동 1799-8,2.64403E+11,부산광역시 강서구 평강로,307,null,2.64401E+24,,부산광역시 강서구 평강로 307,618806,46704,,null,,128.9462503,35.21254362
MA010120220805461141,연희환경,,N1,시설관리·임대,N101,시설관리,N10101,사업시설 유지·관리 서비스업,N74100,사업시설 유지ㆍ관리 서비스업,26,부산광역시,26380,사하구,26380530,괴정3동,2638010100,괴정동,2.63801E+18,1,대지,409,31,부산광역시 사하구 괴정동 409-31,2.63804E+11,부산광역시 사하구 낙동대로179번길,17,null,2.63801E+24,,부산광역시 사하구 낙동대로179번길 17,604810,49351,,4,,128.9974073,35.10078325
MA010120220805464403,장수영양탕,,I2,음식,I201,한식,I20101,백반/한정식,I56111,한식 일반 음식점업,26,부산광역시,26320,북구,26320510,구포1동,2632010500,구포동,2.63201E+18,1,대지,1141,115,부산광역시 북구 구포동 1141-115,2.63204E+11,부산광역시 북구 가람로52번길,89,null,2.63201E+24,,부산광역시 북구 가람로52번길 89,616091,46587,,1,,129.0031641,35.20527092
MA010120220805463635,아이올림픽수영용품판매샵,,G2,소매,G213,오락용품 소매,G21304,운동용품 소매업,G47631,운동 및 경기용품 소매업,26,부산광역시,26440,강서구,26440535,명지1동,2644010400,명지동,2.64401E+18,1,대지,3395,7,부산광역시 강서구 명지동 3395-7,2.64403E+11,부산광역시 강서구 명지국제8로,293,null,2.64401E+24,,부산광역시 강서구 명지국제8로 293,618200,46773,,1,,128.9250609,35.09790442
MA010120220805464421,크로스핏짐클래식,,R1,예술·스포츠,R103,스포츠 서비스,R10307,헬스장,R91132,체력 단련시설 운영업,26,부산광역시,26230,부산진구,26230740,개금1동,2623011100,개금동,2.62301E+18,1,대지,177,243,부산광역시 부산진구 개금동 177-243,2.62302E+11,부산광역시 부산진구 가야대로,462,1,2.62301E+24,,부산광역시 부산진구 가야대로 462-1,614813,47323,,1,,129.0226161,35.15287249
MA010120220805463706,로띠번,,I2,음식,I210,기타 간이,I21001,빵/도넛,I56191,제과점업,26,부산광역시,26230,부산진구,26230640,부암1동,2623010800,부암동,2.62301E+18,1,대지,309,1,부산광역시 부산진구 부암동 309-1,2.62304E+11,부산광역시 부산진구 동평로183번가길,3,null,2.62301E+24,,부산광역시 부산진구 동평로183번가길 3,614838,47141,,1,,129.0491145,35.16859158
MA010120220805464101,쏘핫마라탕,,I2,음식,I202,중식,I20202,마라탕/훠궈,I56121,중식 음식점업,26,부산광역시,26710,기장군,26710256,정관읍,2671025622,정관읍,2.67103E+18,1,대지,717,10,부산광역시 기장군 정관읍 매학리 717-10,2.67103E+11,부산광역시 기장군 정관읍 정관8로,28,null,2.67103E+24,,부산광역시 기장군 정관읍 정관8로 28,619963,46015,,null,,129.1789036,35.32230697
MA010120220805464005,팔방미노래주점,,I2,음식,I211,주점,I21101,일반 유흥 주점,I56211,일반 유흥 주점업,26,부산광역시,26230,부산진구,26230780,범천2동,2623010400,범천동,2.62301E+18,1,대지,1234,10,부산광역시 부산진구 범천동 1234-10,2.62304E+11,부산광역시 부산진구 신암로83번길,6,null,2.62301E+24,,부산광역시 부산진구 신암로83번길 6,614831,47349,,1,,129.0530629,35.1487357
MA010120220805463612,남해바다장어,,I2,음식,I201,한식,I20112,해산물 구이/찜,I56114,한식 해산물 요리 전문점,26,부산광역시,26530,사상구,26530645,감전동,2653010500,감전동,2.65301E+18,1,대지,122,23,부산광역시 사상구 감전동 122-23,2.65304E+11,부산광역시 사상구 새벽로177번길,13,null,2.65301E+24,,부산광역시 사상구 새벽로177번길 13,617802,46980,,null,,128.9827894,35.15671755
MA010120220805463623,롯데광복점웨스트우드,,G2,소매,G209,섬유·의복·신발 소매,G20905,기타 의류 소매업,G47419,기타 의복 소매업,26,부산광역시,26110,중구,26110510,중앙동,2611011000,중앙동7가,2.61101E+18,1,대지,20,1,부산광역시 중구 중앙동7가 20-1,2.61102E+11,부산광역시 중구 중앙대로,2,null,2.61101E+24,롯데백화점광복점,부산광역시 중구 중앙대로 2,600017,48944,,7,,129.0367302,35.09832607
MA010120220805464075,도리닭,,I2,음식,I211,주점,I21104,요리 주점,I56219,기타 주점업,26,부산광역시,26470,연제구,26470640,거제4동,2647010100,거제동,2.64701E+18,1,대지,676,291,부산광역시 연제구 거제동 676-291,2.64704E+11,부산광역시 연제구 해맞이로31번길,62,7,2.64701E+24,삼미이미지빌라,부산광역시 연제구 해맞이로31번길 62-7,611805,47533,,null,,129.0646884,35.17931745
MA010120220805464326,배채연헤어,,S2,수리·개인,S207,이용·미용,S20701,미용실,S96112,두발 미용업,26,부산광역시,26500,수영구,26500660,남천1동,2650010500,남천동,2.65001E+18,1,대지,22,27,부산광역시 수영구 남천동 22-27,2.65004E+11,부산광역시 수영구 남천동로10번길,47,null,2.65001E+24,,부산광역시 수영구 남천동로10번길 47,613814,48308,,1,,129.1082949,35.14122127
MA010120220805464390,청도갈비,,I2,음식,I201,한식,I20107,돼지고기 구이/찜,I56113,한식 육류 요리 전문점,26,부산광역시,26170,동구,26170520,초량2동,2617010100,초량동,2.61701E+18,1,대지,268,2,부산광역시 동구 초량동 268-2,2.61703E+11,부산광역시 동구 초량중로,85,null,2.61701E+24,,부산광역시 동구 초량중로 85,601829,48814,,1,,129.0394213,35.11936877
MA010120220805463221,프라자,,I2,음식,I204,서양식,I20401,경양식,I56123,서양식 음식점업,26,부산광역시,26500,수영구,26500800,민락동,2650010300,민락동,2.65001E+18,1,대지,181,223,부산광역시 수영구 민락동 181-223,2.65003E+11,부산광역시 수영구 민락수변로,29,null,2.65001E+24,민락동바다마루,부산광역시 수영구 민락수변로 29,613828,48283,,5,,129.1247005,35.15320278
MA010120220805463363,부산댁,,I2,음식,I201,한식,I20107,돼지고기 구이/찜,I56113,한식 육류 요리 전문점,26,부산광역시,26470,연제구,26470650,연산1동,2647010200,연산동,2.64701E+18,1,대지,333,2,부산광역시 연제구 연산동 333-2,2.64703E+11,부산광역시 연제구 쌍미천로,144,null,2.64701E+24,,부산광역시 연제구 쌍미천로 144,611814,47579,,null,,129.0874732,35.18538866
MA010120220805463181,술집,,I2,음식,I211,주점,I21104,요리 주점,I56219,기타 주점업,26,부산광역시,26380,사하구,26380571,신평1동,2638010400,신평동,2.63801E+18,1,대지,82,107,부산광역시 사하구 신평동 82-107,2.63804E+11,부산광역시 사하구 다대로140번길,3,null,2.63801E+24,,부산광역시 사하구 다대로140번길 3,604832,49441,,1,,128.9773954,35.09018341
MA010120220805466079,이랜드월드패션부산남포,,G2,소매,G209,섬유·의복·신발 소매,G20910,신발 소매업,G47430,신발 소매업,26,부산광역시,26110,중구,26110570,광복동,2611013300,광복동1가,2.61101E+18,1,대지,59,1,부산광역시 중구 광복동1가 59-1,2.61103E+11,부산광역시 중구 광복로,82,null,2.61101E+24,,부산광역시 중구 광복로 82,600031,48954,,3,,129.0337801,35.09834224
MA010120220805465699,맥경영연구소,,M1,과학·기술,M107,본사·경영 컨설팅,M10703,경영 컨설팅업,M71531,경영 컨설팅업,26,부산광역시,26230,부산진구,26230510,부전1동,2623010300,부전동,2.62301E+18,1,대지,474,80,부산광역시 부산진구 부전동 474-80,2.62303E+11,부산광역시 부산진구 서면문화로,27,null,2.62301E+24,유원골든타워오피스텔,부산광역시 부산진구 서면문화로 27,614731,47257,,null,,129.0556267,35.15944898
MA010120220805464584,시마헤어,,S2,수리·개인,S207,이용·미용,S20701,미용실,S96112,두발 미용업,26,부산광역시,26470,연제구,26470620,거제2동,2647010100,거제동,2.64701E+18,1,대지,1012,null,부산광역시 연제구 거제동 1012,2.64704E+11,부산광역시 연제구 아시아드대로46번길,5,null,2.64701E+24,,부산광역시 연제구 아시아드대로46번길 5,611807,47525,,null,,129.0685254,35.18895555
MA010120220805464729,스타박스,,G2,소매,G222,중고 상품 소매,G22201,중고 상품 소매업,G47869,기타 중고 상품 소매업,26,부산광역시,26110,중구,26110570,광복동,2611012800,신창동2가,2.61101E+18,1,대지,14,1,부산광역시 중구 신창동2가 14-1,2.61104E+11,부산광역시 중구 중구로40번길,14,null,2.61101E+24,,부산광역시 중구 중구로40번길 14,600062,48947,,1,,129.0294303,35.10131783
MA010120220805465114,명가부동산공인중개사사무소,,L1,부동산,L102,부동산 서비스,L10203,부동산 중개/대리업,L68221,부동산 중개 및 대리업,26,부산광역시,26230,부산진구,26230570,양정2동,2623010100,양정동,2.62301E+18,1,대지,116,10,부산광역시 부산진구 양정동 116-10,2.62304E+11,부산광역시 부산진구 연수로54번길,7,null,2.62301E+24,,부산광역시 부산진구 연수로54번길 7,614851,47218,,1,,129.0770889,35.17474594
MA010120220805464622,뚜레쥬르부산문현금융단지점,,I2,음식,I210,기타 간이,I21001,빵/도넛,I56191,제과점업,26,부산광역시,26290,남구,26290690,문현2동,2629010900,문현동,2.62901E+18,1,대지,734,14,부산광역시 남구 문현동 734-14,2.62903E+11,부산광역시 남구 문현금융로,22,null,2.62901E+24,,부산광역시 남구 문현금융로 22,608827,48401,,null,,129.0650812,35.14461044
MA010120220805464863,자람키즈스포츠,,P1,교육,P106,기타 교육,P10603,요가/필라테스 학원,P85612,기타 스포츠 교육기관,26,부산광역시,26440,강서구,26440545,명지2동,2644010400,명지동,2.64401E+18,1,대지,3239,12,부산광역시 강서구 명지동 3239-12,2.64403E+11,부산광역시 강서구 명지오션시티5로,14,null,2.64401E+24,,부산광역시 강서구 명지오션시티5로 14,618814,46764,,null,,128.9042116,35.08307115
MA010120220805465182,주짓수코어화명수정짐,,P1,교육,P106,기타 교육,P10603,요가/필라테스 학원,P85612,기타 스포츠 교육기관,26,부산광역시,26320,북구,26320543,화명3동,2632010200,화명동,2.63201E+18,1,대지,2315,11,부산광역시 북구 화명동 2315-11,2.63202E+11,부산광역시 북구 금곡대로,155,null,2.63201E+24,행운빌딩,부산광역시 북구 금곡대로 155,616853,46542,,1,,129.0088315,35.22307133
MA010120220805464821,에스엠휘트니스,,R1,예술·스포츠,R103,스포츠 서비스,R10307,헬스장,R91132,체력 단련시설 운영업,26,부산광역시,26710,기장군,26710250,기장읍,2671025022,기장읍,2.67103E+18,1,대지,240,3,부산광역시 기장군 기장읍 교리 240-3,2.67104E+11,부산광역시 기장군 기장읍 차성로441번길,15,null,2.67103E+24,에스이전력,부산광역시 기장군 기장읍 차성로441번길 15,619901,46054,,3,,129.2167279,35.25562845
MA010120220805467622,에코인테리어,,M1,과학·기술,M112,전문 디자인,M11201,인테리어 디자인업,F42110,건물 및 구축물 해체 공사업,26,부산광역시,26470,연제구,26470730,연산9동,2647010200,연산동,2.64701E+18,1,대지,419,12,부산광역시 연제구 연산동 419-12,2.64703E+11,부산광역시 연제구 연안로,11,1,2.64701E+24,,부산광역시 연제구 연안로 11-1,611817,47567,,3,,129.1069539,35.18885377
MA010120220805467872,모노브레드,,I2,음식,I210,기타 간이,I21007,김밥/만두/분식,I56194,김밥 및 기타 간이 음식점업,26,부산광역시,26710,기장군,26710250,기장읍,2671025033,기장읍,2.67103E+18,2,산,46,null,부산광역시 기장군 기장읍 시랑리 산46,2.67103E+11,부산광역시 기장군 기장읍 동부산관광로,8,null,2.67103E+24,,부산광역시 기장군 기장읍 동부산관광로 8,619902,46083,,1,,129.2149785,35.19284784
MA010120220805467775,늘네일,,S2,수리·개인,S207,이용·미용,S20703,네일숍,S96119,기타 미용업,26,부산광역시,26380,사하구,26380601,다대1동,2638010600,다대동,2.63801E+18,1,대지,1667,null,부산광역시 사하구 다대동 1667,2.63803E+11,부산광역시 사하구 윤공단로,123,null,2.63801E+24,부산다대푸르지오,부산광역시 사하구 윤공단로 123,604751,49492,,1,,128.9745842,35.06128873
MA010120220805468584,김수미의엄마손맛,,G2,소매,G205,식료품 소매,G20509,반찬/식료품 소매업,C10302,과실 및 그 외 채소 절임식품 제조업,26,부산광역시,26230,부산진구,26230610,전포2동,2623010200,전포동,2.62301E+18,1,대지,874,8,부산광역시 부산진구 전포동 874-8,2.62302E+11,부산광역시 부산진구 중앙대로,802,null,2.62301E+24,,부산광역시 부산진구 중앙대로 802,614870,47241,,1,,129.0639187,35.16321637
MA010120220805468537,혼마치수산,,I2,음식,I211,주점,I21104,요리 주점,I56219,기타 주점업,26,부산광역시,26380,사하구,26380562,하단2동,2638010300,하단동,2.63801E+18,1,대지,504,14,부산광역시 사하구 하단동 504-14,2.63804E+11,부산광역시 사하구 낙동남로1423번길,89,null,2.63801E+24,,부산광역시 사하구 낙동남로1423번길 89,604851,49309,,2,,128.9648975,35.11009649
MA010120220805468545,대명냉열,,S2,수리·개인,S205,가전제품 수리,S20501,가전제품 수리업,S95310,가전제품 수리업,26,부산광역시,26290,남구,26290610,용당동,2629010800,용당동,2.62901E+18,1,대지,567,1,부산광역시 남구 용당동 567-1,2.62904E+11,부산광역시 남구 유엔평화로143번길,9,null,2.62901E+24,재활용수집협우회,부산광역시 남구 유엔평화로143번길 9,608830,48531,,null,,129.0972237,35.12413247
MA010120220805466781,다솔,,P1,교육,P106,기타 교육,P10619,사회교육시설,P85640,사회교육시설,26,부산광역시,26530,사상구,26530680,엄궁동,2653010800,엄궁동,2.65301E+18,1,대지,515,5,부산광역시 사상구 엄궁동 515-5,2.65304E+11,부산광역시 사상구 낙동대로776번길,40,null,2.65301E+24,,부산광역시 사상구 낙동대로776번길 40,617828,47039,,2,,128.973162,35.12892389
