상가업소번호,상호명,지점명,상권업종대분류코드,상권업종대분류명,상권업종중분류코드,상권업종중분류명,상권업종소분류코드,상권업종소분류명,표준산업분류코드,표준산업분류명,시도코드,시도명,시군구코드,시군구명,행정동코드,행정동명,법정동코드,법정동명,지번코드,대지구분코드,대지구분명,지번본번지,지번부번지,지번주소,도로명코드,도로명,건물본번지,건물부번지,건물관리번호,건물명,도로명주소,구우편번호,신우편번호,동정보,층정보,호정보,경도,위도
MA0101202210A0008597,엠엠디커피,,I2,음식,I212,비알코올 ,I21201,카페,I56111,한식 일반 음식점업,31,울산광역시,31110,중구,31110585,중앙동,3111010600,성남동,3.11101E+18,1,대지,234,1,울산광역시 중구 성남동 234-1,3.11104E+11,울산광역시 중구 만남의거리,2,null,3.11101E+24,,울산광역시 중구 만남의거리 2,681812,44532,,1,,129.3202671,35.5549016
MA0101202210A0013658,씨유대공원센트럴하임점,,G2,소매,G204,종합 소매,G20405,편의점,G47122,체인화 편의점,31,울산광역시,31140,남구,31140600,옥동,3114010200,옥동,3.11401E+18,1,대지,1404,7,울산광역시 남구 옥동 1404-7,3.11403E+11,울산광역시 남구 문수로,373,null,3.11401E+24,한국이동통신,울산광역시 남구 문수로 373,680844,44648,,1,,129.2944093,35.53469519
MA010120220805430825,해국수달치킨,,I2,음식,I210,기타 간이,I21006,치킨,I56193,치킨 전문점,31,울산광역시,31200,북구,31200520,농소2동,3120010600,중산동,3.12001E+18,1,대지,1322,1,울산광역시 북구 중산동 1322-1,3.12005E+11,울산광역시 북구 신기4길,45,null,3.12001E+24,,울산광역시 북구 신기4길 45,683450,44215,,1,,129.3538363,35.65030103
MA010120220805430975,이가,,G2,소매,G204,종합 소매,G20404,슈퍼마켓,G47129,기타 음ㆍ식료품 위주 종합 소매업,31,울산광역시,31710,울주군,31710256,온양읍,3171025624,온양읍,3.17103E+18,1,대지,171,15,울산광역시 울주군 온양읍 남창리 171-15,3.17104E+11,울산광역시 울주군 온양읍 남창2길,28,null,3.17103E+24,,울산광역시 울주군 온양읍 남창2길 28,689902,44974,,null,,129.2821562,35.41725758
MA010120220805431074,황금참치,,I2,음식,I203,일식,I20301,일식 회/초밥,I56114,한식 해산물 요리 전문점,31,울산광역시,31200,북구,31200510,농소1동,3120010200,호계동,3.12001E+18,1,대지,279,1,울산광역시 북구 호계동 279-1,3.12004E+11,울산광역시 북구 동대15길,20,null,3.12001E+24,,울산광역시 북구 동대15길 20,683812,44227,,null,,129.3537019,35.62859044
MA010120220805431218,더힐요가&기구필라테스,,P1,교육,P106,기타 교육,P10603,요가/필라테스 학원,P85612,기타 스포츠 교육기관,31,울산광역시,31170,동구,31170590,남목2동,3117010800,서부동,3.11701E+18,1,대지,181,6,울산광역시 동구 서부동 181-6,3.11702E+11,울산광역시 동구 방어진순환도로,941,null,3.11701E+24,,울산광역시 동구 방어진순환도로 941,682808,44030,,7,,129.4328309,35.52508139
MA010120220805431269,간절곶식당,,I2,음식,I201,한식,I20101,백반/한정식,I56111,한식 일반 음식점업,31,울산광역시,31710,울주군,31710310,서생면,3171031025,서생면,3.17103E+18,1,대지,271,null,울산광역시 울주군 서생면 대송리 271,3.17104E+11,울산광역시 울주군 서생면 간절곶2길,3,null,3.17103E+24,,울산광역시 울주군 서생면 간절곶2길 3,689883,45015,,null,,129.3553958,35.36117945
MA010120220805431359,티에이치엑스,,I2,음식,I212,비알코올 ,I21201,카페,I56221,커피 전문점,31,울산광역시,31140,남구,31140595,무거동,3114010100,무거동,3.11401E+18,1,대지,485,4,울산광역시 남구 무거동 485-4,3.11404E+11,울산광역시 남구 옥현로46번길,9,8,3.11401E+24,,울산광역시 남구 옥현로46번길 9-8,680808,44614,,1,,129.2622923,35.54056071
MA010120220805431416,태화강열쇠,,G2,소매,G210,철물·건설자재 소매,G21001,철물/공구 소매업,G47511,철물 및 난방용구 소매업,31,울산광역시,31110,중구,31110520,반구1동,3111011800,반구동,3.11101E+18,1,대지,880,8,울산광역시 중구 반구동 880-8,3.11104E+11,울산광역시 중구 반구정17길,12,1,3.11101E+24,화전아파트,울산광역시 중구 반구정17길 12-1,681808,44498,,5,,129.3474032,35.55974783
MA010120220805432118,샤라,,G2,소매,G209,섬유·의복·신발 소매,G20902,여성 의류 소매업,G47412,여자용 겉옷 소매업,31,울산광역시,31110,중구,31110585,중앙동,3111010500,옥교동,3.11101E+18,1,대지,95,2,울산광역시 중구 옥교동 95-2,3.11104E+11,울산광역시 중구 젊음의거리,96,null,3.11101E+24,,울산광역시 중구 젊음의거리 96,681190,44531,,null,,129.3226587,35.55411829
MA010120220805432236,세컨페이스,,G2,소매,G216,안경·정밀기기 소매,G21602,안경렌즈 소매업,G47822,안경 및 렌즈 소매업,31,울산광역시,31710,울주군,31710259,범서읍,3171025927,범서읍,3.17103E+18,1,대지,716,5,울산광역시 울주군 범서읍 구영리 716-5,3.17104E+11,울산광역시 울주군 범서읍 점촌2길,2,null,3.17103E+24,,울산광역시 울주군 범서읍 점촌2길 2,689852,44924,,1,,129.2406489,35.57586452
MA010120220805433675,참사랑홈파티스스튜디오,,G2,소매,G212,기타 생활용품 소매,G21202,주방/가정용품 소매업,G47592,"주방용품 및 가정용 유리, 요업제품 소매업",31,울산광역시,31200,북구,31200580,양정동,3120012400,양정동,3.12001E+18,1,대지,606,2,울산광역시 북구 양정동 606-2,3.12004E+11,울산광역시 북구 양정6길,43,1,3.12001E+24,,울산광역시 북구 양정6길 43-1,683380,44260,,1,,129.3861584,35.5422108
MA010120220805433924,든든카워시울산출장세차,,S2,수리·개인,S203,자동차 수리·세차,S20302,자동차 세차장,S95213,자동차 세차업,31,울산광역시,31110,중구,31110620,병영1동,3111011500,남외동,3.11101E+18,1,대지,1000,14,울산광역시 중구 남외동 1000-14,3.11104E+11,울산광역시 중구 해오름12길,17,null,3.11101E+24,,울산광역시 중구 해오름12길 17,681800,44507,,null,,129.3439929,35.56424734
MA010120220805432775,핸즈수선,,S2,수리·개인,S206,기타 가정용품 수리,S20601,의류/이불 수선업,S95391,의복 및 기타 가정용 직물제품 수리업,31,울산광역시,31170,동구,31170560,전하2동,3117010400,전하동,3.11701E+18,1,대지,673,20,울산광역시 동구 전하동 673-20,3.11704E+11,울산광역시 동구 진성15가길,13,null,3.11701E+24,,울산광역시 동구 진성15가길 13,682817,44049,,1,,129.4241576,35.50717616
MA010120220805432532,스타공인중개사사무소,,L1,부동산,L102,부동산 서비스,L10203,부동산 중개/대리업,L68221,부동산 중개 및 대리업,31,울산광역시,31170,동구,31170510,방어동,3117010100,방어동,3.11701E+18,1,대지,1162,18,울산광역시 동구 방어동 1162-18,3.11703E+11,울산광역시 동구 화문로,15,null,3.11701E+24,,울산광역시 동구 화문로 15,682831,44093,,null,,129.4114461,35.48562216
MA010120220805432858,올,,I2,음식,I211,주점,I21101,일반 유흥 주점,I56211,일반 유흥 주점업,31,울산광역시,31140,남구,31140595,무거동,3114010100,무거동,3.11401E+18,1,대지,824,15,울산광역시 남구 무거동 824-15,3.11403E+11,울산광역시 남구 신복로,12,null,3.11401E+24,,울산광역시 남구 신복로 12,680809,44606,,2,,129.2609826,35.5477669
MA010120220805432994,중앙현대약국,,G2,소매,G215,의약·화장품 소매,G21501,약국,G47811,의약품 및 의료용품 소매업,31,울산광역시,31140,남구,31140520,신정2동,3114010400,신정동,3.11401E+18,1,대지,1127,25,울산광역시 남구 신정동 1127-25,3.11403E+11,울산광역시 남구 문수로,476,null,3.11401E+24,,울산광역시 남구 문수로 476,680832,44667,,1,,129.3054312,35.53235915
MA010120220805435760,트루노스,,G2,소매,G209,섬유·의복·신발 소매,G20902,여성 의류 소매업,G47412,여자용 겉옷 소매업,31,울산광역시,31140,남구,31140570,삼산동,3114010600,삼산동,3.11401E+18,1,대지,1480,4,울산광역시 남구 삼산동 1480-4,3.11403E+11,울산광역시 남구 삼산로,288,null,3.11401E+24,"롯데백화점,울산고속버스터미널",울산광역시 남구 삼산로 288,680815,44719,,1,,129.3387628,35.53894282
MA010120220805434821,티원텔레콤,,G2,소매,G208,가전·통신 소매,G20802,핸드폰 소매업,G47312,통신기기 소매업,31,울산광역시,31140,남구,31140625,대현동,3114010800,야음동,3.11401E+18,1,대지,627,6,울산광역시 남구 야음동 627-6,3.11404E+11,울산광역시 남구 수암로189번길,16,4,3.11401E+24,,울산광역시 남구 수암로189번길 16-4,680838,44735,,null,,129.3278113,35.52814905
MA010120220805434877,제트스타커피,,I2,음식,I212,비알코올 ,I21201,카페,I56221,커피 전문점,31,울산광역시,31200,북구,31200520,농소2동,3120010300,매곡동,3.12001E+18,1,대지,842,null,울산광역시 북구 매곡동 842,3.12003E+11,울산광역시 북구 신천로,92,null,3.12001E+24,매곡푸르지오1단지,울산광역시 북구 신천로 92,683778,44219,,2,,129.3535872,35.64601369
MA010120220805434955,원여사&커피,,I2,음식,I212,비알코올 ,I21201,카페,I56111,한식 일반 음식점업,31,울산광역시,31710,울주군,31710256,온양읍,3171025629,온양읍,3.17103E+18,1,대지,1282,4,울산광역시 울주군 온양읍 운화리 1282-4,3.17104E+11,울산광역시 울주군 온양읍 대운상대길,181,null,3.17103E+24,,울산광역시 울주군 온양읍 대운상대길 181,689905,44972,,1,,129.2471615,35.39635251
MA010120220805434588,싱싱수산2,,I2,음식,I201,한식,I20111,횟집,I56114,한식 해산물 요리 전문점,31,울산광역시,31140,남구,31140595,무거동,3114010100,무거동,3.11401E+18,1,대지,1546,5,울산광역시 남구 무거동 1546-5,3.11404E+11,울산광역시 남구 신복로46번길,33,null,3.11401E+24,현대시장형상가,울산광역시 남구 신복로46번길 33,680812,44603,,null,,129.257937,35.55189069
MA010120220805438387,선우모터스,,S2,수리·개인,S203,자동차 수리·세차,S20301,자동차 정비소,S95212,자동차 전문 수리업,31,울산광역시,31710,울주군,31710360,두동면,3171036026,두동면,3.17104E+18,1,대지,466,1,울산광역시 울주군 두동면 봉계리 466-1,3.17103E+11,울산광역시 울주군 두동면 계명로,140,null,3.17104E+24,,울산광역시 울주군 두동면 계명로 140,689843,44914,,null,,129.2020806,35.71670598
MA010120220805438076,거루산업,,S2,수리·개인,S207,이용·미용,S20701,미용실,S96112,두발 미용업,31,울산광역시,31140,남구,31140560,달동,3114010500,달동,3.11401E+18,1,대지,1375,3,울산광역시 남구 달동 1375-3,3.11404E+11,울산광역시 남구 도산로101번길,6,null,3.11401E+24,,울산광역시 남구 도산로101번길 6,680803,44728,,1,,129.325765,35.53176779
MA010120220805438244,카톡부동산공인중개사사무소,,L1,부동산,L102,부동산 서비스,L10203,부동산 중개/대리업,L68221,부동산 중개 및 대리업,31,울산광역시,31110,중구,31110600,태화동,3111011100,태화동,3.11101E+18,1,대지,449,6,울산광역시 중구 태화동 449-6,3.11103E+11,울산광역시 중구 태화로,184,null,3.11101E+24,,울산광역시 중구 태화로 184,681819,44457,,null,,129.2957141,35.55205846
MA010120220805440026,티아라악세사리,,G2,소매,G209,섬유·의복·신발 소매,G20907,액세서리/잡화 소매업,G47422,의복 액세서리 및 모조 장신구 소매업,31,울산광역시,31110,중구,31110585,중앙동,3111010600,성남동,3.11101E+18,1,대지,243,3,울산광역시 중구 성남동 243-3,3.11104E+11,울산광역시 중구 먹자거리,21,null,3.11101E+24,,울산광역시 중구 먹자거리 21,681812,44532,,null,,129.3206402,35.55478035
MA010120220805439253,콜노래연습장,,R1,예술·스포츠,R104,유원지·오락,R10407,노래방,R91223,노래 연습장 운영업,31,울산광역시,31140,남구,31140570,삼산동,3114010600,삼산동,3.11401E+18,1,대지,227,10,울산광역시 남구 삼산동 227-10,3.11403E+11,울산광역시 남구 정동로,76,1,3.11401E+24,,울산광역시 남구 정동로 76-1,680813,44712,,3,,129.3444262,35.54065538
MA010120220805438574,롯데리아정자,,I2,음식,I210,기타 간이,I21004,버거,I56192,"피자, 햄버거, 샌드위치 및 유사 음식점업",31,울산광역시,31200,북구,31200540,강동동,3120011800,산하동,3.12001E+18,1,대지,286,4,울산광역시 북구 산하동 286-4,3.12003E+11,울산광역시 북구 동해안로,1656,null,3.12001E+24,,울산광역시 북구 동해안로 1656,683260,44264,,2,,129.4404787,35.63207237
MA010120220805439432,포근디아트,,P1,교육,P106,기타 교육,P10613,기타 예술/스포츠 교육기관,P85629,기타 예술학원,31,울산광역시,31140,남구,31140595,무거동,3114010100,무거동,3.11401E+18,1,대지,564,2,울산광역시 남구 무거동 564-2,3.11404E+11,울산광역시 남구 대학로33번길,30,24,3.11401E+24,,울산광역시 남구 대학로33번길 30-24,680808,44617,,1,,129.2543945,35.54112983
MA010120220805439081,삼첩분식,,I2,음식,I210,기타 간이,I21007,김밥/만두/분식,I56194,김밥 및 기타 간이 음식점업,31,울산광역시,31710,울주군,31710250,온산읍,3171025032,온산읍,3.17103E+18,1,대지,432,7,울산광역시 울주군 온산읍 덕신리 432-7,3.17104E+11,울산광역시 울주군 온산읍 신온8길,12,6,3.17103E+24,,울산광역시 울주군 온산읍 신온8길 12-6,689893,45006,,1,,129.3108849,35.4296218
MA010120220805441950,오후,,G2,소매,G209,섬유·의복·신발 소매,G20905,기타 의류 소매업,G47419,기타 의복 소매업,31,울산광역시,31110,중구,31110585,중앙동,3111010600,성남동,3.11101E+18,1,대지,249,1,울산광역시 중구 성남동 249-1,3.11104E+11,울산광역시 중구 시계탑거리,20,null,3.11101E+24,,울산광역시 중구 시계탑거리 20,681812,44532,,5,,129.3214289,35.55445625
MA010120220805442014,목낀때빼,,I2,음식,I201,한식,I20107,돼지고기 구이/찜,I56113,한식 육류 요리 전문점,31,울산광역시,31710,울주군,31710310,서생면,3171031028,서생면,3.17103E+18,1,대지,80,34,울산광역시 울주군 서생면 진하리 80-34,3.17104E+11,울산광역시 울주군 서생면 진하길,21,null,3.17103E+24,,울산광역시 울주군 서생면 진하길 21,689883,45013,,1,,129.3428599,35.38488017
MA010120220805441772,지지힐링센터,,S2,수리·개인,S208,욕탕·신체관리,S20801,목욕탕/사우나,S96121,욕탕업,31,울산광역시,31710,울주군,31710259,범서읍,3171025928,범서읍,3.17103E+18,1,대지,225,1,울산광역시 울주군 범서읍 중리 225-1,3.17103E+11,울산광역시 울주군 범서읍 두동로,704,null,3.17103E+24,범서온천지지워터피아,울산광역시 울주군 범서읍 두동로 704,689851,44918,,4,,129.221979,35.62574453
MA010120220805440741,비룡,,I2,음식,I202,중식,I20201,중국집,I56121,중식 음식점업,31,울산광역시,31710,울주군,31710256,온양읍,3171025629,온양읍,3.17103E+18,1,대지,156,1,울산광역시 울주군 온양읍 운화리 156-1,3.17103E+11,울산광역시 울주군 온양읍 남창로,431,null,3.17103E+24,,울산광역시 울주군 온양읍 남창로 431,689905,44973,,1,,129.2753384,35.41712247
MA010120220805440747,버거스캔들,,I2,음식,I210,기타 간이,I21004,버거,I56192,"피자, 햄버거, 샌드위치 및 유사 음식점업",31,울산광역시,31200,북구,31200570,송정동,3120012500,화봉동,3.12001E+18,1,대지,1489,1,울산광역시 북구 화봉동 1489-1,3.12005E+11,울산광역시 북구 화산4길,16,null,3.12001E+24,,울산광역시 북구 화산4길 16,683410,44236,,1,,129.3663112,35.59692086
MA010120220805440960,동명꽃아트,,G2,소매,G219,식물 소매,G21901,꽃집,G47851,화초 및 식물 소매업,31,울산광역시,31110,중구,31110585,중앙동,3111010200,학산동,3.11101E+18,1,대지,47,9,울산광역시 중구 학산동 47-9,3.11104E+11,울산광역시 중구 구역전1길,26,null,3.11101E+24,,울산광역시 중구 구역전1길 26,681200,44520,,null,,129.3278423,35.55544932
MA010120220805443821,아로마음정원,,P1,교육,P106,기타 교육,P10629,그 외 기타 교육기관,P85699,그 외 기타 분류 안된 교육기관,31,울산광역시,31200,북구,31200530,농소3동,3120010900,달천동,3.12001E+18,1,대지,212,10,울산광역시 북구 달천동 212-10,3.12004E+11,울산광역시 북구 농공단지1길,32,8,3.12001E+24,북구청년창업지원센터,울산광역시 북구 농공단지1길 32-8,683470,44201,,2,,129.3159342,35.63387595
MA010120220805443602,세븐일레븐울산진하점,,G2,소매,G204,종합 소매,G20405,편의점,G47122,체인화 편의점,31,울산광역시,31710,울주군,31710310,서생면,3171031028,서생면,3.17103E+18,1,대지,84,6,울산광역시 울주군 서생면 진하리 84-6,3.17104E+11,울산광역시 울주군 서생면 진하길,60,null,3.17103E+24,,울산광역시 울주군 서생면 진하길 60,689883,45013,,1,,129.3456242,35.38365966
MA010120220805442786,쿨펫동물병원,,M1,과학·기술,M111,수의,M11101,동물병원,M73100,수의업,31,울산광역시,31170,동구,31170520,일산동,3117010300,일산동,3.11701E+18,1,대지,577,1,울산광역시 동구 일산동 577-1,3.11702E+11,울산광역시 동구 방어진순환도로,637,null,3.11701E+24,홈플러스,울산광역시 동구 방어진순환도로 637,682811,44068,,3,,129.4274959,35.49898894
MA010120220805443168,미풍해장국,,I2,음식,I201,한식,I20102,국/탕/찌개류,I56112,한식 면 요리 전문점,31,울산광역시,31140,남구,31140570,삼산동,3114010500,달동,3.11401E+18,1,대지,1366,11,울산광역시 남구 달동 1366-11,3.11404E+11,울산광역시 남구 왕생로62번길,17,null,3.11401E+24,,울산광역시 남구 왕생로62번길 17,680805,44707,,1,,129.3338213,35.53952935
MA010120220805443235,신나는노래연습장,,R1,예술·스포츠,R104,유원지·오락,R10407,노래방,R91223,노래 연습장 운영업,31,울산광역시,31200,북구,31200510,농소1동,3120010200,호계동,3.12001E+18,1,대지,254,2,울산광역시 북구 호계동 254-2,3.12004E+11,울산광역시 북구 동대18길,15,null,3.12001E+24,,울산광역시 북구 동대18길 15,683812,44227,,null,,129.3524677,35.63068629
MA010120220805445926,메가마트현대차울산포터매점,,G2,소매,G204,종합 소매,G20404,슈퍼마켓,G47129,기타 음ㆍ식료품 위주 종합 소매업,31,울산광역시,31200,북구,31200590,염포동,3120012700,염포동,3.12001E+18,1,대지,265,1,울산광역시 북구 염포동 265-1,3.12003E+11,울산광역시 북구 염포로,700,null,3.12001E+24,현대자동차,울산광역시 북구 염포로 700,683806,44259,,1,,129.385671,35.53695281
MA010120220805446414,완성테크,,N1,시설관리·임대,N107,사무 지원,N10799,기타 사무 지원 서비스업,N75919,기타 사무 지원 서비스업,31,울산광역시,31200,북구,31200560,효문동,3120012300,효문동,3.12001E+18,1,대지,1025,null,울산광역시 북구 효문동 1025,3.12004E+11,울산광역시 북구 책골길,36,null,3.12001E+24,신영금속,울산광역시 북구 책골길 36,683360,44252,,null,,129.3687475,35.5721436
MA010120220805444833,쌍용바이크쌍용컴퍼니,,G2,소매,G203,모터사이클 소매,G20301,모터사이클 및 부품 소매업,G45302,모터사이클 및 부품 소매업,31,울산광역시,31140,남구,31140670,야음장생포동,3114010800,야음동,3.11401E+18,1,대지,455,21,울산광역시 남구 야음동 455-21,3.11403E+11,울산광역시 남구 수암로,247,null,3.11401E+24,,울산광역시 남구 수암로 247,680834,44761,,1,,129.3326789,35.52379612
MA010120220805445397,관보엔지니어링,,M1,과학·기술,M109,기술 서비스,M10999,기타 엔지니어링 서비스업,M72129,기타 엔지니어링 서비스업,31,울산광역시,31710,울주군,31710259,범서읍,3171025922,범서읍,3.17103E+18,1,대지,610,8,울산광역시 울주군 범서읍 천상리 610-8,3.17104E+11,울산광역시 울주군 범서읍 천상2길,6,3,3.17103E+24,,울산광역시 울주군 범서읍 천상2길 6-3,689855,44928,,2,,129.228502,35.5635598
MA010120220805448348,당월35번지,,I2,음식,I201,한식,I20101,백반/한정식,I56111,한식 일반 음식점업,31,울산광역시,31710,울주군,31710250,온산읍,3171025032,온산읍,3.17103E+18,1,대지,422,14,울산광역시 울주군 온산읍 덕신리 422-14,3.17104E+11,울산광역시 울주군 온산읍 용방소길,19,null,3.17103E+24,,울산광역시 울주군 온산읍 용방소길 19,689893,45006,,1,,129.3071932,35.42741752
MA010120220805447924,쭈쭈바,,G2,소매,G204,종합 소매,G20404,슈퍼마켓,G47216,"빵류, 과자류 및 당류 소매업",31,울산광역시,31140,남구,31140600,옥동,3114010200,옥동,3.11401E+18,1,대지,126,6,울산광역시 남구 옥동 126-6,3.11404E+11,울산광역시 남구 대공원로99번길,13,1,3.11401E+24,,울산광역시 남구 대공원로99번길 13-1,680843,44664,,null,,129.2955751,35.53176241
MA010120220805447428,미광상회,,G2,소매,G209,섬유·의복·신발 소매,G20907,액세서리/잡화 소매업,G47422,의복 액세서리 및 모조 장신구 소매업,31,울산광역시,31110,중구,31110585,중앙동,3111010500,옥교동,3.11101E+18,1,대지,97,18,울산광역시 중구 옥교동 97-18,3.11104E+11,울산광역시 중구 중앙시장1길,25,null,3.11101E+24,,울산광역시 중구 중앙시장1길 25,681190,44531,,null,,129.3229422,35.55459287
MA010120220805447070,바디워크79,,R1,예술·스포츠,R103,스포츠 서비스,R10307,헬스장,R91132,체력 단련시설 운영업,31,울산광역시,31200,북구,31200540,강동동,3120011800,산하동,3.12001E+18,1,대지,1016,23,울산광역시 북구 산하동 1016-23,3.12003E+11,울산광역시 북구 산하중앙2로,183,null,3.12001E+24,,울산광역시 북구 산하중앙2로 183,683260,44264,,5,,129.4378223,35.62675951
MA010120220805450334,스타,,I2,음식,I211,주점,I21101,일반 유흥 주점,I56211,일반 유흥 주점업,31,울산광역시,31140,남구,31140570,삼산동,3114010500,달동,3.11401E+18,1,대지,1359,13,울산광역시 남구 달동 1359-13,3.11404E+11,울산광역시 남구 번영로144번길,4,null,3.11401E+24,,울산광역시 남구 번영로144번길 4,680805,44703,,2,,129.3292695,35.53834482
MA010120220805449829,택배,,M1,과학·기술,M105,광고,M10501,광고 대행업,M71310,광고 대행업,31,울산광역시,31140,남구,31140510,신정1동,3114010400,신정동,3.11401E+18,1,대지,1323,66,울산광역시 남구 신정동 1323-66,3.11404E+11,울산광역시 남구 거마로117번길,37,null,3.11401E+24,,울산광역시 남구 거마로117번길 37,680825,44625,,null,,129.3053357,35.54279737
MA010120220805449108,마인뷰티,,S2,수리·개인,S207,이용·미용,S20702,피부 관리실,S96113,피부 미용업,31,울산광역시,31140,남구,31140560,달동,3114010500,달동,3.11401E+18,1,대지,575,28,울산광역시 남구 달동 575-28,3.11404E+11,울산광역시 남구 번영로163번길,24,1,3.11401E+24,,울산광역시 남구 번영로163번길 24-1,680801,44695,,1,,129.3236924,35.53917228
MA010120220805449062,캠토토스트,,I2,음식,I210,기타 간이,I21005,토스트/샌드위치/샐러드,I56192,"피자, 햄버거, 샌드위치 및 유사 음식점업",31,울산광역시,31200,북구,31200510,농소1동,3120010200,호계동,3.12001E+18,1,대지,749,5,울산광역시 북구 호계동 749-5,3.12003E+11,울산광역시 북구 호계로,244,2,3.12001E+24,,울산광역시 북구 호계로 244-2,683813,44225,,1,,129.3533736,35.62548468
MA010120220805451560,용철이떡갈비,,I2,음식,I201,한식,I20107,돼지고기 구이/찜,I56113,한식 육류 요리 전문점,31,울산광역시,31170,동구,31170560,전하2동,3117010400,전하동,3.11701E+18,1,대지,661,1,울산광역시 동구 전하동 661-1,3.11704E+11,울산광역시 동구 진성14길,77,null,3.11701E+24,,울산광역시 동구 진성14길 77,682818,44046,,1,,129.4254438,35.50885541
MA010120220805451411,덕수궁식육점,,G2,소매,G205,식료품 소매,G20503,정육점,G47212,육류 소매업,31,울산광역시,31170,동구,31170520,일산동,3117010300,일산동,3.11701E+18,1,대지,957,4,울산광역시 동구 일산동 957-4,3.11704E+11,울산광역시 동구 해수욕장3길,16,null,3.11701E+24,,울산광역시 동구 해수욕장3길 16,682810,44057,,null,,129.4292745,35.49548886
MA010120220805450634,수아분식,,I2,음식,I210,기타 간이,I21007,김밥/만두/분식,I56194,김밥 및 기타 간이 음식점업,31,울산광역시,31140,남구,31140510,신정1동,3114010400,신정동,3.11401E+18,1,대지,1611,9,울산광역시 남구 신정동 1611-9,3.11404E+11,울산광역시 남구 거마로104번길,14,null,3.11401E+24,,울산광역시 남구 거마로104번길 14,680011,44650,,null,,129.3015514,35.5392781
MA010120220805454388,롯데울산네셔널지오그래픽키즈,,G2,소매,G209,섬유·의복·신발 소매,G20905,기타 의류 소매업,G47419,기타 의복 소매업,31,울산광역시,31140,남구,31140570,삼산동,3114010600,삼산동,3.11401E+18,1,대지,1480,1,울산광역시 남구 삼산동 1480-1,3.11403E+11,울산광역시 남구 삼산로,288,null,3.11401E+24,"롯데백화점,울산고속버스터미널",울산광역시 남구 삼산로 288,680746,44719,,7,,129.3387628,35.53894282
MA010120220805453999,스몰가든,,P1,교육,P106,기타 교육,P10625,기타 기술/직업 훈련학원,P85669,기타 기술 및 직업 훈련학원,31,울산광역시,31710,울주군,31710265,삼남읍,3171026525,삼남읍,3.17103E+18,1,대지,304,2,울산광역시 울주군 삼남읍 가천리 304-2,3.17103E+11,울산광역시 울주군 삼남읍 자수정로,135,null,3.17104E+24,,울산광역시 울주군 삼남읍 자수정로 135,689811,44953,,null,,129.0960008,35.53847327
MA010120220805453954,정다운노래연습장,,R1,예술·스포츠,R104,유원지·오락,R10407,노래방,R91223,노래 연습장 운영업,31,울산광역시,31110,중구,31110610,다운동,3111011200,다운동,3.11101E+18,1,대지,549,11,울산광역시 중구 다운동 549-11,3.11103E+11,울산광역시 중구 다운로,33,null,3.11101E+24,,울산광역시 중구 다운로 33,681803,44407,,null,,129.272864,35.55777282
MA010120220805453292,르블랙,,G2,소매,G209,섬유·의복·신발 소매,G20902,여성 의류 소매업,G47412,여자용 겉옷 소매업,31,울산광역시,31110,중구,31110600,태화동,3111011000,유곡동,3.11101E+18,1,대지,89,26,울산광역시 중구 유곡동 89-26,3.11104E+11,울산광역시 중구 평동1길,42,null,3.11101E+24,,울산광역시 중구 평동1길 42,681818,44466,,1,,129.3050182,35.55927673
MA010120220805453300,오아시스힐링체어,,R1,예술·스포츠,R103,스포츠 서비스,R10314,기타 스포츠시설 운영업,R91139,그 외 기타 스포츠시설 운영업,31,울산광역시,31200,북구,31200580,양정동,3120012400,양정동,3.12001E+18,1,대지,734,8,울산광역시 북구 양정동 734-8,3.12003E+11,울산광역시 북구 염포로,583,null,3.12001E+24,,울산광역시 북구 염포로 583,683380,44260,,1,,129.3867552,35.53972536
MA010120220805452752,소담칼국수,,I2,음식,I201,한식,I20105,국수/칼국수,I56112,한식 면 요리 전문점,31,울산광역시,31200,북구,31200530,농소3동,3120010700,상안동,3.12001E+18,1,대지,357,2,울산광역시 북구 상안동 357-2,3.12003E+11,울산광역시 북구 신답로,40,null,3.12001E+24,지팝프라자,울산광역시 북구 신답로 40,683480,44209,,1,,129.3436556,35.62922568
MA010120220805453390,엘림하우스,,R1,예술·스포츠,R102,도서관·사적지,R10202,독서실/스터디 카페,R90212,독서실 운영업,31,울산광역시,31140,남구,31140595,무거동,3114010100,무거동,3.11401E+18,1,대지,850,2,울산광역시 남구 무거동 850-2,3.11404E+11,울산광역시 남구 신복로17번길,18,null,3.11401E+24,,울산광역시 남구 신복로17번길 18,680809,44607,,null,,129.2593107,35.54663971
MA010120220805456231,블루골드,,M1,과학·기술,M109,기술 서비스,M10904,환경 관련 엔지니어링 서비스업,M72122,환경 관련 엔지니어링 서비스업,31,울산광역시,31140,남구,31140640,선암동,3114010900,선암동,3.11401E+18,1,대지,584,3,울산광역시 남구 선암동 584-3,3.11404E+11,울산광역시 남구 두왕로64번길,5,5,3.11401E+24,,울산광역시 남구 두왕로64번길 5-5,680819,44774,,3,,129.3091576,35.50924515
MA010120220805456090,녹채원성광여자고등학교점,,I2,음식,I207,구내식당·뷔페,I20701,구내식당,I56130,기관 구내식당업,31,울산광역시,31140,남구,31140600,옥동,3114010200,옥동,3.11401E+18,1,대지,907,1,울산광역시 남구 옥동 907-1,3.11403E+11,울산광역시 남구 남부순환도로,97,null,3.11401E+24,성광여자고등학교,울산광역시 남구 남부순환도로 97,680845,44642,,null,,129.265862,35.54316414
MA010120220805454597,지에스25남창,,G2,소매,G204,종합 소매,G20405,편의점,G47122,체인화 편의점,31,울산광역시,31710,울주군,31710256,온양읍,3171025629,온양읍,3.17103E+18,1,대지,49,10,울산광역시 울주군 온양읍 운화리 49-10,3.17103E+11,울산광역시 울주군 온양읍 남창강변로,60,1,3.17103E+24,,울산광역시 울주군 온양읍 남창강변로 60-1,689905,44973,,1,,129.2823328,35.41450665
MA010120220805454798,메가엠지씨커피홈플러스,,I2,음식,I212,비알코올 ,I21201,카페,I56221,커피 전문점,31,울산광역시,31110,중구,31110550,복산2동,3111010300,복산동,3.11101E+18,1,대지,100,null,울산광역시 중구 복산동 100,3.11103E+11,울산광역시 중구 번영로,475,null,3.11101E+24,홈플러스울산점,울산광역시 중구 번영로 475,681809,44478,,1,,129.3348731,35.56440275
MA010120220805455264,미림다방,,I2,음식,I212,비알코올 ,I21201,카페,I56229,기타 비알코올 음료점업,31,울산광역시,31170,동구,31170510,방어동,3117010100,방어동,3.11701E+18,1,대지,921,10,울산광역시 동구 방어동 921-10,3.11704E+11,울산광역시 동구 화진길,20,null,3.11701E+24,,울산광역시 동구 화진길 20,682805,44089,,1,,129.4218315,35.48902433
MA010120220805454891,채람헤어,,S2,수리·개인,S207,이용·미용,S20701,미용실,S96112,두발 미용업,31,울산광역시,31110,중구,31110585,중앙동,3111010200,학산동,3.11101E+18,1,대지,5,25,울산광역시 중구 학산동 5-25,3.11104E+11,울산광역시 중구 옥교8길,27,null,3.11101E+24,,울산광역시 중구 옥교8길 27,681200,44522,,1,,129.3302061,35.55365671
MA010120220805454897,울산유익사,,G2,소매,G215,의약·화장품 소매,G21502,의료기기 소매업,G47812,의료용 기구 소매업,31,울산광역시,31140,남구,31140530,신정3동,3114010400,신정동,3.11401E+18,1,대지,239,2,울산광역시 남구 신정동 239-2,3.11403E+11,울산광역시 남구 신정로,149,null,3.11401E+24,,울산광역시 남구 신정로 149,680823,44684,,2,,129.3181614,35.54484802
MA010120220805457620,순발슈퍼,,G2,소매,G204,종합 소매,G20404,슈퍼마켓,G47129,기타 음ㆍ식료품 위주 종합 소매업,31,울산광역시,31140,남구,31140670,야음장생포동,3114010800,야음동,3.11401E+18,1,대지,373,10,울산광역시 남구 야음동 373-10,3.11404E+11,울산광역시 남구 신선로184번길,37,null,3.11401E+24,,울산광역시 남구 신선로184번길 37,680835,44765,,1,,129.3361577,35.52082837
MA010120220805458146,천곡한우마을,,I2,음식,I201,한식,I20108,소고기 구이/찜,I56113,한식 육류 요리 전문점,31,울산광역시,31200,북구,31200530,농소3동,3120010800,천곡동,3.12001E+18,1,대지,942,null,울산광역시 북구 천곡동 942,3.12004E+11,울산광역시 북구 달래골길,37,null,3.12001E+24,,울산광역시 북구 달래골길 37,683500,44200,,1,,129.3247669,35.639259
MA010120220805458167,비에이치씨우정점,,I2,음식,I210,기타 간이,I21006,치킨,I56193,치킨 전문점,31,울산광역시,31110,중구,31110600,태화동,3111011000,유곡동,3.11101E+18,1,대지,122,6,울산광역시 중구 유곡동 122-6,3.11103E+11,울산광역시 중구 유곡로,44,null,3.11101E+24,,울산광역시 중구 유곡로 44,681818,44466,,1,,129.304791,35.55682763
MA010120220805457386,오땡큐염색방,,S2,수리·개인,S207,이용·미용,S20701,미용실,S96112,두발 미용업,31,울산광역시,31140,남구,31140530,신정3동,3114010400,신정동,3.11401E+18,1,대지,504,14,울산광역시 남구 신정동 504-14,3.11404E+11,울산광역시 남구 월평로81번길,12,null,3.11401E+24,,울산광역시 남구 월평로81번길 12,680824,44683,,1,,129.3139962,35.54370376
MA010120220805457014,씨앤엠패션아카데미학원,,P1,교육,P106,기타 교육,P10625,기타 기술/직업 훈련학원,P85669,기타 기술 및 직업 훈련학원,31,울산광역시,31140,남구,31140520,신정2동,3114010400,신정동,3.11401E+18,1,대지,663,7,울산광역시 남구 신정동 663-7,3.11403E+11,울산광역시 남구 삼산로,37,null,3.11401E+24,,울산광역시 남구 삼산로 37,680828,44676,,4,,129.3117704,35.53366036
MA010120220805459684,마라향원화봉점,,I2,음식,I202,중식,I20201,중국집,I56121,중식 음식점업,31,울산광역시,31200,북구,31200570,송정동,3120012500,화봉동,3.12001E+18,1,대지,1466,null,울산광역시 북구 화봉동 1466,3.12003E+11,울산광역시 북구 화산중앙로,94,5,3.12001E+24,,울산광역시 북구 화산중앙로 94-5,683410,44240,,1,,129.3663207,35.59358595
MA010120220805460326,해피돈피,,I2,음식,I201,한식,I20107,돼지고기 구이/찜,I56113,한식 육류 요리 전문점,31,울산광역시,31710,울주군,31710265,삼남읍,3171026521,삼남읍,3.17103E+18,1,대지,1576,10,울산광역시 울주군 삼남읍 교동리 1576-10,3.17104E+11,울산광역시 울주군 삼남읍 남상평2길,34,6,3.17104E+24,,울산광역시 울주군 삼남읍 남상평2길 34-6,689812,44948,,null,,129.117496,35.56013324
MA010120220805460232,뼈누리감자탕,,I2,음식,I201,한식,I20102,국/탕/찌개류,I56111,한식 일반 음식점업,31,울산광역시,31140,남구,31140530,신정3동,3114010400,신정동,3.11401E+18,1,대지,305,5,울산광역시 남구 신정동 305-5,3.11403E+11,울산광역시 남구 팔등로,82,null,3.11401E+24,,울산광역시 남구 팔등로 82,680823,44684,,1,,129.3153221,35.54588849
MA010120220805458646,정자포장회센타,,I2,음식,I201,한식,I20111,횟집,I56114,한식 해산물 요리 전문점,31,울산광역시,31110,중구,31110520,반구1동,3111011800,반구동,3.11101E+18,1,대지,708,1,울산광역시 중구 반구동 708-1,3.11104E+11,울산광역시 중구 반구정12길,41,null,3.11101E+24,,울산광역시 중구 반구정12길 41,681807,44502,,null,,129.3457134,35.55697266
MA010120220805458711,노쥬,,S2,수리·개인,S207,이용·미용,S20701,미용실,S96112,두발 미용업,31,울산광역시,31140,남구,31140560,달동,3114010500,달동,3.11401E+18,1,대지,588,28,울산광역시 남구 달동 588-28,3.11404E+11,울산광역시 남구 삼산로181번길,5,null,3.11401E+24,,울산광역시 남구 삼산로181번길 5,680801,44695,,null,,129.3266827,35.53794969
MA010120220805458966,소앤소,,I2,음식,I201,한식,I20107,돼지고기 구이/찜,I56113,한식 육류 요리 전문점,31,울산광역시,31710,울주군,31710253,언양읍,3171025331,언양읍,3.17103E+18,1,대지,231,12,울산광역시 울주군 언양읍 서부리 231-12,3.17104E+11,울산광역시 울주군 언양읍 웃방천4길,7,3,3.17103E+24,,울산광역시 울주군 언양읍 웃방천4길 7-3,689806,44944,,1,,129.109775,35.56815427
MA010120220805459183,더봄헤어,,S2,수리·개인,S207,이용·미용,S20701,미용실,S96112,두발 미용업,31,울산광역시,31140,남구,31140585,삼호동,3114010100,무거동,3.11401E+18,1,대지,1447,5,울산광역시 남구 무거동 1447-5,3.11404E+11,울산광역시 남구 삼호로37번길,4,14,3.11401E+24,,울산광역시 남구 삼호로37번길 4-14,680810,44635,,null,,129.2691339,35.54994368
MA010120220805459061,천상열쇠,,G2,소매,G210,철물·건설자재 소매,G21001,철물/공구 소매업,G47511,철물 및 난방용구 소매업,31,울산광역시,31710,울주군,31710259,범서읍,3171025922,범서읍,3.17103E+18,1,대지,606,7,울산광역시 울주군 범서읍 천상리 606-7,3.17104E+11,울산광역시 울주군 범서읍 천상4길,12,null,3.17103E+24,,울산광역시 울주군 범서읍 천상4길 12,689855,44928,,null,,129.2260773,35.56297159
MA010120220805462400,농소금강산약국,,G2,소매,G215,의약·화장품 소매,G21501,약국,G47811,의약품 및 의료용품 소매업,31,울산광역시,31200,북구,31200510,농소1동,3120010500,신천동,3.12001E+18,1,대지,336,1,울산광역시 북구 신천동 336-1,3.12003E+11,울산광역시 북구 호계로,322,null,3.12001E+24,농소금강산약국,울산광역시 북구 호계로 322,683802,44224,,null,,129.3510084,35.63187435
MA010120220805461826,에이아이데아,,P1,교육,P106,기타 교육,P10627,컴퓨터 학원,P85691,컴퓨터 학원,31,울산광역시,31710,울주군,31710310,서생면,3171031030,서생면,3.17103E+18,1,대지,688,11,울산광역시 울주군 서생면 위양리 688-11,3.17104E+11,울산광역시 울주군 서생면 석재길,18,null,3.17103E+24,,울산광역시 울주군 서생면 석재길 18,689881,45012,,null,,129.2986395,35.36648064
MA010120220805461584,온센울산,,I2,음식,I203,일식,I20301,일식 회/초밥,I56122,일식 음식점업,31,울산광역시,31140,남구,31140570,삼산동,3114010600,삼산동,3.11401E+18,1,대지,1571,7,울산광역시 남구 삼산동 1571-7,3.11404E+11,울산광역시 남구 돋질로302번길,33,null,3.11401E+24,,울산광역시 남구 돋질로302번길 33,680816,44705,,1,,129.3376637,35.5411542
MA010120220805462287,티나,,G2,소매,G209,섬유·의복·신발 소매,G20910,신발 소매업,G47430,신발 소매업,31,울산광역시,31170,동구,31170540,대송동,3117010200,화정동,3.11701E+18,1,대지,173,2,울산광역시 동구 화정동 173-2,3.11704E+11,울산광역시 동구 대송1길,30,null,3.11701E+24,,울산광역시 동구 대송1길 30,682820,44070,,null,,129.419924,35.49961007
MA010120220805461987,꿉었닭,,I2,음식,I210,기타 간이,I21006,치킨,I56193,치킨 전문점,31,울산광역시,31710,울주군,31710380,상북면,3171038030,상북면,3.17104E+18,1,대지,1233,22,울산광역시 울주군 상북면 궁근정리 1233-22,3.17104E+11,울산광역시 울주군 상북면 양등농공길,121,null,3.17104E+24,,울산광역시 울주군 상북면 양등농공길 121,689822,44901,,null,,129.0743735,35.61099062
MA010120220805462272,설빙울산대점,,I2,음식,I210,기타 간이,I21008,아이스크림/빙수,I56194,김밥 및 기타 간이 음식점업,31,울산광역시,31140,남구,31140595,무거동,3114010100,무거동,3.11401E+18,1,대지,630,18,울산광역시 남구 무거동 630-18,3.11404E+11,울산광역시 남구 대학로94번길,11,null,3.11401E+24,,울산광역시 남구 대학로94번길 11,680808,44611,,2,,129.2613275,35.54303139
MA010120220805460843,맘스터치,,I2,음식,I210,기타 간이,I21004,버거,I56192,"피자, 햄버거, 샌드위치 및 유사 음식점업",31,울산광역시,31110,중구,31110650,성안동,3111010900,성안동,3.11101E+18,1,대지,400,3,울산광역시 중구 성안동 400-3,3.11103E+11,울산광역시 중구 성안로,184,null,3.11101E+24,,울산광역시 중구 성안로 184,681300,44421,,1,,129.3175676,35.57662556
MA010120220805460852,착한밥도둑,,I2,음식,I201,한식,I20101,백반/한정식,I56111,한식 일반 음식점업,31,울산광역시,31140,남구,31140550,신정5동,3114010400,신정동,3.11401E+18,1,대지,35,40,울산광역시 남구 신정동 35-40,3.11404E+11,울산광역시 남구 월평로171번길,6,null,3.11401E+24,,울산광역시 남구 월평로171번길 6,680821,44686,,null,,129.3237116,35.54570655
MA010120220805461243,변호사송찬흡법률사무소,,M1,과학·기술,M103,법무관련 ,M10301,변호사,M71101,변호사업,31,울산광역시,31140,남구,31140600,옥동,3114010200,옥동,3.11401E+18,1,대지,289,16,울산광역시 남구 옥동 289-16,3.11403E+11,울산광역시 남구 문수로,307,null,3.11401E+24,,울산광역시 남구 문수로 307,680845,44645,,2,,129.2873699,35.53579804
MA010120220805460877,온새미로인테리어,,M1,과학·기술,M112,전문 디자인,M11201,인테리어 디자인업,F42412,"도배, 실내 장식 및 내장 목공사업",31,울산광역시,31140,남구,31140585,삼호동,3114010100,무거동,3.11401E+18,1,대지,1210,7,울산광역시 남구 무거동 1210-7,3.11404E+11,울산광역시 남구 삼호로107번길,6,18,3.11401E+24,,울산광역시 남구 삼호로107번길 6-18,680811,44636,,2,,129.2770892,35.54877811
MA010120220805461130,우리텔레콤,,G2,소매,G208,가전·통신 소매,G20802,핸드폰 소매업,G47312,통신기기 소매업,31,울산광역시,31200,북구,31200560,효문동,3120012000,명촌동,3.12001E+18,1,대지,854,2,울산광역시 북구 명촌동 854-2,3.12004E+11,울산광역시 북구 명촌10길,25,null,3.12001E+24,,울산광역시 북구 명촌10길 25,683360,44254,,null,,129.3576556,35.5522241
MA010120220805460949,근대흑백사진관그리다,,M1,과학·기술,M113,사진 촬영,M11301,사진촬영업,M73301,인물 사진 및 행사용 영상 촬영업,31,울산광역시,31140,남구,31140570,삼산동,3114010600,삼산동,3.11401E+18,1,대지,1480,1,울산광역시 남구 삼산동 1480-1,3.11403E+11,울산광역시 남구 삼산로,288,null,3.11401E+24,"롯데백화점,울산고속버스터미널",울산광역시 남구 삼산로 288,680746,44719,,1,,129.3387628,35.53894282
MA010120220805463955,자전거,,I2,음식,I211,주점,I21101,일반 유흥 주점,I56211,일반 유흥 주점업,31,울산광역시,31140,남구,31140570,삼산동,3114010600,삼산동,3.11401E+18,1,대지,226,6,울산광역시 남구 삼산동 226-6,3.11404E+11,울산광역시 남구 정동로76번길,5,null,3.11401E+24,,울산광역시 남구 정동로76번길 5,680813,44712,,1,,129.3454079,35.54067147
MA010120220805463643,아프로뷰티,,G2,소매,G215,의약·화장품 소매,G21503,화장품 소매업,G47813,"화장품, 비누 및 방향제 소매업",31,울산광역시,31140,남구,31140595,무거동,3114010100,무거동,3.11401E+18,1,대지,816,12,울산광역시 남구 무거동 816-12,3.11404E+11,울산광역시 남구 신복로46번길,29,33,3.11401E+24,,울산광역시 남구 신복로46번길 29-33,680809,44603,,1,,129.2562678,35.55164671
MA010120220805464349,존슨셀프세차장,,S2,수리·개인,S203,자동차 수리·세차,S20302,자동차 세차장,S95213,자동차 세차업,31,울산광역시,31200,북구,31200530,농소3동,3120010700,상안동,3.12001E+18,1,대지,407,1,울산광역시 북구 상안동 407-1,3.12004E+11,울산광역시 북구 상안턱골길,24,5,3.12001E+24,,울산광역시 북구 상안턱골길 24-5,683480,44209,,null,,129.3377702,35.62384736
MA010120220805463985,염통에꽂히다,,I2,음식,I210,기타 간이,I21007,김밥/만두/분식,I56194,김밥 및 기타 간이 음식점업,31,울산광역시,31110,중구,31110585,중앙동,3111010600,성남동,3.11101E+18,1,대지,92,5,울산광역시 중구 성남동 92-5,3.11104E+11,울산광역시 중구 새즈믄해거리,11,null,3.11101E+24,,울산광역시 중구 새즈믄해거리 11,681812,44529,,1,,129.320234,35.55556893
MA010120220805462696,썬더치킨성남,,I2,음식,I210,기타 간이,I21006,치킨,I56193,치킨 전문점,31,울산광역시,31110,중구,31110585,중앙동,3111010700,교동,3.11101E+18,1,대지,327,3,울산광역시 중구 교동 327-3,3.11104E+11,울산광역시 중구 한결5길,2,null,3.11101E+24,,울산광역시 중구 한결5길 2,681240,44468,,1,,129.3177703,35.55599246
MA010120220805463494,청량추어,,G2,소매,G205,식료품 소매,G20504,건어물/젓갈 소매업,G47213,건어물 및 젓갈류 소매업,31,울산광역시,31710,울주군,31710262,청량읍,3171026223,청량읍,3.17103E+18,1,대지,593,7,울산광역시 울주군 청량읍 상남리 593-7,3.17103E+11,울산광역시 울주군 청량읍 덕하로,250,null,3.17103E+24,,울산광역시 울주군 청량읍 덕하로 250,689863,44984,,null,,129.3056319,35.49300559
MA010120220805463390,수면옥,,I2,음식,I201,한식,I20106,냉면/밀면,I56112,한식 면 요리 전문점,31,울산광역시,31200,북구,31200570,송정동,3120012600,송정동,3.12001E+18,1,대지,1213,4,울산광역시 북구 송정동 1213-4,3.12005E+11,울산광역시 북구 송정14길,11,null,3.12001E+24,,울산광역시 북구 송정14길 11,683410,44236,,1,,129.3619544,35.6009539
MA010120220805465590,눈꽃대패방어점,,I2,음식,I201,한식,I20107,돼지고기 구이/찜,I56111,한식 일반 음식점업,31,울산광역시,31170,동구,31170510,방어동,3117010100,방어동,3.11701E+18,1,대지,385,1,울산광역시 동구 방어동 385-1,3.11704E+11,울산광역시 동구 내진길,78,7,3.11701E+24,,울산광역시 동구 내진길 78-7,682804,44110,,1,,129.4233311,35.48469842
MA010120220805466003,메가마트현대차울산와이2매점,,G2,소매,G204,종합 소매,G20404,슈퍼마켓,G47129,기타 음ㆍ식료품 위주 종합 소매업,31,울산광역시,31200,북구,31200590,염포동,3120012700,염포동,3.12001E+18,1,대지,265,1,울산광역시 북구 염포동 265-1,3.12003E+11,울산광역시 북구 염포로,700,null,3.12001E+24,현대자동차,울산광역시 북구 염포로 700,683806,44259,,1,,129.385671,35.53695281
MA010120220805465697,프로젝트엠,,G2,소매,G209,섬유·의복·신발 소매,G20901,남성 의류 소매업,G47411,남자용 겉옷 소매업,31,울산광역시,31170,동구,31170590,남목2동,3117010800,서부동,3.11701E+18,1,대지,105,null,울산광역시 동구 서부동 105,3.11702E+11,울산광역시 동구 방어진순환도로,899,null,3.11701E+24,현대백화점,울산광역시 동구 방어진순환도로 899,682713,44033,,3,,129.431348,35.52166505
MA010120220805465160,지에스25울산진하점,,G2,소매,G204,종합 소매,G20405,편의점,G47122,체인화 편의점,31,울산광역시,31710,울주군,31710310,서생면,3171031028,서생면,3.17103E+18,1,대지,77,7,울산광역시 울주군 서생면 진하리 77-7,3.17104E+11,울산광역시 울주군 서생면 진하길,59,null,3.17103E+24,,울산광역시 울주군 서생면 진하길 59,689883,45013,,1,,129.3456411,35.38401099
MA010120220805465217,한스헤어,,S2,수리·개인,S207,이용·미용,S20701,미용실,S96112,두발 미용업,31,울산광역시,31140,남구,31140530,신정3동,3114010400,신정동,3.11401E+18,1,대지,207,5,울산광역시 남구 신정동 207-5,3.11403E+11,울산광역시 남구 월평로,105,null,3.11401E+24,,울산광역시 남구 월평로 105,680823,44684,,1,,129.3168163,35.54351977
MA010120220805464852,비원파전,,I2,음식,I211,주점,I21104,요리 주점,I56219,기타 주점업,31,울산광역시,31110,중구,31110590,우정동,3111010800,우정동,3.11101E+18,1,대지,15,1,울산광역시 중구 우정동 15-1,3.11104E+11,울산광역시 중구 옹수골길,62,null,3.11101E+24,,울산광역시 중구 옹수골길 62,681814,44467,,1,,129.3161107,35.55635308
MA010120220805464699,더하노이풋앤바디울산수암점,,S2,수리·개인,S208,욕탕·신체관리,S20802,마사지/안마,S96129,체형 등 기타 신체 관리 서비스업,31,울산광역시,31140,남구,31140625,대현동,3114010800,야음동,3.11401E+18,1,대지,789,14,울산광역시 남구 야음동 789-14,3.11403E+11,울산광역시 남구 수암로,138,null,3.11401E+24,,울산광역시 남구 수암로 138,680842,44750,,7,,129.3219379,35.52700582
MA010120220805468207,흑룡노래주점,,I2,음식,I211,주점,I21101,일반 유흥 주점,I56211,일반 유흥 주점업,31,울산광역시,31140,남구,31140595,무거동,3114010100,무거동,3.11401E+18,1,대지,1531,15,울산광역시 남구 무거동 1531-15,3.11404E+11,울산광역시 남구 대학로147번길,25,null,3.11401E+24,,울산광역시 남구 대학로147번길 25,680812,44606,,2,,129.2608709,35.54978702
MA010120220805468298,부대마을부대찌개,,I2,음식,I201,한식,I20101,백반/한정식,I56111,한식 일반 음식점업,31,울산광역시,31200,북구,31200530,농소3동,3120010700,상안동,3.12001E+18,1,대지,367,7,울산광역시 북구 상안동 367-7,3.12003E+11,울산광역시 북구 아진로,78,null,3.12001E+24,,울산광역시 북구 아진로 78,683480,44208,,1,,129.340342,35.63044329
MA010120220805467588,정다원한우,,I2,음식,I201,한식,I20108,소고기 구이/찜,I56113,한식 육류 요리 전문점,31,울산광역시,31140,남구,31140570,삼산동,3114010500,달동,3.11401E+18,1,대지,1269,4,울산광역시 남구 달동 1269-4,3.11404E+11,울산광역시 남구 번영로124번길,16,null,3.11401E+24,,울산광역시 남구 번영로124번길 16,680804,44718,,1,,129.3303774,35.53665617
MA010120220805467992,서브마리너스쿠바다이빙,,P1,교육,P106,기타 교육,P10603,요가/필라테스 학원,P85612,기타 스포츠 교육기관,31,울산광역시,31140,남구,31140560,달동,3114010500,달동,3.11401E+18,1,대지,585,24,울산광역시 남구 달동 585-24,3.11404E+11,울산광역시 남구 신정로58번길,47,null,3.11401E+24,,울산광역시 남구 신정로58번길 47,680801,44695,,2,,129.3264593,35.53844787
MA010120220805468508,봉구스밥버거울산대점,,I2,음식,I210,기타 간이,I21007,김밥/만두/분식,I56194,김밥 및 기타 간이 음식점업,31,울산광역시,31140,남구,31140595,무거동,3114010100,무거동,3.11401E+18,1,대지,620,9,울산광역시 남구 무거동 620-9,3.11404E+11,울산광역시 남구 대학로76번길,5,null,3.11401E+24,,울산광역시 남구 대학로76번길 5,680808,44611,,1,,129.2596755,35.54175978
MA010120220805467123,매곡플라워미술학원,,P1,교육,P106,기타 교육,P10611,미술학원,P85622,미술학원,31,울산광역시,31200,북구,31200510,농소1동,3120010200,호계동,3.12001E+18,1,대지,1004,10,울산광역시 북구 호계동 1004-10,3.12003E+11,울산광역시 북구 호계매곡1로,54,null,3.12001E+24,수암빌딩,울산광역시 북구 호계매곡1로 54,683400,44225,,null,,129.36323,35.63515254
MA010120220805467339,울산대표과일,,G2,소매,G205,식료품 소매,G20506,채소/과일 소매업,G47215,"채소, 과실 및 뿌리작물 소매업",31,울산광역시,31110,중구,31110610,다운동,3111011200,다운동,3.11101E+18,1,대지,537,2,울산광역시 중구 다운동 537-2,3.11103E+11,울산광역시 중구 다운로,44,1,3.11101E+24,,울산광역시 중구 다운로 44-1,681803,44406,,1,,129.2722821,35.55863521
MA010120220805466694,밸류파이브,,M1,과학·기술,M109,기술 서비스,M10903,건물 및 토목 엔지니어링 서비스업,M72121,건물 및 토목 엔지니어링 서비스업,31,울산광역시,31140,남구,31140600,옥동,3114010300,두왕동,3.11401E+18,1,대지,774,2,울산광역시 남구 두왕동 774-2,3.11405E+11,울산광역시 남구 테크노산업로55번길,133,10,3.11401E+24,,울산광역시 남구 테크노산업로55번길 133-10,680845,44776,,2,,129.3063,35.5036429
MA010120220805467373,거성식육,,G2,소매,G205,식료품 소매,G20503,정육점,G47212,육류 소매업,31,울산광역시,31140,남구,31140585,삼호동,3114010100,무거동,3.11401E+18,1,대지,1188,3,울산광역시 남구 무거동 1188-3,3.11403E+11,울산광역시 남구 어은로,8,null,3.11401E+24,,울산광역시 남구 어은로 8,680811,44636,,null,,129.2734122,35.54988956
MA010120220805469692,돼지영농후계자,,I2,음식,I201,한식,I20107,돼지고기 구이/찜,I56113,한식 육류 요리 전문점,31,울산광역시,31200,북구,31200520,농소2동,3120010600,중산동,3.12001E+18,1,대지,1284,8,울산광역시 북구 중산동 1284-8,3.12004E+11,울산광역시 북구 중산3길,11,null,3.12001E+24,,울산광역시 북구 중산3길 11,683450,44213,,1,,129.3500467,35.65280409
MA010120220805470267,팔공왕소금구이,,I2,음식,I201,한식,I20107,돼지고기 구이/찜,I56113,한식 육류 요리 전문점,31,울산광역시,31140,남구,31140635,수암동,3114010800,야음동,3.11401E+18,1,대지,753,3,울산광역시 남구 야음동 753-3,3.11403E+11,울산광역시 남구 신선로,76,null,3.11401E+24,,울산광역시 남구 신선로 76,680841,44763,,1,,129.3209025,35.5216814
MA010120220805470415,씨에스타,,I2,음식,I212,비알코올 ,I21201,카페,I56221,커피 전문점,31,울산광역시,31710,울주군,31710262,청량읍,3171026228,청량읍,3.17103E+18,1,대지,1468,2,울산광역시 울주군 청량읍 율리 1468-2,3.17104E+11,울산광역시 울주군 청량읍 율리영해1길,53,null,3.17103E+24,,울산광역시 울주군 청량읍 율리영해1길 53,689861,44959,,1,,129.2391631,35.52879504
MA010120220805470359,교촌치킨,,I2,음식,I210,기타 간이,I21006,치킨,I56193,치킨 전문점,31,울산광역시,31170,동구,31170520,일산동,3117010300,일산동,3.11701E+18,1,대지,581,36,울산광역시 동구 일산동 581-36,3.11704E+11,울산광역시 동구 대학길,177,null,3.11701E+24,,울산광역시 동구 대학길 177,682811,44068,,null,,129.4270563,35.49719154
MA010120220805469919,해동검도,,P1,교육,P106,기타 교육,P10601,태권도/무술학원,P85611,태권도 및 무술 교육기관,31,울산광역시,31110,중구,31110630,병영2동,3111011600,장현동,3.11101E+18,1,대지,173,7,울산광역시 중구 장현동 173-7,3.11103E+11,울산광역시 중구 종가로,745,null,3.11101E+24,,울산광역시 중구 종가로 745,681420,44548,,3,,129.3434985,35.58814634
MA010120220805469749,도원노래주점,,I2,음식,I211,주점,I21104,요리 주점,I56219,기타 주점업,31,울산광역시,31140,남구,31140510,신정1동,3114010400,신정동,3.11401E+18,1,대지,632,11,울산광역시 남구 신정동 632-11,3.11403E+11,울산광역시 남구 월평로,43,1,3.11401E+24,,울산광역시 남구 월평로 43-1,680826,44671,,2,,129.3104915,35.54180408
MA010120220805469391,하삼동커피,,I2,음식,I212,비알코올 ,I21201,카페,I56221,커피 전문점,31,울산광역시,31110,중구,31110630,병영2동,3111011600,장현동,3.11101E+18,1,대지,173,13,울산광역시 중구 장현동 173-13,3.11103E+11,울산광역시 중구 종가로,731,null,3.11101E+24,,울산광역시 중구 종가로 731,681420,44548,,1,,129.3426855,35.58703779
MA010120220805469499,신명공인중개사사무소,,L1,부동산,L102,부동산 서비스,L10203,부동산 중개/대리업,L68221,부동산 중개 및 대리업,31,울산광역시,31140,남구,31140595,무거동,3114010100,무거동,3.11401E+18,1,대지,488,15,울산광역시 남구 무거동 488-15,3.11403E+11,울산광역시 남구 옥현로,32,null,3.11401E+24,,울산광역시 남구 옥현로 32,680808,44615,,1,,129.2596438,35.53973215
MA010120220805469507,19텔레콤,,G2,소매,G208,가전·통신 소매,G20802,핸드폰 소매업,G47312,통신기기 소매업,31,울산광역시,31140,남구,31140530,신정3동,3114010400,신정동,3.11401E+18,1,대지,490,21,울산광역시 남구 신정동 490-21,3.11403E+11,울산광역시 남구 팔등로,63,null,3.11401E+24,,울산광역시 남구 팔등로 63,680824,44679,,1,,129.313288,35.54558619
MA010120220805469469,바다모텔,,I1,숙박,I101,일반 숙박,I10102,여관/모텔,I55102,여관업,31,울산광역시,31710,울주군,31710310,서생면,3171031028,서생면,3.17103E+18,1,대지,84,16,울산광역시 울주군 서생면 진하리 84-16,3.17104E+11,울산광역시 울주군 서생면 진하길,54,5,3.17103E+24,,울산광역시 울주군 서생면 진하길 54-5,689883,45013,,null,,129.3450718,35.38353061
MA010120220805472254,아구광역시,,I2,음식,I201,한식,I20101,백반/한정식,I56111,한식 일반 음식점업,31,울산광역시,31110,중구,31110530,반구2동,3111011800,반구동,3.11101E+18,1,대지,230,8,울산광역시 중구 반구동 230-8,3.11104E+11,울산광역시 중구 구교10길,13,null,3.11101E+24,,울산광역시 중구 구교10길 13,681805,44514,,1,,129.3400299,35.56141631
MA010120220805472192,맘스터치,,I2,음식,I210,기타 간이,I21004,버거,I56192,"피자, 햄버거, 샌드위치 및 유사 음식점업",31,울산광역시,31140,남구,31140585,삼호동,3114010100,무거동,3.11401E+18,1,대지,296,1,울산광역시 남구 무거동 296-1,3.11404E+11,울산광역시 남구 굴화4길,27,null,3.11401E+24,,울산광역시 남구 굴화4길 27,680806,44629,,1,,129.2641657,35.55242041
MA010120220805471968,누아르,,G2,소매,G209,섬유·의복·신발 소매,G20905,기타 의류 소매업,G47414,셔츠 및 블라우스 소매업,31,울산광역시,31110,중구,31110585,중앙동,3111010600,성남동,3.11101E+18,1,대지,153,11,울산광역시 중구 성남동 153-11,3.11104E+11,울산광역시 중구 중앙길,108,1,3.11101E+24,,울산광역시 중구 중앙길 108-1,681812,44529,,null,,129.3195389,35.55555851
MA010120220805471588,꿈틀,,R1,예술·스포츠,R102,도서관·사적지,R10202,독서실/스터디 카페,R90212,독서실 운영업,31,울산광역시,31140,남구,31140530,신정3동,3114010400,신정동,3.11401E+18,1,대지,581,3,울산광역시 남구 신정동 581-3,3.11404E+11,울산광역시 남구 중앙로208번길,5,null,3.11401E+24,,울산광역시 남구 중앙로208번길 5,680822,44690,,1,,129.3133173,35.53994368
MA010120220805470694,케이디엔툴링,,G2,소매,G210,철물·건설자재 소매,G21001,철물/공구 소매업,G47512,공구 소매업,31,울산광역시,31140,남구,31140560,달동,3114010500,달동,3.11401E+18,1,대지,635,4,울산광역시 남구 달동 635-4,3.11403E+11,울산광역시 남구 돋질로,126,null,3.11401E+24,,울산광역시 남구 돋질로 126,680802,44692,,2,,129.3194101,35.53961579
MA010120220805471214,은신처,,I2,음식,I201,한식,I20107,돼지고기 구이/찜,I56113,한식 육류 요리 전문점,31,울산광역시,31140,남구,31140560,달동,3114010500,달동,3.11401E+18,1,대지,573,27,울산광역시 남구 달동 573-27,3.11404E+11,울산광역시 남구 삼산로169번길,36,null,3.11401E+24,,울산광역시 남구 삼산로169번길 36,680801,44695,,1,,129.324668,35.54016202
MA010120220805471238,꼬시나,,I2,음식,I212,비알코올 ,I21201,카페,I56229,기타 비알코올 음료점업,31,울산광역시,31140,남구,31140595,무거동,3114010100,무거동,3.11401E+18,1,대지,831,1,울산광역시 남구 무거동 831-1,3.11403E+11,울산광역시 남구 신복로,68,null,3.11401E+24,영남파크아파트,울산광역시 남구 신복로 68,680809,44605,,null,,129.2554542,35.54969032
MA010120220805473688,세원물산,,G2,소매,G205,식료품 소매,G20504,건어물/젓갈 소매업,G47213,건어물 및 젓갈류 소매업,31,울산광역시,31200,북구,31200560,효문동,3120012200,연암동,3.12001E+18,1,대지,414,5,울산광역시 북구 연암동 414-5,3.12003E+11,울산광역시 북구 상방로,132,null,3.12001E+24,,울산광역시 북구 상방로 132,683805,44243,,null,,129.3658164,35.5853358
MA010120220805473633,울산탑스포츠,,P1,교육,P106,기타 교육,P10603,요가/필라테스 학원,P85612,기타 스포츠 교육기관,31,울산광역시,31140,남구,31140595,무거동,3114010100,무거동,3.11401E+18,1,대지,1012,1,울산광역시 남구 무거동 1012-1,3.11404E+11,울산광역시 남구 대학로1번길,1,null,3.11401E+24,,울산광역시 남구 대학로1번길 1,680808,44619,,1,,129.252744,35.53569402
MA010120220805473719,종건인테리어,,M1,과학·기술,M112,전문 디자인,M11201,인테리어 디자인업,F42491,"미장, 타일 및 방수 공사업",31,울산광역시,31110,중구,31110510,학성동,3111010100,학성동,3.11101E+18,1,대지,125,2,울산광역시 중구 학성동 125-2,3.11104E+11,울산광역시 중구 학성공원3길,73,null,3.11101E+24,,울산광역시 중구 학성공원3길 73,681821,44527,,null,,129.3375546,35.55450375
MA010120220805473666,다계촌,,I2,음식,I210,기타 간이,I21006,치킨,I56193,치킨 전문점,31,울산광역시,31110,중구,31110610,다운동,3111011200,다운동,3.11101E+18,1,대지,761,3,울산광역시 중구 다운동 761-3,3.11104E+11,울산광역시 중구 다운3길,7,null,3.11101E+24,,울산광역시 중구 다운3길 7,681802,44402,,null,,129.2669149,35.56382019
MA010120220805474062,파스타부오노,,I2,음식,I204,서양식,I20402,파스타/스테이크,I56123,서양식 음식점업,31,울산광역시,31140,남구,31140570,삼산동,3114010600,삼산동,3.11401E+18,1,대지,1570,7,울산광역시 남구 삼산동 1570-7,3.11404E+11,울산광역시 남구 삼산중로74번길,25,null,3.11401E+24,,울산광역시 남구 삼산중로74번길 25,680816,44705,,2,,129.3384252,35.54119082
MA010120220805473744,리굼숯불치킨,,I2,음식,I210,기타 간이,I21006,치킨,I56113,한식 육류 요리 전문점,31,울산광역시,31200,북구,31200530,농소3동,3120010800,천곡동,3.12001E+18,1,대지,939,null,울산광역시 북구 천곡동 939,3.12004E+11,울산광역시 북구 천곡길,182,null,3.12001E+24,,울산광역시 북구 천곡길 182,683500,44200,,1,,129.3253596,35.63904519
MA010120220805474331,에어컨의품격,,S2,수리·개인,S205,가전제품 수리,S20501,가전제품 수리업,S95310,가전제품 수리업,31,울산광역시,31140,남구,31140585,삼호동,3114010100,무거동,3.11401E+18,1,대지,1253,1,울산광역시 남구 무거동 1253-1,3.11403E+11,울산광역시 남구 정광로,20,null,3.11401E+24,,울산광역시 남구 정광로 20,680811,44638,,null,,129.2828901,35.54807659
MA010120220805473384,점프당구장,,R1,예술·스포츠,R103,스포츠 서비스,R10310,당구장,R91135,당구장 운영업,31,울산광역시,31140,남구,31140560,달동,3114010500,달동,3.11401E+18,1,대지,699,4,울산광역시 남구 달동 699-4,3.11404E+11,울산광역시 남구 중앙로128번길,62,null,3.11401E+24,,울산광역시 남구 중앙로128번길 62,680803,44724,,2,,129.3215263,35.53417575
MA010120220805472955,선물의집,,G2,소매,G204,종합 소매,G20499,그 외 기타 종합 소매업,G47190,그 외 기타 종합 소매업,31,울산광역시,31200,북구,31200510,농소1동,3120010200,호계동,3.12001E+18,1,대지,869,1,울산광역시 북구 호계동 869-1,3.12004E+11,울산광역시 북구 호계3길,17,11,3.12001E+24,호계공설시장,울산광역시 북구 호계3길 17-11,683813,44229,,null,,129.3557599,35.62363723
MA010120220805472664,최연주헤어,,S2,수리·개인,S207,이용·미용,S20701,미용실,S96112,두발 미용업,31,울산광역시,31140,남구,31140550,신정5동,3114010400,신정동,3.11401E+18,1,대지,152,1,울산광역시 남구 신정동 152-1,3.11404E+11,울산광역시 남구 신정로116번길,22,null,3.11401E+24,,울산광역시 남구 신정로116번길 22,680821,44688,,1,,129.3219603,35.54248106
MA010120220805473292,더벤티언양양우,,I2,음식,I212,비알코올 ,I21201,카페,I56221,커피 전문점,31,울산광역시,31710,울주군,31710253,언양읍,3171025325,언양읍,3.17103E+18,1,대지,53,1,울산광역시 울주군 언양읍 송대리 53-1,3.17104E+11,울산광역시 울주군 언양읍 내곡능골길,93,20,3.17103E+24,양우내안애더퍼스트아파트,울산광역시 울주군 언양읍 내곡능골길 93-20,689807,44937,,null,,129.1227749,35.58114819
MA010120220805476504,유버스티비,,M1,과학·기술,M105,광고,M10504,광고물 설계/제작업,M71393,"광고물 문안, 도안, 설계 등 작성업",31,울산광역시,31140,남구,31140570,삼산동,3114010600,삼산동,3.11401E+18,1,대지,1512,2,울산광역시 남구 삼산동 1512-2,3.11404E+11,울산광역시 남구 삼산중로131번길,42,22,3.11401E+24,,울산광역시 남구 삼산중로131번길 42-22,680814,44701,,3,,129.3310555,35.54499479
MA010120220805474759,쿠잉단란주점,,I2,음식,I211,주점,I21104,요리 주점,I56219,기타 주점업,31,울산광역시,31200,북구,31200540,강동동,3120011800,산하동,3.12001E+18,1,대지,501,1,울산광역시 북구 산하동 501-1,3.12003E+11,울산광역시 북구 산하중앙1로,1,null,3.12001E+24,수경(SK)타워,울산광역시 북구 산하중앙1로 1,683260,44264,,4,,129.4410082,35.62466652
MA010120220805474704,제이에스당구클럽,,R1,예술·스포츠,R103,스포츠 서비스,R10310,당구장,R91135,당구장 운영업,31,울산광역시,31140,남구,31140530,신정3동,3114010400,신정동,3.11401E+18,1,대지,177,6,울산광역시 남구 신정동 177-6,3.11403E+11,울산광역시 남구 월평로,64,null,3.11401E+24,,울산광역시 남구 월평로 64,680822,44690,,2,,129.3126214,35.54189809
MA010120220805474861,울산피규어인형가챠샵성남동점,,G2,소매,G213,오락용품 소매,G21302,문구/회화용품 소매업,G47612,문구용품 및 회화용품 소매업,31,울산광역시,31110,중구,31110585,중앙동,3111010600,성남동,3.11101E+18,1,대지,249,18,울산광역시 중구 성남동 249-18,3.11104E+11,울산광역시 중구 젊음의거리,76,null,3.11101E+24,,울산광역시 중구 젊음의거리 76,681812,44532,,2,,129.3213441,35.5539885
MA010120220805474937,목살집,,I2,음식,I201,한식,I20107,돼지고기 구이/찜,I56113,한식 육류 요리 전문점,31,울산광역시,31140,남구,31140570,삼산동,3114010500,달동,3.11401E+18,1,대지,1291,5,울산광역시 남구 달동 1291-5,3.11403E+11,울산광역시 남구 왕생로,8,null,3.11401E+24,,울산광역시 남구 왕생로 8,680804,44721,,1,,129.3328964,35.53428495
MA010120220805478621,신불떡볶이옥동점,,I2,음식,I210,기타 간이,I21007,김밥/만두/분식,I56199,간이 음식 포장 판매 전문점,31,울산광역시,31140,남구,31140520,신정2동,3114010400,신정동,3.11401E+18,1,대지,1641,null,울산광역시 남구 신정동 1641,3.11403E+11,울산광역시 남구 동산로,34,null,3.11401E+24,,울산광역시 남구 동산로 34,680833,44654,,1,,129.2993471,35.53593096
MA010120220805477032,세아구조안전기술,,M1,과학·기술,M109,기술 서비스,M10903,건물 및 토목 엔지니어링 서비스업,M72121,건물 및 토목 엔지니어링 서비스업,31,울산광역시,31710,울주군,31710259,범서읍,3171025927,범서읍,3.17103E+18,1,대지,945,null,울산광역시 울주군 범서읍 구영리 945,3.17104E+11,울산광역시 울주군 범서읍 구영앞길,78,null,3.17103E+24,,울산광역시 울주군 범서읍 구영앞길 78,689852,44925,,null,,129.2384642,35.56867648
MA010120220805477237,물만난김선장,,G2,소매,G205,식료품 소매,G20505,수산물 소매업,G47214,"신선, 냉동 및 기타 수산물 소매업",31,울산광역시,31200,북구,31200510,농소1동,3120010300,매곡동,3.12001E+18,1,대지,616,13,울산광역시 북구 매곡동 616-13,3.12004E+11,울산광역시 북구 괴정1길,122,1,3.12001E+24,,울산광역시 북구 괴정1길 122-1,683420,44223,,1,,129.3574813,35.64318487
MA010120220805480242,케이비공방,,S2,수리·개인,S206,기타 가정용품 수리,S20601,의류/이불 수선업,S96999,그 외 기타 달리 분류되지 않은 개인 서비스업,31,울산광역시,31710,울주군,31710259,범서읍,3171025923,범서읍,3.17103E+18,1,대지,594,4,울산광역시 울주군 범서읍 입암리 594-4,3.17104E+11,울산광역시 울주군 범서읍 입암길,153,null,3.17103E+24,,울산광역시 울주군 범서읍 입암길 153,689853,44926,,null,,129.22366,35.57592101
MA010120220805479927,로얄캐슬,,I2,음식,I211,주점,I21103,생맥주 전문,I56213,생맥주 전문점,31,울산광역시,31140,남구,31140570,삼산동,3114010600,삼산동,3.11401E+18,1,대지,1478,4,울산광역시 남구 삼산동 1478-4,3.11404E+11,울산광역시 남구 삼산로266번길,5,12,3.11401E+24,,울산광역시 남구 삼산로266번길 5-12,680815,44719,,3,,129.3369123,35.53840454
MA010120220805480135,씨유전하바드레점,,G2,소매,G204,종합 소매,G20405,편의점,G47122,체인화 편의점,31,울산광역시,31170,동구,31170550,전하1동,3117010400,전하동,3.11701E+18,1,대지,449,2,울산광역시 동구 전하동 449-2,3.11704E+11,울산광역시 동구 녹수8길,51,null,3.11701E+24,,울산광역시 동구 녹수8길 51,682814,44034,,null,,129.43073,35.51479548
MA010120220805480459,스윗스팟피팅,,G2,소매,G213,오락용품 소매,G21304,운동용품 소매업,G47631,운동 및 경기용품 소매업,31,울산광역시,31200,북구,31200560,효문동,3120012100,진장동,3.12001E+18,1,대지,791,1,울산광역시 북구 진장동 791-1,3.12003E+11,울산광역시 북구 명촌로,26,null,3.12001E+24,,울산광역시 북구 명촌로 26,683360,44254,,null,,129.3566285,35.55803104
MA010120220805478671,거성축산,,G2,소매,G205,식료품 소매,G20503,정육점,G47212,육류 소매업,31,울산광역시,31140,남구,31140585,삼호동,3114010100,무거동,3.11401E+18,1,대지,1168,3,울산광역시 남구 무거동 1168-3,3.11403E+11,울산광역시 남구 어은로,3,null,3.11401E+24,,울산광역시 남구 어은로 3,680810,44635,,null,,129.2727924,35.54975189
MA010120220805479299,피부공주스킨케어,,S2,수리·개인,S207,이용·미용,S20702,피부 관리실,S96113,피부 미용업,31,울산광역시,31200,북구,31200530,농소3동,3120010800,천곡동,3.12001E+18,1,대지,410,6,울산광역시 북구 천곡동 410-6,3.12003E+11,울산광역시 북구 아진로,94,null,3.12001E+24,"농협,아진프라자복합상가",울산광역시 북구 아진로 94,683500,44204,,1,,129.3387294,35.63105607
MA010120220805479433,스포츠,,G2,소매,G209,섬유·의복·신발 소매,G20905,기타 의류 소매업,G47419,기타 의복 소매업,31,울산광역시,31110,중구,31110630,병영2동,3111011400,서동,3.11101E+18,1,대지,491,2,울산광역시 중구 서동 491-2,3.11103E+11,울산광역시 중구 병영로,31,null,3.11101E+24,,울산광역시 중구 병영로 31,681290,44489,,null,,129.346002,35.57225553
MA010120220805479265,카페브라운,,I2,음식,I212,비알코올 ,I21201,카페,I56221,커피 전문점,31,울산광역시,31710,울주군,31710265,삼남읍,3171026521,삼남읍,3.17103E+18,1,대지,1569,11,울산광역시 울주군 삼남읍 교동리 1569-11,3.17104E+11,울산광역시 울주군 삼남읍 남상평2길,6,2,3.17104E+24,,울산광역시 울주군 삼남읍 남상평2길 6-2,689812,44948,,1,,129.1203388,35.55912441
MA010120220805482262,스콜라몬테소리,,P1,교육,P106,기타 교육,P10605,레크리에이션 교육기관,P85613,레크리에이션 교육기관,31,울산광역시,31200,북구,31200510,농소1동,3120010200,호계동,3.12001E+18,1,대지,1006,5,울산광역시 북구 호계동 1006-5,3.12003E+11,울산광역시 북구 호계매곡3로,28,null,3.12001E+24,,울산광역시 북구 호계매곡3로 28,683400,44225,,3,,129.3649731,35.63507872
MA010120220805482017,강남더케이의원,,Q1,보건의료,Q101,병원,Q10102,일반병원,Q86201,일반의원,31,울산광역시,31200,북구,31200570,송정동,3120012600,송정동,3.12001E+18,1,대지,1232,5,울산광역시 북구 송정동 1232-5,3.12003E+11,울산광역시 북구 화산로,109,null,3.12001E+24,,울산광역시 북구 화산로 109,683410,44236,,3,,129.3654012,35.60181619
MA010120220805482423,청솔공인중개사사무소,,L1,부동산,L102,부동산 서비스,L10203,부동산 중개/대리업,L68221,부동산 중개 및 대리업,31,울산광역시,31170,동구,31170510,방어동,3117010100,방어동,3.11701E+18,1,대지,69,3,울산광역시 동구 방어동 69-3,3.11704E+11,울산광역시 동구 등대4길,11,null,3.11701E+24,태정하우스,울산광역시 동구 등대4길 11,682803,44059,,null,,129.4287829,35.48826624
MA010120220805482488,씨유방어꽃나루점,,G2,소매,G204,종합 소매,G20405,편의점,G47122,체인화 편의점,31,울산광역시,31170,동구,31170510,방어동,3117010100,방어동,3.11701E+18,1,대지,929,1,울산광역시 동구 방어동 929-1,3.11703E+11,울산광역시 동구 문재로,29,null,3.11701E+24,,울산광역시 동구 문재로 29,682804,44096,,1,,129.4183138,35.48701076
MA010120220805480632,까메오,,I2,음식,I211,주점,I21101,일반 유흥 주점,I56211,일반 유흥 주점업,31,울산광역시,31140,남구,31140570,삼산동,3114010500,달동,3.11401E+18,1,대지,1249,3,울산광역시 남구 달동 1249-3,3.11404E+11,울산광역시 남구 왕생로45번길,11,null,3.11401E+24,,울산광역시 남구 왕생로45번길 11,680804,44718,,3,,129.3304525,35.53719613
MA010120220805480709,도원장,,I1,숙박,I101,일반 숙박,I10102,여관/모텔,I55102,여관업,31,울산광역시,31140,남구,31140510,신정1동,3114010400,신정동,3.11401E+18,1,대지,518,41,울산광역시 남구 신정동 518-41,3.11404E+11,울산광역시 남구 봉월로164번길,3,null,3.11401E+24,,울산광역시 남구 봉월로164번길 3,680825,44669,,null,,129.3080883,35.5472831
MA010120220805481293,3탑케이스,,G2,소매,G212,기타 생활용품 소매,G21202,주방/가정용품 소매업,G47599,그 외 기타 분류 안된 가정용품 소매업,31,울산광역시,31140,남구,31140560,달동,3114010500,달동,3.11401E+18,1,대지,634,1,울산광역시 남구 달동 634-1,3.11403E+11,울산광역시 남구 신정로,91,null,3.11401E+24,,울산광역시 남구 신정로 91,680802,44692,,4,,129.3201082,35.53982446
MA010120220805481166,빈스킹토스트울산,,I2,음식,I210,기타 간이,I21005,토스트/샌드위치/샐러드,I56192,"피자, 햄버거, 샌드위치 및 유사 음식점업",31,울산광역시,31140,남구,31140635,수암동,3114010800,야음동,3.11401E+18,1,대지,746,5,울산광역시 남구 야음동 746-5,3.11404E+11,울산광역시 남구 야음로5번길,24,null,3.11401E+24,,울산광역시 남구 야음로5번길 24,680841,44755,,1,,129.3215128,35.52259406
MA010120220805484058,해초보쌈집,,I2,음식,I201,한식,I20103,족발/보쌈,I56111,한식 일반 음식점업,31,울산광역시,31140,남구,31140510,신정1동,3114010400,신정동,3.11401E+18,1,대지,624,6,울산광역시 남구 신정동 624-6,3.11403E+11,울산광역시 남구 월평로,38,null,3.11401E+24,,울산광역시 남구 월평로 38,680826,44672,,1,,129.3098647,35.54123405
MA010120220805484262,이치바,,I2,음식,I203,일식,I20301,일식 회/초밥,I56122,일식 음식점업,31,울산광역시,31140,남구,31140540,신정4동,3114010400,신정동,3.11401E+18,1,대지,810,22,울산광역시 남구 신정동 810-22,3.11403E+11,울산광역시 남구 중앙로,97,null,3.11401E+24,,울산광역시 남구 중앙로 97,680831,44741,,1,,129.3158887,35.52993814
MA010120220805483008,수빈종합장식,,G2,소매,G210,철물·건설자재 소매,G21002,벽지/장판/마루 소매업,G47513,"벽지, 마루덮개 및 장판류 소매업",31,울산광역시,31110,중구,31110620,병영1동,3111011500,남외동,3.11101E+18,1,대지,392,13,울산광역시 중구 남외동 392-13,3.11104E+11,울산광역시 중구 곽남4길,17,null,3.11101E+24,,울산광역시 중구 곽남4길 17,681801,44491,,1,,129.3416379,35.57053763
MA010120220805483213,크린토피아코인워시선암대나리점,,S2,수리·개인,S209,세탁,S20902,셀프 빨래방,S96912,가정용 세탁업,31,울산광역시,31140,남구,31140640,선암동,3114010900,선암동,3.11401E+18,1,대지,619,9,울산광역시 남구 선암동 619-9,3.11404E+11,울산광역시 남구 두왕로174번길,25,1,3.11401E+24,,울산광역시 남구 두왕로174번길 25-1,680820,44773,,1,,129.3137444,35.51879427
MA010120220805483217,엠아이에스,,M1,과학·기술,M107,본사·경영 컨설팅,M10703,경영 컨설팅업,M71531,경영 컨설팅업,31,울산광역시,31110,중구,31110585,중앙동,3111010200,학산동,3.11101E+18,1,대지,93,3,울산광역시 중구 학산동 93-3,3.11103E+11,울산광역시 중구 장춘로,164,null,3.11101E+24,정림탑스빌,울산광역시 중구 장춘로 164,681200,44530,,2,,129.3262831,35.55854895
MA010120220805486255,한비엠플러스단과학원,,P1,교육,P105,일반 교육,P10501,입시·교과학원,P85501,일반 교과학원,31,울산광역시,31110,중구,31110530,반구2동,3111011800,반구동,3.11101E+18,1,대지,62,4,울산광역시 중구 반구동 62-4,3.11103E+11,울산광역시 중구 번영로,478,null,3.11101E+24,,울산광역시 중구 번영로 478,681804,44510,,2,,129.3360548,35.56382184
MA010120220805485384,동명카써비스,,S2,수리·개인,S203,자동차 수리·세차,S20301,자동차 정비소,S95212,자동차 전문 수리업,31,울산광역시,31140,남구,31140595,무거동,3114010100,무거동,3.11401E+18,1,대지,623,10,울산광역시 남구 무거동 623-10,3.11403E+11,울산광역시 남구 옥현로,7,null,3.11401E+24,,울산광역시 남구 옥현로 7,680808,44611,,null,,129.2571659,35.53923525
MA010120220805485623,온양밝은안경,,G2,소매,G216,안경·정밀기기 소매,G21602,안경렌즈 소매업,G47822,안경 및 렌즈 소매업,31,울산광역시,31710,울주군,31710256,온양읍,3171025624,온양읍,3.17103E+18,1,대지,194,null,울산광역시 울주군 온양읍 남창리 194,3.17104E+11,울산광역시 울주군 온양읍 남창1길,50,null,3.17103E+24,,울산광역시 울주군 온양읍 남창1길 50,689902,44974,,1,,129.2809296,35.41698217
MA010120220805484855,별난커피무거옥현점,,I2,음식,I212,비알코올 ,I21201,카페,I56221,커피 전문점,31,울산광역시,31140,남구,31140595,무거동,3114010100,무거동,3.11401E+18,1,대지,485,14,울산광역시 남구 무거동 485-14,3.11404E+11,울산광역시 남구 옥현로58번길,14,null,3.11401E+24,,울산광역시 남구 옥현로58번길 14,680808,44614,,1,,129.2626596,35.54077318
MA010120220805485423,라본,,G2,소매,G209,섬유·의복·신발 소매,G20902,여성 의류 소매업,G47412,여자용 겉옷 소매업,31,울산광역시,31140,남구,31140600,옥동,3114010200,옥동,3.11401E+18,1,대지,200,null,울산광역시 남구 옥동 200,3.11404E+11,울산광역시 남구 은월로12번길,7,null,3.11401E+24,상아파크,울산광역시 남구 은월로12번길 7,680785,44646,,1,,129.2920437,35.53913699
MA010120220805485051,카베스트,,S2,수리·개인,S203,자동차 수리·세차,S20301,자동차 정비소,S95212,자동차 전문 수리업,31,울산광역시,31200,북구,31200560,효문동,3120012300,효문동,3.12001E+18,1,대지,608,10,울산광역시 북구 효문동 608-10,3.12004E+11,울산광역시 북구 송도길,9,null,3.12001E+24,,울산광역시 북구 송도길 9,683360,44252,,null,,129.3714212,35.56137874
MA010120220805488603,무선,,G2,소매,G208,가전·통신 소매,G20802,핸드폰 소매업,G47312,통신기기 소매업,31,울산광역시,31140,남구,31140570,삼산동,3114010500,달동,3.11401E+18,1,대지,1315,3,울산광역시 남구 달동 1315-3,3.11403E+11,울산광역시 남구 왕생로,136,null,3.11401E+24,,울산광역시 남구 왕생로 136,680814,44701,,1,,129.328821,35.54524477
MA010120220805488205,아가페AGAPE,,G2,소매,G204,종합 소매,G20404,슈퍼마켓,G47422,의복 액세서리 및 모조 장신구 소매업,31,울산광역시,31110,중구,31110650,성안동,3111010900,성안동,3.11101E+18,1,대지,518,2,울산광역시 중구 성안동 518-2,3.11104E+11,울산광역시 중구 성안1길,19,null,3.11101E+24,,울산광역시 중구 성안1길 19,681300,44420,,null,,129.3167944,35.57252406
MA010120220805488098,코쟁이아,,I2,음식,I211,주점,I21104,요리 주점,I56219,기타 주점업,31,울산광역시,31710,울주군,31710259,범서읍,3171025924,범서읍,3.17103E+18,1,대지,293,18,울산광역시 울주군 범서읍 굴화리 293-18,3.17104E+11,울산광역시 울주군 범서읍 백천1길,60,2,3.17103E+24,,울산광역시 울주군 범서읍 백천1길 60-2,689853,44933,,2,,129.2528092,35.55690131
MA010120220805487924,동양족발,,I2,음식,I201,한식,I20103,족발/보쌈,I56111,한식 일반 음식점업,31,울산광역시,31110,중구,31110550,복산2동,3111010300,복산동,3.11101E+18,1,대지,766,null,울산광역시 중구 복산동 766,3.11103E+11,울산광역시 중구 번영로,435,null,3.11101E+24,번영로효성해링턴플레이스1차아파트,울산광역시 중구 번영로 435,681222,44478,,null,,129.3317134,35.56210332
MA010120220805488143,슬릭남성컷트,,S2,수리·개인,S207,이용·미용,S20701,미용실,S96111,이용업,31,울산광역시,31710,울주군,31710250,온산읍,3171025032,온산읍,3.17103E+18,1,대지,292,8,울산광역시 울주군 온산읍 덕신리 292-8,3.17104E+11,울산광역시 울주군 온산읍 신온4길,3,16,3.17103E+24,,울산광역시 울주군 온산읍 신온4길 3-16,689893,45006,,1,,129.3093329,35.43102668
MA010120220805488076,미스사이공공업탑점,,I2,음식,I205,동남아시아,I20501,베트남식 전문,I56129,기타 외국식 음식점업,31,울산광역시,31140,남구,31140520,신정2동,3114010400,신정동,3.11401E+18,1,대지,1220,8,울산광역시 남구 신정동 1220-8,3.11403E+11,울산광역시 남구 삼산로,9,null,3.11401E+24,청호엘에이치서진빌딩,울산광역시 남구 삼산로 9,680828,44678,,1,,129.3087058,35.53302668
MA010120220805487540,피부천사,,S2,수리·개인,S207,이용·미용,S20702,피부 관리실,S96113,피부 미용업,31,울산광역시,31200,북구,31200530,농소3동,3120010700,상안동,3.12001E+18,1,대지,357,2,울산광역시 북구 상안동 357-2,3.12003E+11,울산광역시 북구 신답로,40,null,3.12001E+24,지팝프라자,울산광역시 북구 신답로 40,683480,44209,,3,,129.3436556,35.62922568
MA010120220805487293,오지영어학원,,P1,교육,P105,일반 교육,P10501,입시·교과학원,P85501,일반 교과학원,31,울산광역시,31140,남구,31140600,옥동,3114010200,옥동,3.11401E+18,1,대지,156,2,울산광역시 남구 옥동 156-2,3.11403E+11,울산광역시 남구 문수로,388,null,3.11401E+24,,울산광역시 남구 문수로 388,680843,44664,,2,,129.2957847,35.53382417
MA010120220805487171,영해회집,,I2,음식,I201,한식,I20111,횟집,I56114,한식 해산물 요리 전문점,31,울산광역시,31170,동구,31170600,남목3동,3117010600,주전동,3.11701E+18,1,대지,94,12,울산광역시 동구 주전동 94-12,3.11704E+11,울산광역시 동구 주전해안길,75,null,3.11701E+24,주전수산물판매센터,울산광역시 동구 주전해안길 75,682080,44013,,2,,129.4567989,35.56163003
MA010120220805490261,맑은하늘약국,,G2,소매,G215,의약·화장품 소매,G21501,약국,G47811,의약품 및 의료용품 소매업,31,울산광역시,31140,남구,31140560,달동,3114010500,달동,3.11401E+18,1,대지,590,6,울산광역시 남구 달동 590-6,3.11403E+11,울산광역시 남구 삼산로,171,null,3.11401E+24,,울산광역시 남구 삼산로 171,680801,44695,,null,,129.3259344,35.53737207
MA010120220805489709,뉴무드헤어,,S2,수리·개인,S207,이용·미용,S20701,미용실,S96112,두발 미용업,31,울산광역시,31200,북구,31200570,송정동,3120012600,송정동,3.12001E+18,1,대지,1236,4,울산광역시 북구 송정동 1236-4,3.12003E+11,울산광역시 북구 박상진3로,73,null,3.12001E+24,울산송정제일풍경채레이크뷰,울산광역시 북구 박상진3로 73,683410,44236,,1,,129.3680078,35.60453557
MA010120220805490057,정원한방오리,,I2,음식,I201,한식,I20107,돼지고기 구이/찜,I56113,한식 육류 요리 전문점,31,울산광역시,31170,동구,31170510,방어동,3117010100,방어동,3.11701E+18,1,대지,58,9,울산광역시 동구 방어동 58-9,3.11703E+11,울산광역시 동구 동진로,87,null,3.11701E+24,,울산광역시 동구 동진로 87,682803,44059,,1,,129.4325028,35.48923159
MA010120220805489828,쓰리뚝닭화봉,,I2,음식,I201,한식,I20105,국수/칼국수,I56112,한식 면 요리 전문점,31,울산광역시,31200,북구,31200560,효문동,3120012200,연암동,3.12001E+18,1,대지,360,12,울산광역시 북구 연암동 360-12,3.12004E+11,울산광역시 북구 두부곡7길,5,null,3.12001E+24,,울산광역시 북구 두부곡7길 5,683805,44244,,null,,129.3688069,35.58795168
MA010120220805489670,윤세공,,G2,소매,G217,시계·귀금속 소매,G21701,시계/귀금속 소매업,G47830,시계 및 귀금속 소매업,31,울산광역시,31200,북구,31200510,농소1동,3120010200,호계동,3.12001E+18,1,대지,936,37,울산광역시 북구 호계동 936-37,3.12003E+11,울산광역시 북구 호계로,231,1,3.12001E+24,,울산광역시 북구 호계로 231-1,683813,44228,,null,,129.3537347,35.62464242
MA010120220805489066,카페마커,,I2,음식,I201,한식,I20101,백반/한정식,I56111,한식 일반 음식점업,31,울산광역시,31110,중구,31110590,우정동,3111010800,우정동,3.11101E+18,1,대지,172,5,울산광역시 중구 우정동 172-5,3.11103E+11,울산광역시 중구 학성로,11,null,3.11101E+24,진흥마제스타워울산Ⅱ,울산광역시 중구 학성로 11,681815,44534,,null,,129.3127935,35.55313553
MA010120220805492618,미앤밀,,I2,음식,I210,기타 간이,I21001,빵/도넛,I56191,제과점업,31,울산광역시,31710,울주군,31710259,범서읍,3171025922,범서읍,3.17103E+18,1,대지,639,30,울산광역시 울주군 범서읍 천상리 639-30,3.17104E+11,울산광역시 울주군 범서읍 천상1길,17,null,3.17103E+24,,울산광역시 울주군 범서읍 천상1길 17,689855,44931,,null,,129.230713,35.56315869
MA010120220805492030,공간,,G2,소매,G209,섬유·의복·신발 소매,G20902,여성 의류 소매업,G47412,여자용 겉옷 소매업,31,울산광역시,31110,중구,31110585,중앙동,3111010600,성남동,3.11101E+18,1,대지,56,null,울산광역시 중구 성남동 56,3.11104E+11,울산광역시 중구 중앙길,128,null,3.11101E+24,,울산광역시 중구 중앙길 128,681812,44529,,null,,129.3205023,35.55579132
MA010120220805492033,스시아오,,I2,음식,I203,일식,I20301,일식 회/초밥,I56122,일식 음식점업,31,울산광역시,31110,중구,31110590,우정동,3111010800,우정동,3.11101E+18,1,대지,438,4,울산광역시 중구 우정동 438-4,3.11104E+11,울산광역시 중구 우정7길,41,null,3.11101E+24,,울산광역시 중구 우정7길 41,681816,44461,,1,,129.3115624,35.5601611
MA010120220805492442,이효커피,,I2,음식,I212,비알코올 ,I21201,카페,I56221,커피 전문점,31,울산광역시,31710,울주군,31710259,범서읍,3171025924,범서읍,3.17103E+18,1,대지,31,1,울산광역시 울주군 범서읍 굴화리 31-1,3.17103E+11,울산광역시 울주군 범서읍 울밀로,2866,null,3.17103E+24,,울산광역시 울주군 범서읍 울밀로 2866,689853,44933,,2,,129.2614074,35.55657731
MA010120220805491931,선모바일,,G2,소매,G208,가전·통신 소매,G20802,핸드폰 소매업,G47312,통신기기 소매업,31,울산광역시,31140,남구,31140570,삼산동,3114010600,삼산동,3.11401E+18,1,대지,181,1,울산광역시 남구 삼산동 181-1,3.11404E+11,울산광역시 남구 돋질로377번길,10,null,3.11401E+24,,울산광역시 남구 돋질로377번길 10,680813,44710,,1,,129.3465183,35.54442653
MA010120220805491945,진이찬방울대점,,G2,소매,G205,식료품 소매,G20509,반찬/식료품 소매업,C10302,과실 및 그 외 채소 절임식품 제조업,31,울산광역시,31140,남구,31140595,무거동,3114010100,무거동,3.11401E+18,1,대지,467,3,울산광역시 남구 무거동 467-3,3.11404E+11,울산광역시 남구 옥현로60번길,6,null,3.11401E+24,,울산광역시 남구 옥현로60번길 6,680808,44614,,1,,129.2625022,35.54128858
MA010120220805491708,라움플란건축사사무소,,M1,과학·기술,M109,기술 서비스,M10901,건축 설계 및 관련 서비스업,M72111,건축 설계 및 관련 서비스업,31,울산광역시,31140,남구,31140595,무거동,3114010100,무거동,3.11401E+18,1,대지,623,8,울산광역시 남구 무거동 623-8,3.11403E+11,울산광역시 남구 대학로,40,null,3.11401E+24,,울산광역시 남구 대학로 40,680808,44611,,2,,129.2569997,35.5391829
MA010120220805492473,칸느헤어,,S2,수리·개인,S207,이용·미용,S20701,미용실,S96112,두발 미용업,31,울산광역시,31110,중구,31110530,반구2동,3111011800,반구동,3.11101E+18,1,대지,63,15,울산광역시 중구 반구동 63-15,3.11104E+11,울산광역시 중구 서원1길,25,null,3.11101E+24,,울산광역시 중구 서원1길 25,681804,44510,,null,,129.3361731,35.56230634
MA010120220805492485,청마루,,I2,음식,I201,한식,I20101,백반/한정식,I56111,한식 일반 음식점업,31,울산광역시,31140,남구,31140585,삼호동,3114010100,무거동,3.11401E+18,1,대지,1194,3,울산광역시 남구 무거동 1194-3,3.11403E+11,울산광역시 남구 어은로,22,null,3.11401E+24,,울산광역시 남구 어은로 22,680811,44627,,null,,129.2741129,35.55096373
MA010120220805491203,바이영,,G2,소매,G209,섬유·의복·신발 소매,G20902,여성 의류 소매업,G47412,여자용 겉옷 소매업,31,울산광역시,31140,남구,31140560,달동,3114010500,달동,3.11401E+18,1,대지,614,1,울산광역시 남구 달동 614-1,3.11404E+11,울산광역시 남구 신정로88번길,22,null,3.11401E+24,,울산광역시 남구 신정로88번길 22,680801,44694,,1,,129.3228691,35.54007361
MA010120220805494360,맘스포크,,G2,소매,G205,식료품 소매,G20503,정육점,G47212,육류 소매업,31,울산광역시,31710,울주군,31710262,청량읍,3171026223,청량읍,3.17103E+18,1,대지,574,5,울산광역시 울주군 청량읍 상남리 574-5,3.17104E+11,울산광역시 울주군 청량읍 덕하장터1길,9,null,3.17103E+24,홈세일마트,울산광역시 울주군 청량읍 덕하장터1길 9,689863,44984,,null,,129.3054915,35.49114138
MA010120220805493809,루나,,I2,음식,I204,서양식,I20401,경양식,I56123,서양식 음식점업,31,울산광역시,31140,남구,31140600,옥동,3114010200,옥동,3.11401E+18,1,대지,591,3,울산광역시 남구 옥동 591-3,3.11404E+11,울산광역시 남구 법대로95번길,6,null,3.11401E+24,,울산광역시 남구 법대로95번길 6,680845,44645,,2,,129.2885171,35.53582184
MA010120220805494334,뚜레쥬르울산강동산하점,,I2,음식,I210,기타 간이,I21001,빵/도넛,I56191,제과점업,31,울산광역시,31200,북구,31200540,강동동,3120011800,산하동,3.12001E+18,1,대지,969,1,울산광역시 북구 산하동 969-1,3.12003E+11,울산광역시 북구 산하중앙3로,142,null,3.12001E+24,울산블루마시티서희스타힐스블루원아파트,울산광역시 북구 산하중앙3로 142,683260,44264,,1,,129.4384212,35.63862223
MA010120220805494548,코인당구장,,R1,예술·스포츠,R103,스포츠 서비스,R10310,당구장,R91135,당구장 운영업,31,울산광역시,31140,남구,31140570,삼산동,3114010600,삼산동,3.11401E+18,1,대지,1565,8,울산광역시 남구 삼산동 1565-8,3.11404E+11,울산광역시 남구 삼산로317번길,7,null,3.11401E+24,,울산광역시 남구 삼산로317번길 7,680817,44713,,2,,129.3415637,35.54093062
MA010120220805494695,목련적호,,I2,음식,I212,비알코올 ,I21201,카페,I56221,커피 전문점,31,울산광역시,31140,남구,31140570,삼산동,3114010600,삼산동,3.11401E+18,1,대지,1500,17,울산광역시 남구 삼산동 1500-17,3.11404E+11,울산광역시 남구 월평로191번길,4,1,3.11401E+24,,울산광역시 남구 월평로191번길 4-1,680814,44696,,null,,129.3257208,35.54650467
MA010120220805493854,최핸드드립커피,,I2,음식,I212,비알코올 ,I21201,카페,I56221,커피 전문점,31,울산광역시,31140,남구,31140560,달동,3114010500,달동,3.11401E+18,1,대지,1381,7,울산광역시 남구 달동 1381-7,3.11404E+11,울산광역시 남구 번영로75번길,15,null,3.11401E+24,,울산광역시 남구 번영로75번길 15,680803,44728,,1,,129.3285328,35.5317824
MA010120220805493180,용궁횟집,,I2,음식,I201,한식,I20111,횟집,I56111,한식 일반 음식점업,31,울산광역시,31710,울주군,31710310,서생면,3171031025,서생면,3.17103E+18,1,대지,62,8,울산광역시 울주군 서생면 대송리 62-8,3.17104E+11,울산광역시 울주군 서생면 간절곶해안길,67,null,3.17103E+24,평동횟집,울산광역시 울주군 서생면 간절곶해안길 67,689883,45015,,1,,129.3539738,35.35575135
MA010120220805493078,고워시24울산우정,,S2,수리·개인,S203,자동차 수리·세차,S20302,자동차 세차장,S95213,자동차 세차업,31,울산광역시,31110,중구,31110590,우정동,3111010800,우정동,3.11101E+18,1,대지,500,8,울산광역시 중구 우정동 500-8,3.11104E+11,울산광역시 중구 종가6길,12,null,3.11101E+24,,울산광역시 중구 종가6길 12,681816,44542,,null,,129.3122763,35.56335297
MA010120220805493624,보릿고개진수성찬,,I2,음식,I201,한식,I20101,백반/한정식,I56111,한식 일반 음식점업,31,울산광역시,31140,남구,31140600,옥동,3114010300,두왕동,3.11401E+18,1,대지,93,null,울산광역시 남구 두왕동 93,3.11403E+11,울산광역시 남구 남부순환도로,620,null,3.11401E+24,,울산광역시 남구 남부순환도로 620,680843,44776,,1,,129.3072504,35.51739568
MA010120220805493461,시대세탁소,,S2,수리·개인,S209,세탁,S20901,세탁소,S96912,가정용 세탁업,31,울산광역시,31140,남구,31140570,삼산동,3114010500,달동,3.11401E+18,1,대지,1333,11,울산광역시 남구 달동 1333-11,3.11404E+11,울산광역시 남구 왕생로86번길,7,null,3.11401E+24,,울산광역시 남구 왕생로86번길 7,680814,44703,,null,,129.3311925,35.54127088
MA010120220805496176,제일문수로점,,G2,소매,G208,가전·통신 소매,G20802,핸드폰 소매업,G47312,통신기기 소매업,31,울산광역시,31140,남구,31140600,옥동,3114010200,옥동,3.11401E+18,1,대지,590,8,울산광역시 남구 옥동 590-8,3.11403E+11,울산광역시 남구 문수로,335,null,3.11401E+24,,울산광역시 남구 문수로 335,680845,44645,,null,,129.2902522,35.53537967
MA010120220805494800,공간PC,,R1,예술·스포츠,R104,유원지·오락,R10406,PC방,R91222,컴퓨터 게임방 운영업,31,울산광역시,31710,울주군,31710250,온산읍,3171025032,온산읍,3.17103E+18,1,대지,1280,13,울산광역시 울주군 온산읍 덕신리 1280-13,3.17104E+11,울산광역시 울주군 온산읍 온덕1길,33,null,3.17103E+24,,울산광역시 울주군 온산읍 온덕1길 33,689894,45001,,2,,129.3094518,35.43564919
MA010120220805495447,수라정,,I2,음식,I201,한식,I20101,백반/한정식,I56111,한식 일반 음식점업,31,울산광역시,31170,동구,31170560,전하2동,3117010400,전하동,3.11701E+18,1,대지,651,2,울산광역시 동구 전하동 651-2,3.11704E+11,울산광역시 동구 진성3길,21,null,3.11701E+24,,울산광역시 동구 진성3길 21,682816,44044,,null,,129.428815,35.50999623
MA010120220805495136,스스로커피학문로점,,I2,음식,I212,비알코올 ,I21201,카페,I56221,커피 전문점,31,울산광역시,31170,동구,31170520,일산동,3117010300,일산동,3.11701E+18,1,대지,465,17,울산광역시 동구 일산동 465-17,3.11703E+11,울산광역시 동구 학문로,38,null,3.11701E+24,,울산광역시 동구 학문로 38,682810,44053,,1,,129.4250825,35.50337977
MA010120220805495646,성하공인중개사사무소,,L1,부동산,L102,부동산 서비스,L10203,부동산 중개/대리업,L68221,부동산 중개 및 대리업,31,울산광역시,31710,울주군,31710262,청량읍,3171026223,청량읍,3.17103E+18,1,대지,582,1,울산광역시 울주군 청량읍 상남리 582-1,3.17103E+11,울산광역시 울주군 청량읍 덕하로,238,1,3.17103E+24,,울산광역시 울주군 청량읍 덕하로 238-1,689863,44984,,null,,129.3053963,35.49207077
MA010120220805495174,대송자동차정비공업사,,S2,수리·개인,S203,자동차 수리·세차,S20301,자동차 정비소,S95212,자동차 전문 수리업,31,울산광역시,31170,동구,31170540,대송동,3117010200,화정동,3.11701E+18,1,대지,159,23,울산광역시 동구 화정동 159-23,3.11704E+11,울산광역시 동구 대송7길,42,null,3.11701E+24,,울산광역시 동구 대송7길 42,682820,44061,,null,,129.4193527,35.50096874
MA010120220805495492,청연,,I2,음식,I203,일식,I20301,일식 회/초밥,I56122,일식 음식점업,31,울산광역시,31140,남구,31140585,삼호동,3114010100,무거동,3.11401E+18,1,대지,1176,2,울산광역시 남구 무거동 1176-2,3.11404E+11,울산광역시 남구 삼호로11번길,36,null,3.11401E+24,,울산광역시 남구 삼호로11번길 36,680810,44635,,1,,129.2686769,35.55103908
MA010120220805498907,진향진미,,I2,음식,I201,한식,I20101,백반/한정식,I56111,한식 일반 음식점업,31,울산광역시,31140,남구,31140550,신정5동,3114010400,신정동,3.11401E+18,1,대지,35,59,울산광역시 남구 신정동 35-59,3.11403E+11,울산광역시 남구 월평로,169,null,3.11401E+24,,울산광역시 남구 월평로 169,680821,44686,,null,,129.3232206,35.54536043
MA010120220805498459,로얄,,I2,음식,I211,주점,I21101,일반 유흥 주점,I56211,일반 유흥 주점업,31,울산광역시,31140,남구,31140570,삼산동,3114010500,달동,3.11401E+18,1,대지,1362,3,울산광역시 남구 달동 1362-3,3.11403E+11,울산광역시 남구 왕생로,62,null,3.11401E+24,,울산광역시 남구 왕생로 62,680805,44707,,2,,129.3315186,35.53898697
MA010120220805497745,맘스스토리,,G2,소매,G209,섬유·의복·신발 소매,G20905,기타 의류 소매업,G47419,기타 의복 소매업,31,울산광역시,31140,남구,31140570,삼산동,3114010600,삼산동,3.11401E+18,1,대지,1462,10,울산광역시 남구 삼산동 1462-10,3.11403E+11,울산광역시 남구 월평로,256,null,3.11401E+24,,울산광역시 남구 월평로 256,680814,44700,,null,,129.3324755,35.5468358
MA010120220805497338,동산방,,P1,교육,P106,기타 교육,P10613,기타 예술/스포츠 교육기관,P85629,기타 예술학원,31,울산광역시,31200,북구,31200510,농소1동,3120010200,호계동,3.12001E+18,1,대지,936,33,울산광역시 북구 호계동 936-33,3.12003E+11,울산광역시 북구 호계로,231,null,3.12001E+24,,울산광역시 북구 호계로 231,683813,44228,,null,,129.3537881,35.62453366
MA010120220805497554,원수산,,G2,소매,G205,식료품 소매,G20505,수산물 소매업,G47214,"신선, 냉동 및 기타 수산물 소매업",31,울산광역시,31140,남구,31140570,삼산동,3114010600,삼산동,3.11401E+18,1,대지,904,10,울산광역시 남구 삼산동 904-10,3.11403E+11,울산광역시 남구 삼산로,324,null,3.11401E+24,농수산물도매시장,울산광역시 남구 삼산로 324,680813,44715,,null,,129.34178,35.538026
MA010120220805497442,이엠케이디딤돌분석수학학원,,P1,교육,P105,일반 교육,P10501,입시·교과학원,P85501,일반 교과학원,31,울산광역시,31710,울주군,31710259,범서읍,3171025927,범서읍,3.17103E+18,1,대지,719,1,울산광역시 울주군 범서읍 구영리 719-1,3.17104E+11,울산광역시 울주군 범서읍 점촌1길,13,2,3.17103E+24,,울산광역시 울주군 범서읍 점촌1길 13-2,689852,44924,,2,,129.2396586,35.57602793
MA010120220805500358,세민에스스토어,,G2,소매,G204,종합 소매,G20404,슈퍼마켓,G47129,기타 음ㆍ식료품 위주 종합 소매업,31,울산광역시,31110,중구,31110520,반구1동,3111011800,반구동,3.11101E+18,1,대지,777,5,울산광역시 중구 반구동 777-5,3.11104E+11,울산광역시 중구 내황4길,11,null,3.11101E+24,,울산광역시 중구 내황4길 11,681806,44505,,null,,129.3416957,35.55282638
MA010120220805500461,재라건축사사무소,,M1,과학·기술,M109,기술 서비스,M10901,건축 설계 및 관련 서비스업,M72111,건축 설계 및 관련 서비스업,31,울산광역시,31110,중구,31110510,학성동,3111010100,학성동,3.11101E+18,1,대지,201,5,울산광역시 중구 학성동 201-5,3.11104E+11,울산광역시 중구 학성공원4길,43,null,3.11101E+24,,울산광역시 중구 학성공원4길 43,681821,44527,,2,,129.3371491,35.55266959
MA010120220805500483,오렌지마트,,G2,소매,G204,종합 소매,G20404,슈퍼마켓,G47129,기타 음ㆍ식료품 위주 종합 소매업,31,울산광역시,31200,북구,31200540,강동동,3120011300,정자동,3.12001E+18,1,대지,678,null,울산광역시 북구 정자동 678,3.12004E+11,울산광역시 북구 정자1길,35,null,3.12001E+24,,울산광역시 북구 정자1길 35,683210,44233,,null,,129.4492571,35.61687963
MA010120220805499417,안나생선가게,,G2,소매,G205,식료품 소매,G20509,반찬/식료품 소매업,G47218,조리 반찬류 소매업,31,울산광역시,31140,남구,31140595,무거동,3114010100,무거동,3.11401E+18,1,대지,1546,5,울산광역시 남구 무거동 1546-5,3.11404E+11,울산광역시 남구 신복로46번길,33,null,3.11401E+24,현대시장형상가,울산광역시 남구 신복로46번길 33,680812,44603,,null,,129.257937,35.55189069
MA010120220805499626,원피스맛집,,G2,소매,G209,섬유·의복·신발 소매,G20905,기타 의류 소매업,G47414,셔츠 및 블라우스 소매업,31,울산광역시,31200,북구,31200560,효문동,3120012100,진장동,3.12001E+18,1,대지,632,3,울산광역시 북구 진장동 632-3,3.12004E+11,울산광역시 북구 진장9길,12,1,3.12001E+24,,울산광역시 북구 진장9길 12-1,683360,44251,,null,,129.3595458,35.56292829
MA010120220805502405,두산당구클럽,,R1,예술·스포츠,R103,스포츠 서비스,R10310,당구장,R91135,당구장 운영업,31,울산광역시,31140,남구,31140625,대현동,3114010800,야음동,3.11401E+18,1,대지,644,11,울산광역시 남구 야음동 644-11,3.11403E+11,울산광역시 남구 번영로,36,null,3.11401E+24,,울산광역시 남구 번영로 36,680838,44760,,3,,129.3308893,35.52892631
MA010120220805502014,로타리낚시마트,,G2,소매,G204,종합 소매,G20404,슈퍼마켓,G47129,기타 음ㆍ식료품 위주 종합 소매업,31,울산광역시,31140,남구,31140510,신정1동,3114010400,신정동,3.11401E+18,1,대지,523,1,울산광역시 남구 신정동 523-1,3.11403E+11,울산광역시 남구 중앙로,289,null,3.11401E+24,,울산광역시 남구 중앙로 289,680825,44669,,1,,129.3092977,35.54637768
MA010120220805502496,야시궁,,I2,음식,I211,주점,I21104,요리 주점,I56219,기타 주점업,31,울산광역시,31140,남구,31140625,대현동,3114010800,야음동,3.11401E+18,1,대지,459,49,울산광역시 남구 야음동 459-49,3.11403E+11,울산광역시 남구 수암로,243,1,3.11401E+24,,울산광역시 남구 수암로 243-1,680837,44761,,1,,129.3324858,35.52412272
MA010120220805501931,블랙타운,,I2,음식,I211,주점,I21104,요리 주점,I56219,기타 주점업,31,울산광역시,31140,남구,31140510,신정1동,3114010400,신정동,3.11401E+18,1,대지,518,27,울산광역시 남구 신정동 518-27,3.11404E+11,울산광역시 남구 봉월로164번길,11,null,3.11401E+24,,울산광역시 남구 봉월로164번길 11,680825,44669,,1,,129.3087963,35.54741963
MA010120220805502255,수다헤어샵,,S2,수리·개인,S207,이용·미용,S20701,미용실,S96112,두발 미용업,31,울산광역시,31200,북구,31200560,효문동,3120012200,연암동,3.12001E+18,1,대지,413,3,울산광역시 북구 연암동 413-3,3.12004E+11,울산광역시 북구 두부곡15길,8,null,3.12001E+24,,울산광역시 북구 두부곡15길 8,683805,44243,,1,,129.3651188,35.58519048
MA010120220805501895,이마트24달동보경점,,G2,소매,G204,종합 소매,G20405,편의점,G47122,체인화 편의점,31,울산광역시,31140,남구,31140560,달동,3114010500,달동,3.11401E+18,1,대지,645,31,울산광역시 남구 달동 645-31,3.11404E+11,울산광역시 남구 중앙로156번길,50,1,3.11401E+24,,울산광역시 남구 중앙로156번길 50-1,680802,44693,,1,,129.319456,35.53636156
MA010120220805501703,그린당구클럽,,R1,예술·스포츠,R103,스포츠 서비스,R10310,당구장,R91135,당구장 운영업,31,울산광역시,31140,남구,31140520,신정2동,3114010400,신정동,3.11401E+18,1,대지,664,3,울산광역시 남구 신정동 664-3,3.11404E+11,울산광역시 남구 삼산로35번길,8,null,3.11401E+24,,울산광역시 남구 삼산로35번길 8,680828,44676,,null,,129.3115782,35.534041
MA010120220805501623,프리스틴,,P1,교육,P106,기타 교육,P10625,기타 기술/직업 훈련학원,P85669,기타 기술 및 직업 훈련학원,31,울산광역시,31170,동구,31170540,대송동,3117010200,화정동,3.11701E+18,1,대지,603,8,울산광역시 동구 화정동 603-8,3.11704E+11,울산광역시 동구 대송2길,67,null,3.11701E+24,,울산광역시 동구 대송2길 67,682824,44064,,1,,129.4227463,35.50027983
MA010120220805501255,양구네회뜰날,,I2,음식,I203,일식,I20301,일식 회/초밥,I56122,일식 음식점업,31,울산광역시,31140,남구,31140570,삼산동,3114010500,달동,3.11401E+18,1,대지,1357,7,울산광역시 남구 달동 1357-7,3.11404E+11,울산광역시 남구 번영로144번길,11,null,3.11401E+24,예랑빌딩,울산광역시 남구 번영로144번길 11,680805,44703,,1,,129.3299053,35.53877945
MA010120220805501676,마냐나,,G2,소매,G220,애완동물·용품 소매,G22001,애완동물/애완용품 소매업,G47852,애완용 동물 및 관련용품 소매업,31,울산광역시,31200,북구,31200560,효문동,3120012100,진장동,3.12001E+18,1,대지,551,2,울산광역시 북구 진장동 551-2,3.12003E+11,울산광역시 북구 진장로,82,null,3.12001E+24,,울산광역시 북구 진장로 82,683360,44251,,1,,129.3571667,35.5683629
MA010120220805504412,메디푸드,,G2,소매,G205,식료품 소매,G20508,건강보조식품 소매업,G47217,건강 보조식품 소매업,31,울산광역시,31710,울주군,31710259,범서읍,3171025924,범서읍,3.17103E+18,1,대지,31,7,울산광역시 울주군 범서읍 굴화리 31-7,3.17104E+11,울산광역시 울주군 범서읍 굴화2길,2,null,3.17103E+24,,울산광역시 울주군 범서읍 굴화2길 2,689853,44933,,3,,129.262096,35.55618254
MA010120220805503774,자스민,,I2,음식,I211,주점,I21104,요리 주점,I56219,기타 주점업,31,울산광역시,31200,북구,31200560,효문동,3120012200,연암동,3.12001E+18,1,대지,375,4,울산광역시 북구 연암동 375-4,3.12003E+11,울산광역시 북구 상방로,147,null,3.12001E+24,,울산광역시 북구 상방로 147,683805,44244,,1,,129.3662013,35.58396146
MA010120220805504043,역전할머니맥주,,I2,음식,I211,주점,I21103,생맥주 전문,I56219,기타 주점업,31,울산광역시,31140,남구,31140595,무거동,3114010100,무거동,3.11401E+18,1,대지,1527,8,울산광역시 남구 무거동 1527-8,3.11404E+11,울산광역시 남구 대학로147번길,22,null,3.11401E+24,,울산광역시 남구 대학로147번길 22,680812,44602,,1,,129.2615052,35.5494469
MA010120220805503925,예전토종순대,,I2,음식,I201,한식,I20102,국/탕/찌개류,I56111,한식 일반 음식점업,31,울산광역시,31170,동구,31170550,전하1동,3117010400,전하동,3.11701E+18,1,대지,450,47,울산광역시 동구 전하동 450-47,3.11704E+11,울산광역시 동구 녹수7길,38,null,3.11701E+24,해오름빌리지,울산광역시 동구 녹수7길 38,682814,44034,,null,,129.4309249,35.51397299
MA010120220805503448,카페메르,,I2,음식,I212,비알코올 ,I21201,카페,I56221,커피 전문점,31,울산광역시,31140,남구,31140560,달동,3114010500,달동,3.11401E+18,1,대지,871,2,울산광역시 남구 달동 871-2,3.11404E+11,울산광역시 남구 삼산로77번길,40,null,3.11401E+24,,울산광역시 남구 삼산로77번길 40,680802,44691,,1,,129.3149733,35.53803288
MA010120220805503143,재미짐휘트니스클럽,,R1,예술·스포츠,R103,스포츠 서비스,R10307,헬스장,R91132,체력 단련시설 운영업,31,울산광역시,31140,남구,31140595,무거동,3114010100,무거동,3.11401E+18,1,대지,622,4,울산광역시 남구 무거동 622-4,3.11403E+11,울산광역시 남구 대학로,58,null,3.11401E+24,,울산광역시 남구 대학로 58,680808,44611,,null,,129.2582536,35.5403866
MA010120220805505910,중화반점,,I2,음식,I202,중식,I20201,중국집,I56121,중식 음식점업,31,울산광역시,31710,울주군,31710253,언양읍,3171025332,언양읍,3.17103E+18,1,대지,189,1,울산광역시 울주군 언양읍 남부리 189-1,3.17104E+11,울산광역시 울주군 언양읍 동문길,94,null,3.17103E+24,,울산광역시 울주군 언양읍 동문길 94,689802,44946,,1,,129.124571,35.56361868
MA010120220805505717,아몬드식당,,I2,음식,I201,한식,I20101,백반/한정식,I56111,한식 일반 음식점업,31,울산광역시,31140,남구,31140595,무거동,3114010100,무거동,3.11401E+18,1,대지,849,9,울산광역시 남구 무거동 849-9,3.11404E+11,울산광역시 남구 신복로21번길,7,null,3.11401E+24,,울산광역시 남구 신복로21번길 7,680809,44607,,1,,129.2596798,35.54767237
MA010120220805505532,썬양의자연주의,,G2,소매,G204,종합 소매,G20404,슈퍼마켓,G47129,기타 음ㆍ식료품 위주 종합 소매업,31,울산광역시,31710,울주군,31710256,온양읍,3171025622,온양읍,3.17103E+18,1,대지,174,3,울산광역시 울주군 온양읍 대안리 174-3,3.17104E+11,울산광역시 울주군 온양읍 보곡2길,30,12,3.17103E+24,은성전력,울산광역시 울주군 온양읍 보곡2길 30-12,689903,44977,,1,,129.2907973,35.41021627
MA010120220805504919,학성종합주방,,G2,소매,G212,기타 생활용품 소매,G21202,주방/가정용품 소매업,G47592,"주방용품 및 가정용 유리, 요업제품 소매업",31,울산광역시,31710,울주군,31710259,범서읍,3171025923,범서읍,3.17103E+18,1,대지,231,5,울산광역시 울주군 범서읍 입암리 231-5,3.17104E+11,울산광역시 울주군 범서읍 입암길,70,null,3.17103E+24,,울산광역시 울주군 범서읍 입암길 70,689853,44926,,null,,129.2272735,35.57848006
MA010120220805508614,스시아오,,I2,음식,I203,일식,I20301,일식 회/초밥,I56122,일식 음식점업,31,울산광역시,31170,동구,31170560,전하2동,3117010400,전하동,3.11701E+18,1,대지,660,1,울산광역시 동구 전하동 660-1,3.11703E+11,울산광역시 동구 봉수로,250,null,3.11701E+24,울산전하푸르지오,울산광역시 동구 봉수로 250,682816,44046,,null,,129.421658,35.50919752
MA010120220805508683,사랑방,,I2,음식,I201,한식,I20101,백반/한정식,I56111,한식 일반 음식점업,31,울산광역시,31200,북구,31200520,농소2동,3120010600,중산동,3.12001E+18,1,대지,1166,46,울산광역시 북구 중산동 1166-46,3.12004E+11,울산광역시 북구 화정4길,12,null,3.12001E+24,,울산광역시 북구 화정4길 12,683809,44213,,1,,129.34071,35.66172301
MA010120220805508318,울산아이스크림아울렛,,G2,소매,G204,종합 소매,G20404,슈퍼마켓,G47216,"빵류, 과자류 및 당류 소매업",31,울산광역시,31200,북구,31200570,송정동,3120012500,화봉동,3.12001E+18,1,대지,1466,1,울산광역시 북구 화봉동 1466-1,3.12003E+11,울산광역시 북구 화산중앙로,94,3,3.12001E+24,,울산광역시 북구 화산중앙로 94-3,683410,44240,,null,,129.3667045,35.59344641
MA010120220805507486,복음요양병원,,Q1,보건의료,Q101,병원,Q10105,요양병원,Q86105,요양병원,31,울산광역시,31200,북구,31200510,농소1동,3120010500,신천동,3.12001E+18,1,대지,334,6,울산광역시 북구 신천동 334-6,3.12004E+11,울산광역시 북구 제내1길,6,null,3.12001E+24,,울산광역시 북구 제내1길 6,683802,44224,,null,,129.351807,35.63144178
MA010120220805507711,짙은,,G2,소매,G209,섬유·의복·신발 소매,G20902,여성 의류 소매업,G47412,여자용 겉옷 소매업,31,울산광역시,31140,남구,31140560,달동,3114010500,달동,3.11401E+18,1,대지,869,2,울산광역시 남구 달동 869-2,3.11403E+11,울산광역시 남구 돋질로,94,null,3.11401E+24,,울산광역시 남구 돋질로 94,680802,44691,,2,,129.3159993,35.53873372
MA010120220805507396,울산하나방역,,N1,시설관리·임대,N102,청소·방제,N10203,"소독, 구충 및 방제 서비스업",N74220,"소독, 구충 및 방제 서비스업",31,울산광역시,31140,남구,31140570,삼산동,3114010600,삼산동,3.11401E+18,1,대지,147,14,울산광역시 남구 삼산동 147-14,3.11403E+11,울산광역시 남구 산업로,697,null,3.11401E+24,,울산광역시 남구 산업로 697,680813,44711,,null,,129.3544079,35.54273385
MA010120220805507341,진주횟집,,G2,소매,G205,식료품 소매,G20505,수산물 소매업,G47214,"신선, 냉동 및 기타 수산물 소매업",31,울산광역시,31140,남구,31140510,신정1동,3114010400,신정동,3.11401E+18,1,대지,630,1,울산광역시 남구 신정동 630-1,3.11404E+11,울산광역시 남구 월평로47번길,7,null,3.11401E+24,,울산광역시 남구 월평로47번길 7,680826,44671,,null,,129.310302,35.54235594
MA010120220805507609,투다리태화점,,I2,음식,I211,주점,I21104,요리 주점,I56219,기타 주점업,31,울산광역시,31110,중구,31110600,태화동,3111011100,태화동,3.11101E+18,1,대지,475,5,울산광역시 중구 태화동 475-5,3.11103E+11,울산광역시 중구 태화로,202,null,3.11101E+24,,울산광역시 중구 태화로 202,681819,44456,,1,,129.2976344,35.55145195
MA010120220805510759,1469PC방,,R1,예술·스포츠,R104,유원지·오락,R10406,PC방,R91222,컴퓨터 게임방 운영업,31,울산광역시,31170,동구,31170580,남목1동,3117010800,서부동,3.11701E+18,1,대지,319,2,울산광역시 동구 서부동 319-2,3.11702E+11,울산광역시 동구 방어진순환도로,1119,null,3.11701E+24,,울산광역시 동구 방어진순환도로 1119,682807,44016,,1,,129.4262322,35.53908464
MA010120220805510790,마트로,,G2,소매,G204,종합 소매,G20404,슈퍼마켓,G47121,슈퍼마켓,31,울산광역시,31110,중구,31110520,반구1동,3111011800,반구동,3.11101E+18,1,대지,615,3,울산광역시 중구 반구동 615-3,3.11104E+11,울산광역시 중구 반구정4길,16,null,3.11101E+24,,울산광역시 중구 반구정4길 16,681807,44502,,2,,129.3439723,35.55574829
MA010120220805508846,김밥천국,,I2,음식,I210,기타 간이,I21007,김밥/만두/분식,I56194,김밥 및 기타 간이 음식점업,31,울산광역시,31200,북구,31200520,농소2동,3120010300,매곡동,3.12001E+18,1,대지,474,1,울산광역시 북구 매곡동 474-1,3.12003E+11,울산광역시 북구 신천로,83,null,3.12001E+24,H플라자,울산광역시 북구 신천로 83,683420,44215,,1,,129.3517057,35.64509748
MA010120220805511939,야시장,,I2,음식,I211,주점,I21104,요리 주점,I56219,기타 주점업,31,울산광역시,31170,동구,31170510,방어동,3117010100,방어동,3.11701E+18,1,대지,1131,1,울산광역시 동구 방어동 1131-1,3.11704E+11,울산광역시 동구 문재2길,6,null,3.11701E+24,,울산광역시 동구 문재2길 6,682806,44094,,1,,129.4149445,35.48591467
MA010120220805512265,옥다실,,I2,음식,I212,비알코올 ,I21201,카페,I56229,기타 비알코올 음료점업,31,울산광역시,31710,울주군,31710265,삼남읍,3171026525,삼남읍,3.17103E+18,1,대지,6,9,울산광역시 울주군 삼남읍 가천리 6-9,3.17103E+11,울산광역시 울주군 삼남읍 중남로,53,1,3.17104E+24,,울산광역시 울주군 삼남읍 중남로 53-1,689811,44953,,null,,129.1076739,35.53650987
MA010120220805512811,뷰네일,,S2,수리·개인,S207,이용·미용,S20703,네일숍,S96119,기타 미용업,31,울산광역시,31140,남구,31140550,신정5동,3114010400,신정동,3.11401E+18,1,대지,132,25,울산광역시 남구 신정동 132-25,3.11404E+11,울산광역시 남구 돋질로171번길,36,null,3.11401E+24,,울산광역시 남구 돋질로171번길 36,680821,44687,,1,,129.3231011,35.54412695
MA010120220805511710,올젠,,G2,소매,G209,섬유·의복·신발 소매,G20901,남성 의류 소매업,G47411,남자용 겉옷 소매업,31,울산광역시,31140,남구,31140570,삼산동,3114010600,삼산동,3.11401E+18,1,대지,1480,1,울산광역시 남구 삼산동 1480-1,3.11403E+11,울산광역시 남구 삼산로,288,null,3.11401E+24,"롯데백화점,울산고속버스터미널",울산광역시 남구 삼산로 288,680746,44719,,6,,129.3387628,35.53894282
MA010120220805511674,이게pc방,,R1,예술·스포츠,R104,유원지·오락,R10406,PC방,R91222,컴퓨터 게임방 운영업,31,울산광역시,31140,남구,31140530,신정3동,3114010400,신정동,3.11401E+18,1,대지,176,1,울산광역시 남구 신정동 176-1,3.11403E+11,울산광역시 남구 월평로,58,null,3.11401E+24,,울산광역시 남구 월평로 58,680822,44690,,2,,129.311981,35.54185098
MA010120220805513884,삼화농산,,G2,소매,G205,식료품 소매,G20509,반찬/식료품 소매업,G47219,기타 식료품 소매업,31,울산광역시,31110,중구,31110600,태화동,3111011100,태화동,3.11101E+18,1,대지,473,1,울산광역시 중구 태화동 473-1,3.11103E+11,울산광역시 중구 태화로,186,null,3.11101E+24,중앙농협태화지소,울산광역시 중구 태화로 186,681819,44456,,null,,129.2960977,35.55191012
MA010120220805514719,세븐일레븐울산공원점,,G2,소매,G204,종합 소매,G20405,편의점,G47122,체인화 편의점,31,울산광역시,31140,남구,31140600,옥동,3114010200,옥동,3.11401E+18,1,대지,267,4,울산광역시 남구 옥동 267-4,3.11403E+11,울산광역시 남구 대공원입구로,9,null,3.11401E+24,,울산광역시 남구 대공원입구로 9,680845,44662,,1,,129.2936068,35.532784
MA010120220805514461,삼거리가든,,I2,음식,I201,한식,I20101,백반/한정식,I56111,한식 일반 음식점업,31,울산광역시,31710,울주군,31710400,삼동면,3171040021,삼동면,3.17104E+18,1,대지,845,null,울산광역시 울주군 삼동면 둔기리 845,3.17103E+11,울산광역시 울주군 삼동면 삼동로,1082,null,3.17104E+24,,울산광역시 울주군 삼동면 삼동로 1082,689932,44958,,1,,129.1764584,35.52122994
MA010120220805514824,마라향원,,I2,음식,I202,중식,I20201,중국집,I56121,중식 음식점업,31,울산광역시,31170,동구,31170560,전하2동,3117010400,전하동,3.11701E+18,1,대지,634,5,울산광역시 동구 전하동 634-5,3.11704E+11,울산광역시 동구 진성3길,46,null,3.11701E+24,,울산광역시 동구 진성3길 46,682816,44043,,null,,129.4271132,35.51037689
MA010120220805512872,커피121,,I2,음식,I212,비알코올 ,I21201,카페,I56221,커피 전문점,31,울산광역시,31140,남구,31140625,대현동,3114010800,야음동,3.11401E+18,1,대지,694,null,울산광역시 남구 야음동 694,3.11404E+11,울산광역시 남구 수암로163번길,18,1,3.11401E+24,,울산광역시 남구 수암로163번길 18-1,680838,44736,,null,,129.3237559,35.52827475
MA010120220805513431,용일가스,,G2,소매,G214,연료 소매,G21403,가정용 연료 소매업,G47723,가정용 가스 연료 소매업,31,울산광역시,31710,울주군,31710265,삼남읍,3171026522,삼남읍,3.17103E+18,1,대지,559,2,울산광역시 울주군 삼남읍 상천리 559-2,3.17104E+11,울산광역시 울주군 삼남읍 상천마을2길,15,null,3.17104E+24,,울산광역시 울주군 삼남읍 상천마을2길 15,689814,44954,,null,,129.1079151,35.52036477
MA010120220805513122,케이-팝노래연습장,,R1,예술·스포츠,R104,유원지·오락,R10407,노래방,R91223,노래 연습장 운영업,31,울산광역시,31140,남구,31140570,삼산동,3114010600,삼산동,3.11401E+18,1,대지,1469,1,울산광역시 남구 삼산동 1469-1,3.11404E+11,울산광역시 남구 삼산중로131번길,21,2,3.11401E+24,,울산광역시 남구 삼산중로131번길 21-2,680814,44700,,null,,129.3333308,35.54453703
MA010120220805513255,에스푸드빌울산,,I2,음식,I210,기타 간이,I21006,치킨,I56193,치킨 전문점,31,울산광역시,31710,울주군,31710253,언양읍,3171025331,언양읍,3.17103E+18,1,대지,248,4,울산광역시 울주군 언양읍 서부리 248-4,3.17104E+11,울산광역시 울주군 언양읍 방천8길,5,null,3.17103E+24,,울산광역시 울주군 언양읍 방천8길 5,689806,44945,,1,,129.1124196,35.56713844
MA010120220805513769,김치찜은못참지,,I2,음식,I201,한식,I20102,국/탕/찌개류,I56111,한식 일반 음식점업,31,울산광역시,31710,울주군,31710250,온산읍,3171025032,온산읍,3.17103E+18,1,대지,1364,6,울산광역시 울주군 온산읍 덕신리 1364-6,3.17104E+11,울산광역시 울주군 온산읍 영남6길,6,12,3.17103E+24,,울산광역시 울주군 온산읍 영남6길 6-12,689894,45002,,1,,129.3089186,35.44012555
MA010120220805513666,살롱드희,,S2,수리·개인,S207,이용·미용,S20701,미용실,S96112,두발 미용업,31,울산광역시,31170,동구,31170520,일산동,3117010300,일산동,3.11701E+18,1,대지,945,null,울산광역시 동구 일산동 945,3.11702E+11,울산광역시 동구 방어진순환도로,652,null,3.11701E+24,,울산광역시 동구 방어진순환도로 652,682810,44056,,2,,129.4288563,35.49988315
MA010120220805513795,제이샵,,S2,수리·개인,S207,이용·미용,S20703,네일숍,S96119,기타 미용업,31,울산광역시,31200,북구,31200560,효문동,3120012200,연암동,3.12001E+18,1,대지,375,2,울산광역시 북구 연암동 375-2,3.12003E+11,울산광역시 북구 상방로,145,null,3.12001E+24,,울산광역시 북구 상방로 145,683805,44244,,1,,129.3661728,35.58423217
MA010120220805513677,정직유부울산,,I2,음식,I203,일식,I20399,기타 일식 음식점,I56194,김밥 및 기타 간이 음식점업,31,울산광역시,31110,중구,31110585,중앙동,3111010600,성남동,3.11101E+18,1,대지,219,2,울산광역시 중구 성남동 219-2,3.11104E+11,울산광역시 중구 먹자거리,14,null,3.11101E+24,,울산광역시 중구 먹자거리 14,681812,44532,,1,,129.3202624,35.55461324
MA010120220805516435,굿브릭스,,I2,음식,I212,비알코올 ,I21201,카페,I56221,커피 전문점,31,울산광역시,31110,중구,31110510,학성동,3111010100,학성동,3.11101E+18,1,대지,379,5,울산광역시 중구 학성동 379-5,3.11104E+11,울산광역시 중구 학성1길,55,null,3.11101E+24,,울산광역시 중구 학성1길 55,681822,44517,,1,,129.3325795,35.55778551
MA010120220805515851,에시드헤어,,S2,수리·개인,S207,이용·미용,S20701,미용실,S96112,두발 미용업,31,울산광역시,31140,남구,31140570,삼산동,3114010600,삼산동,3.11401E+18,1,대지,1543,24,울산광역시 남구 삼산동 1543-24,3.11404E+11,울산광역시 남구 삼산로317번길,38,null,3.11401E+24,,울산광역시 남구 삼산로317번길 38,680817,44713,,2,,129.3421555,35.54335756
MA010120220805514999,주원메인트넌스,,M1,과학·기술,M109,기술 서비스,M10901,건축 설계 및 관련 서비스업,M72111,건축 설계 및 관련 서비스업,31,울산광역시,31140,남구,31140510,신정1동,3114010400,신정동,3.11401E+18,1,대지,533,12,울산광역시 남구 신정동 533-12,3.11404E+11,울산광역시 남구 봉월로134번길,4,null,3.11401E+24,아람아트빌,울산광역시 남구 봉월로134번길 4,680825,44669,,2,,129.3073114,35.54426312
MA010120220805514831,울산캘리그라피,,G2,소매,G221,기타 상품 소매,G22199,그 외 기타 상품 전문 소매업,G47859,그 외 기타 분류 안된 상품 전문 소매업,31,울산광역시,31110,중구,31110600,태화동,3111011100,태화동,3.11101E+18,1,대지,475,3,울산광역시 중구 태화동 475-3,3.11103E+11,울산광역시 중구 태화로,198,1,3.11101E+24,,울산광역시 중구 태화로 198-1,681819,44456,,2,,129.2973599,35.55152701
MA010120220805515524,지에스25울산등대길,,G2,소매,G204,종합 소매,G20405,편의점,G47122,체인화 편의점,31,울산광역시,31170,동구,31170510,방어동,3117010100,방어동,3.11701E+18,1,대지,1026,7,울산광역시 동구 방어동 1026-7,3.11703E+11,울산광역시 동구 꽃바위로,191,null,3.11701E+24,,울산광역시 동구 꽃바위로 191,682830,44107,,1,,129.4125676,35.47855182
MA010120220805515099,수선마트,,S2,수리·개인,S206,기타 가정용품 수리,S20601,의류/이불 수선업,S95391,의복 및 기타 가정용 직물제품 수리업,31,울산광역시,31710,울주군,31710259,범서읍,3171025927,범서읍,3.17103E+18,1,대지,838,4,울산광역시 울주군 범서읍 구영리 838-4,3.17104E+11,울산광역시 울주군 범서읍 점촌4길,26,null,3.17103E+24,,울산광역시 울주군 범서읍 점촌4길 26,689852,44923,,null,,129.238128,35.57048256
MA010120220805519290,행운의료기,,G2,소매,G215,의약·화장품 소매,G21502,의료기기 소매업,G47812,의료용 기구 소매업,31,울산광역시,31140,남구,31140550,신정5동,3114010400,신정동,3.11401E+18,1,대지,1911,null,울산광역시 남구 신정동 1911,3.11404E+11,울산광역시 남구 월평로171번길,26,null,3.11401E+24,신정지웰,울산광역시 남구 월평로171번길 26,680015,44686,,1,,129.3232434,35.54741516
MA010120220805516983,아이나인마케팅,,P1,교육,P105,일반 교육,P10501,입시·교과학원,P85501,일반 교과학원,31,울산광역시,31110,중구,31110510,학성동,3111010100,학성동,3.11101E+18,1,대지,379,5,울산광역시 중구 학성동 379-5,3.11104E+11,울산광역시 중구 학성1길,55,null,3.11101E+24,,울산광역시 중구 학성1길 55,681822,44517,,3,,129.3325795,35.55778551
MA010120220805520736,옥분이네,,I2,음식,I201,한식,I20101,백반/한정식,I56111,한식 일반 음식점업,31,울산광역시,31110,중구,31110630,병영2동,3111011400,서동,3.11101E+18,1,대지,41,12,울산광역시 중구 서동 41-12,3.11104E+11,울산광역시 중구 동천4길,10,1,3.11101E+24,,울산광역시 중구 동천4길 10-1,681290,44481,,1,,129.3440027,35.58134492
MA010120220805520700,하와이새우트럭,,I2,음식,I210,기타 간이,I21099,그 외 기타 간이 음식점,I56123,서양식 음식점업,31,울산광역시,31710,울주군,31710310,서생면,3171031025,서생면,3.17103E+18,1,대지,386,null,울산광역시 울주군 서생면 대송리 386,3.17103E+11,울산광역시 울주군 서생면 해맞이로,1193,null,3.17103E+24,,울산광역시 울주군 서생면 해맞이로 1193,689883,45015,,null,,129.3527468,35.35804546
MA010120220805520842,락시노래연습장,,R1,예술·스포츠,R104,유원지·오락,R10407,노래방,R91223,노래 연습장 운영업,31,울산광역시,31140,남구,31140570,삼산동,3114010600,삼산동,3.11401E+18,1,대지,1525,1,울산광역시 남구 삼산동 1525-1,3.11404E+11,울산광역시 남구 삼산로277번길,6,2,3.11401E+24,,울산광역시 남구 삼산로277번길 6-2,680816,44705,,6,,129.3373553,35.53985073
MA010120220805520083,위휘트니스&GX,,R1,예술·스포츠,R103,스포츠 서비스,R10307,헬스장,R91132,체력 단련시설 운영업,31,울산광역시,31200,북구,31200540,강동동,3120011800,산하동,3.12001E+18,1,대지,971,1,울산광역시 북구 산하동 971-1,3.12003E+11,울산광역시 북구 산하중앙2로,300,null,3.12001E+24,,울산광역시 북구 산하중앙2로 300,683260,44264,,null,,129.439509,35.63648222
MA010120220805520114,벨리시앙,,G2,소매,G209,섬유·의복·신발 소매,G20902,여성 의류 소매업,G47412,여자용 겉옷 소매업,31,울산광역시,31140,남구,31140570,삼산동,3114010600,삼산동,3.11401E+18,1,대지,1480,1,울산광역시 남구 삼산동 1480-1,3.11403E+11,울산광역시 남구 삼산로,288,null,3.11401E+24,"롯데백화점,울산고속버스터미널",울산광역시 남구 삼산로 288,680746,44719,,2,,129.3387628,35.53894282
MA010120220805519494,요녀석파스타&필라프,,I2,음식,I204,서양식,I20402,파스타/스테이크,I56111,한식 일반 음식점업,31,울산광역시,31200,북구,31200510,농소1동,3120010500,신천동,3.12001E+18,1,대지,346,5,울산광역시 북구 신천동 346-5,3.12003E+11,울산광역시 북구 호계로,313,null,3.12001E+24,성우현대아파트,울산광역시 북구 호계로 313,683748,44228,,null,,129.3503841,35.63086289
MA010120220805519218,나이스탁구클럽,,G2,소매,G213,오락용품 소매,G21304,운동용품 소매업,G47631,운동 및 경기용품 소매업,31,울산광역시,31200,북구,31200510,농소1동,3120010500,신천동,3.12001E+18,1,대지,44,null,울산광역시 북구 신천동 44,3.12004E+11,울산광역시 북구 제내2길,45,8,3.12001E+24,,울산광역시 북구 제내2길 45-8,683802,44224,,null,,129.3545393,35.63438535
MA010120220805522229,동명산업,,G2,소매,G209,섬유·의복·신발 소매,G20905,기타 의류 소매업,G47419,기타 의복 소매업,31,울산광역시,31710,울주군,31710250,온산읍,3171025021,온산읍,3.17103E+18,1,대지,1000,8,울산광역시 울주군 온산읍 화산리 1000-8,3.17104E+11,울산광역시 울주군 온산읍 내동1길,29,null,3.17103E+24,,울산광역시 울주군 온산읍 내동1길 29,689894,44998,,2,,129.3336952,35.44053939
MA010120220805522081,네이처컬렉션,,G2,소매,G215,의약·화장품 소매,G21503,화장품 소매업,G47813,"화장품, 비누 및 방향제 소매업",31,울산광역시,31710,울주군,31710253,언양읍,3171025332,언양읍,3.17103E+18,1,대지,141,null,울산광역시 울주군 언양읍 남부리 141,3.17104E+11,울산광역시 울주군 언양읍 헌양길,28,null,3.17103E+24,,울산광역시 울주군 언양읍 헌양길 28,689802,44941,,null,,129.12601,35.56475895
MA010120220805522212,구찌노래타운,,I2,음식,I211,주점,I21101,일반 유흥 주점,I56211,일반 유흥 주점업,31,울산광역시,31200,북구,31200560,효문동,3120012100,진장동,3.12001E+18,1,대지,815,1,울산광역시 북구 진장동 815-1,3.12004E+11,울산광역시 북구 명촌5길,5,1,3.12001E+24,,울산광역시 북구 명촌5길 5-1,683360,44254,,1,,129.3574394,35.55771547
MA010120220805522032,사계절,,G2,소매,G213,오락용품 소매,G21306,장난감 소매업,G47640,"게임용구, 인형 및 장난감 소매업",31,울산광역시,31170,동구,31170600,남목3동,3117010600,주전동,3.11701E+18,1,대지,291,1,울산광역시 동구 주전동 291-1,3.11703E+11,울산광역시 동구 동해안로,558,null,3.11701E+24,,울산광역시 동구 동해안로 558,682080,44013,,null,,129.4572206,35.5562893
MA010120220805521743,바이현,,S2,수리·개인,S207,이용·미용,S20703,네일숍,S96119,기타 미용업,31,울산광역시,31140,남구,31140640,선암동,3114010900,선암동,3.11401E+18,1,대지,589,1,울산광역시 남구 선암동 589-1,3.11404E+11,울산광역시 남구 두왕로34번길,42,null,3.11401E+24,신선산휴먼빌,울산광역시 남구 두왕로34번길 42,680819,44774,,5,,129.31321,35.50831781
MA010120220805520988,신대영공인중개사사무소,,L1,부동산,L102,부동산 서비스,L10203,부동산 중개/대리업,L68221,부동산 중개 및 대리업,31,울산광역시,31710,울주군,31710259,범서읍,3171025927,범서읍,3.17103E+18,1,대지,793,1,울산광역시 울주군 범서읍 구영리 793-1,3.17103E+11,울산광역시 울주군 범서읍 구영로,114,null,3.17103E+24,,울산광역시 울주군 범서읍 구영로 114,689852,44923,,null,,129.2420757,35.57252398
MA010120220805521674,돈지리산흑돼지,,I2,음식,I201,한식,I20107,돼지고기 구이/찜,I56113,한식 육류 요리 전문점,31,울산광역시,31140,남구,31140510,신정1동,3114010400,신정동,3.11401E+18,1,대지,522,11,울산광역시 남구 신정동 522-11,3.11404E+11,울산광역시 남구 봉월로152번길,3,null,3.11401E+24,,울산광역시 남구 봉월로152번길 3,680825,44669,,null,,129.3077517,35.54625024
MA010120220805521251,부광한우가든,,I2,음식,I201,한식,I20108,소고기 구이/찜,I56111,한식 일반 음식점업,31,울산광역시,31710,울주군,31710310,서생면,3171031022,서생면,3.17103E+18,1,대지,117,4,울산광역시 울주군 서생면 명산리 117-4,3.17104E+11,울산광역시 울주군 서생면 용연1길,15,null,3.17103E+24,,울산광역시 울주군 서생면 용연1길 15,689881,45012,,1,,129.3046752,35.35178694
MA010120220805521063,범서실내마차식당,,I2,음식,I211,주점,I21104,요리 주점,I56219,기타 주점업,31,울산광역시,31110,중구,31110590,우정동,3111010800,우정동,3.11101E+18,1,대지,285,19,울산광역시 중구 우정동 285-19,3.11104E+11,울산광역시 중구 당산3길,17,5,3.11101E+24,,울산광역시 중구 당산3길 17-5,681815,44534,,null,,129.3094925,35.55428905
MA010120220805521338,앵콜노래연습장,,R1,예술·스포츠,R104,유원지·오락,R10407,노래방,R91223,노래 연습장 운영업,31,울산광역시,31140,남구,31140600,옥동,3114010200,옥동,3.11401E+18,1,대지,267,3,울산광역시 남구 옥동 267-3,3.11404E+11,울산광역시 남구 대공원입구로9번길,3,null,3.11401E+24,,울산광역시 남구 대공원입구로9번길 3,680845,44662,,2,,129.293442,35.53282182
MA010120220805522569,언양핫스팟,,G2,소매,G208,가전·통신 소매,G20802,핸드폰 소매업,G47312,통신기기 소매업,31,울산광역시,31710,울주군,31710253,언양읍,3171025331,언양읍,3.17103E+18,1,대지,175,2,울산광역시 울주군 언양읍 서부리 175-2,3.17103E+11,울산광역시 울주군 언양읍 읍성로,27,null,3.17103E+24,,울산광역시 울주군 언양읍 읍성로 27,689806,44945,,2,,129.1174777,35.56675817
MA010120220805524188,레드페이스세이브존,,G2,소매,G209,섬유·의복·신발 소매,G20905,기타 의류 소매업,G47419,기타 의복 소매업,31,울산광역시,31140,남구,31140570,삼산동,3114010600,삼산동,3.11401E+18,1,대지,1377,8,울산광역시 남구 삼산동 1377-8,3.11404E+11,울산광역시 남구 번영로250번길,9,null,3.11401E+24,세이브존,울산광역시 남구 번영로250번길 9,680731,44696,,1,,129.3246222,35.54810304
MA010120220805524659,울산공업탑점빽다방,,I2,음식,I212,비알코올 ,I21201,카페,I56221,커피 전문점,31,울산광역시,31140,남구,31140540,신정4동,3114010400,신정동,3.11401E+18,1,대지,1097,9,울산광역시 남구 신정동 1097-9,3.11403E+11,울산광역시 남구 두왕로,324,null,3.11401E+24,,울산광역시 남구 두왕로 324,680831,44740,,2,,129.3083133,35.53126437
MA010120220805523185,온유학원,,P1,교육,P107,교육 지원,P10799,기타 교육지원 서비스업,P85709,기타 교육지원 서비스업,31,울산광역시,31140,남구,31140595,무거동,3114010100,무거동,3.11401E+18,1,대지,619,3,울산광역시 남구 무거동 619-3,3.11403E+11,울산광역시 남구 대학로,90,1,3.11401E+24,,울산광역시 남구 대학로 90-1,680808,44611,,3,,129.2600807,35.54299035
MA010120220805523075,씨유진하해돋이점,,G2,소매,G204,종합 소매,G20405,편의점,G47122,체인화 편의점,31,울산광역시,31710,울주군,31710310,서생면,3171031028,서생면,3.17103E+18,1,대지,300,14,울산광역시 울주군 서생면 진하리 300-14,3.17104E+11,울산광역시 울주군 서생면 깨목1길,1,null,3.17103E+24,,울산광역시 울주군 서생면 깨목1길 1,689883,45013,,null,,129.3431432,35.38271383
MA010120220805523154,덩어리,,I2,음식,I201,한식,I20107,돼지고기 구이/찜,I56113,한식 육류 요리 전문점,31,울산광역시,31710,울주군,31710265,삼남읍,3171026521,삼남읍,3.17103E+18,1,대지,1580,7,울산광역시 울주군 삼남읍 교동리 1580-7,3.17104E+11,울산광역시 울주군 삼남읍 서상평길,25,null,3.17104E+24,,울산광역시 울주군 삼남읍 서상평길 25,689812,44949,,null,,129.1154035,35.56116211
MA010120220805523411,또와분식,,I2,음식,I210,기타 간이,I21007,김밥/만두/분식,I56194,김밥 및 기타 간이 음식점업,31,울산광역시,31170,동구,31170510,방어동,3117010100,방어동,3.11701E+18,1,대지,507,4,울산광역시 동구 방어동 507-4,3.11704E+11,울산광역시 동구 꽃바위5길,50,null,3.11701E+24,,울산광역시 동구 꽃바위5길 50,682829,44099,,null,,129.4150364,35.48298435
MA010120220805522911,신동아종합정비,,S2,수리·개인,S203,자동차 수리·세차,S20301,자동차 정비소,S95211,자동차 종합 수리업,31,울산광역시,31710,울주군,31710250,온산읍,3171025021,온산읍,3.17103E+18,1,대지,1008,5,울산광역시 울주군 온산읍 화산리 1008-5,3.17104E+11,울산광역시 울주군 온산읍 내동1길,12,null,3.17103E+24,,울산광역시 울주군 온산읍 내동1길 12,689894,44998,,null,,129.3325449,35.43891168
MA010120220805523171,싸가지고가게,,G2,소매,G205,식료품 소매,G20509,반찬/식료품 소매업,I56111,한식 일반 음식점업,31,울산광역시,31710,울주군,31710259,범서읍,3171025927,범서읍,3.17103E+18,1,대지,850,4,울산광역시 울주군 범서읍 구영리 850-4,3.17104E+11,울산광역시 울주군 범서읍 점촌3길,8,3,3.17103E+24,,울산광역시 울주군 범서읍 점촌3길 8-3,689852,44924,,null,,129.2410156,35.57388687
MA010120220805523540,개란빵,,G2,소매,G220,애완동물·용품 소매,G22001,애완동물/애완용품 소매업,G47852,애완용 동물 및 관련용품 소매업,31,울산광역시,31110,중구,31110585,중앙동,3111010600,성남동,3.11101E+18,1,대지,190,131,울산광역시 중구 성남동 190-131,3.11103E+11,울산광역시 중구 학성로,59,2,3.11101E+24,,울산광역시 중구 학성로 59-2,681812,44529,,1,,129.3178107,35.55441473
MA010120220805525001,삼국지,,I2,음식,I211,주점,I21101,일반 유흥 주점,I56211,일반 유흥 주점업,31,울산광역시,31140,남구,31140520,신정2동,3114010400,신정동,3.11401E+18,1,대지,665,15,울산광역시 남구 신정동 665-15,3.11404E+11,울산광역시 남구 삼산로35번길,5,null,3.11401E+24,,울산광역시 남구 삼산로35번길 5,680828,44678,,null,,129.3112774,35.53385499
MA010120220805525812,네일라이크,,S2,수리·개인,S207,이용·미용,S20703,네일숍,S96119,기타 미용업,31,울산광역시,31140,남구,31140560,달동,3114010500,달동,3.11401E+18,1,대지,597,6,울산광역시 남구 달동 597-6,3.11404E+11,울산광역시 남구 신정로68번길,20,null,3.11401E+24,,울산광역시 남구 신정로68번길 20,680801,44694,,null,,129.3232588,35.53828474
MA010120220805525792,골프존파크약사오케이골프점,,R1,예술·스포츠,R103,스포츠 서비스,R10311,골프 연습장,R91136,골프 연습장 운영업,31,울산광역시,31110,중구,31110640,약사동,3111011700,약사동,3.11101E+18,1,대지,413,11,울산광역시 중구 약사동 413-11,3.11103E+11,울산광역시 중구 달빛로,25,null,3.11101E+24,,울산광역시 중구 달빛로 25,681430,44546,,4,,129.3388707,35.57925694
MA010120220805529359,바카,,I2,음식,I211,주점,I21104,요리 주점,I56219,기타 주점업,31,울산광역시,31140,남구,31140570,삼산동,3114010500,달동,3.11401E+18,1,대지,1259,9,울산광역시 남구 달동 1259-9,3.11404E+11,울산광역시 남구 왕생로36번길,25,null,3.11401E+24,,울산광역시 남구 왕생로36번길 25,680804,44718,,2,,129.3350198,35.53732591
MA010120220805528642,워시엔조이셀프빨래방울산달동,,S2,수리·개인,S209,세탁,S20902,셀프 빨래방,S96912,가정용 세탁업,31,울산광역시,31140,남구,31140560,달동,3114010500,달동,3.11401E+18,1,대지,625,7,울산광역시 남구 달동 625-7,3.11404E+11,울산광역시 남구 신정로68번길,2,null,3.11401E+24,,울산광역시 남구 신정로68번길 2,680801,44694,,1,,129.3214985,35.53786241
MA010120220805527742,진수학학원,,P1,교육,P105,일반 교육,P10501,입시·교과학원,P85501,일반 교과학원,31,울산광역시,31200,북구,31200570,송정동,3120012600,송정동,3.12001E+18,1,대지,1232,5,울산광역시 북구 송정동 1232-5,3.12003E+11,울산광역시 북구 화산로,109,null,3.12001E+24,,울산광역시 북구 화산로 109,683410,44236,,null,,129.3654012,35.60181619
MA010120220805527369,용한유도클럽,,P1,교육,P106,기타 교육,P10601,태권도/무술학원,P85611,태권도 및 무술 교육기관,31,울산광역시,31710,울주군,31710250,온산읍,3171025032,온산읍,3.17103E+18,1,대지,1280,15,울산광역시 울주군 온산읍 덕신리 1280-15,3.17104E+11,울산광역시 울주군 온산읍 온덕1길,29,4,3.17103E+24,,울산광역시 울주군 온산읍 온덕1길 29-4,689894,45001,,1,,129.3092523,35.43557024
MA010120220805528880,참맛있는고기비빔밥화봉점,,I2,음식,I201,한식,I20107,돼지고기 구이/찜,I56111,한식 일반 음식점업,31,울산광역시,31200,북구,31200560,효문동,3120012200,연암동,3.12001E+18,1,대지,371,1,울산광역시 북구 연암동 371-1,3.12004E+11,울산광역시 북구 두부곡4길,22,null,3.12001E+24,,울산광역시 북구 두부곡4길 22,683805,44244,,null,,129.3677152,35.58539538
MA010120220805530219,비비큐언양삼남점,,I2,음식,I210,기타 간이,I21006,치킨,I56193,치킨 전문점,31,울산광역시,31710,울주군,31710265,삼남읍,3171026521,삼남읍,3.17103E+18,1,대지,1578,7,울산광역시 울주군 삼남읍 교동리 1578-7,3.17104E+11,울산광역시 울주군 삼남읍 남상평2길,44,null,3.17104E+24,,울산광역시 울주군 삼남읍 남상평2길 44,689812,44948,,1,,129.1162167,35.56014509
MA010120220805531597,제이디엑스,,G2,소매,G209,섬유·의복·신발 소매,G20905,기타 의류 소매업,G47419,기타 의복 소매업,31,울산광역시,31140,남구,31140570,삼산동,3114010600,삼산동,3.11401E+18,1,대지,1377,8,울산광역시 남구 삼산동 1377-8,3.11404E+11,울산광역시 남구 번영로250번길,9,null,3.11401E+24,세이브존,울산광역시 남구 번영로250번길 9,680731,44696,,2,,129.3246222,35.54810304
MA010120220805530233,팟타이,,G2,소매,G215,의약·화장품 소매,G21503,화장품 소매업,G47813,"화장품, 비누 및 방향제 소매업",31,울산광역시,31170,동구,31170590,남목2동,3117010800,서부동,3.11701E+18,1,대지,113,136,울산광역시 동구 서부동 113-136,3.11704E+11,울산광역시 동구 명덕6길,12,null,3.11701E+24,코스모스빌딩,울산광역시 동구 명덕6길 12,682808,44031,,2,,129.4317407,35.52329174
MA010120220805530825,보라헤어살롱,,S2,수리·개인,S207,이용·미용,S20701,미용실,S96112,두발 미용업,31,울산광역시,31140,남구,31140540,신정4동,3114010400,신정동,3.11401E+18,1,대지,859,16,울산광역시 남구 신정동 859-16,3.11403E+11,울산광역시 남구 중앙로,56,1,3.11401E+24,,울산광역시 남구 중앙로 56-1,680831,44748,,1,,129.3175651,35.526594
MA010120220805529476,화봉선지해장국,,I2,음식,I201,한식,I20102,국/탕/찌개류,I56111,한식 일반 음식점업,31,울산광역시,31200,북구,31200570,송정동,3120012500,화봉동,3.12001E+18,1,대지,448,2,울산광역시 북구 화봉동 448-2,3.12003E+11,울산광역시 북구 상방로,94,null,3.12001E+24,,울산광역시 북구 상방로 94,683410,44241,,1,,129.3658429,35.58884154
MA010120220805529174,언양손세차,,S2,수리·개인,S203,자동차 수리·세차,S20302,자동차 세차장,S95213,자동차 세차업,31,울산광역시,31710,울주군,31710265,삼남읍,3171026521,삼남읍,3.17103E+18,1,대지,1603,8,울산광역시 울주군 삼남읍 교동리 1603-8,3.17103E+11,울산광역시 울주군 삼남읍 교동로,87,null,3.17104E+24,,울산광역시 울주군 삼남읍 교동로 87,689812,44950,,null,,129.1151808,35.55782925
MA010120220805529492,디어바디,,P1,교육,P106,기타 교육,P10603,요가/필라테스 학원,P85612,기타 스포츠 교육기관,31,울산광역시,31140,남구,31140560,달동,3114010500,달동,3.11401E+18,1,대지,877,1,울산광역시 남구 달동 877-1,3.11404E+11,울산광역시 남구 삼산로77번길,39,null,3.11401E+24,,울산광역시 남구 삼산로77번길 39,680802,44691,,2,,129.3147628,35.53797209
MA010120220805529507,니어필라테스,,P1,교육,P106,기타 교육,P10603,요가/필라테스 학원,P85612,기타 스포츠 교육기관,31,울산광역시,31140,남구,31140585,삼호동,3114010100,무거동,3.11401E+18,1,대지,162,5,울산광역시 남구 무거동 162-5,3.11404E+11,울산광역시 남구 삼호로7번길,49,1,3.11401E+24,,울산광역시 남구 삼호로7번길 49-1,680806,44628,,2,,129.2696842,35.55127183
MA010120220805529149,줄리엣,,G2,소매,G209,섬유·의복·신발 소매,G20902,여성 의류 소매업,G47412,여자용 겉옷 소매업,31,울산광역시,31710,울주군,31710265,삼남읍,3171026521,삼남읍,3.17103E+18,1,대지,1598,9,울산광역시 울주군 삼남읍 교동리 1598-9,3.17103E+11,울산광역시 울주군 삼남읍 봉화로,6,null,3.17104E+24,,울산광역시 울주군 삼남읍 봉화로 6,689812,44948,,null,,129.1194836,35.55790655
MA010120220805532047,미소반점,,I2,음식,I202,중식,I20201,중국집,I56121,중식 음식점업,31,울산광역시,31110,중구,31110510,학성동,3111010100,학성동,3.11101E+18,1,대지,377,8,울산광역시 중구 학성동 377-8,3.11104E+11,울산광역시 중구 학성1길,44,3,3.11101E+24,,울산광역시 중구 학성1길 44-3,681822,44518,,1,,129.331325,35.55729464
MA010120220805533841,황금1공인중개사사무소,,L1,부동산,L102,부동산 서비스,L10203,부동산 중개/대리업,L68221,부동산 중개 및 대리업,31,울산광역시,31710,울주군,31710340,웅촌면,3171034023,웅촌면,3.17103E+18,1,대지,292,3,울산광역시 울주군 웅촌면 곡천리 292-3,3.17104E+11,울산광역시 울주군 웅촌면 동녘골길,3,null,3.17103E+24,하이클럽,울산광역시 울주군 웅촌면 동녘골길 3,689872,44965,,null,,129.2080349,35.46461183
MA010120220805532249,하프타임진하점,,G2,소매,G204,종합 소매,G20405,편의점,G47122,체인화 편의점,31,울산광역시,31710,울주군,31710310,서생면,3171031028,서생면,3.17103E+18,1,대지,71,29,울산광역시 울주군 서생면 진하리 71-29,3.17104E+11,울산광역시 울주군 서생면 진하9길,1,null,3.17103E+24,,울산광역시 울주군 서생면 진하9길 1,689883,45013,,null,,129.3442368,35.38693791
MA010120220805532665,플로렌스J,,G2,소매,G209,섬유·의복·신발 소매,G20902,여성 의류 소매업,G47412,여자용 겉옷 소매업,31,울산광역시,31140,남구,31140570,삼산동,3114010600,삼산동,3.11401E+18,1,대지,1538,1,울산광역시 남구 삼산동 1538-1,3.11403E+11,울산광역시 남구 삼산중로,144,null,3.11401E+24,울산노동자종합복지회관,울산광역시 남구 삼산중로 144,680817,44698,,1,,129.3364783,35.54614256
MA010120220805532263,철수맥주,,I2,음식,I211,주점,I21103,생맥주 전문,I56213,생맥주 전문점,31,울산광역시,31140,남구,31140520,신정2동,3114010400,신정동,3.11401E+18,1,대지,1602,23,울산광역시 남구 신정동 1602-23,3.11404E+11,울산광역시 남구 거마로118번길,20,null,3.11401E+24,,울산광역시 남구 거마로118번길 20,680833,44651,,1,,129.3029249,35.53828985
MA010120220805532525,스탭키즈,,G2,소매,G209,섬유·의복·신발 소매,G20905,기타 의류 소매업,G47419,기타 의복 소매업,31,울산광역시,31140,남구,31140570,삼산동,3114010500,달동,3.11401E+18,1,대지,1360,3,울산광역시 남구 달동 1360-3,3.11403E+11,울산광역시 남구 삼산로,217,null,3.11401E+24,,울산광역시 남구 삼산로 217,680805,44703,,6,,129.3304875,35.53864685
MA010120220805532718,원디자인,,M1,과학·기술,M112,전문 디자인,M11201,인테리어 디자인업,M73201,인테리어 디자인업,31,울산광역시,31140,남구,31140520,신정2동,3114010400,신정동,3.11401E+18,1,대지,694,6,울산광역시 남구 신정동 694-6,3.11403E+11,울산광역시 남구 돋질로,36,null,3.11401E+24,,울산광역시 남구 돋질로 36,680828,44677,,2,,129.3098977,35.53715977
MA010120220805531676,온산정보통신,,G2,소매,G208,가전·통신 소매,G20802,핸드폰 소매업,G47312,통신기기 소매업,31,울산광역시,31710,울주군,31710250,온산읍,3171025032,온산읍,3.17103E+18,1,대지,1295,4,울산광역시 울주군 온산읍 덕신리 1295-4,3.17103E+11,울산광역시 울주군 온산읍 덕신로,267,null,3.17103E+24,,울산광역시 울주군 온산읍 덕신로 267,689894,45001,,1,,129.3107916,35.43405734
MA010120220805531311,지음건축인테리어디자인,,M1,과학·기술,M112,전문 디자인,M11201,인테리어 디자인업,F42412,"도배, 실내 장식 및 내장 목공사업",31,울산광역시,31110,중구,31110650,성안동,3111010900,성안동,3.11101E+18,1,대지,396,9,울산광역시 중구 성안동 396-9,3.11103E+11,울산광역시 중구 성안로,149,null,3.11101E+24,,울산광역시 중구 성안로 149,681300,44422,,null,,129.3153528,35.57409004
MA010120220805531852,감자유학울산센터,,P1,교육,P107,교육 지원,P10799,기타 교육지원 서비스업,P85709,기타 교육지원 서비스업,31,울산광역시,31140,남구,31140595,무거동,3114010100,무거동,3.11401E+18,1,대지,618,3,울산광역시 남구 무거동 618-3,3.11403E+11,울산광역시 남구 대학로,104,1,3.11401E+24,,울산광역시 남구 대학로 104-1,680808,44611,,2,,129.2605947,35.54412064
MA010120220805534038,미각정숯불구이,,I2,음식,I201,한식,I20107,돼지고기 구이/찜,I56113,한식 육류 요리 전문점,31,울산광역시,31710,울주군,31710253,언양읍,3171025330,언양읍,3.17103E+18,1,대지,255,9,울산광역시 울주군 언양읍 동부리 255-9,3.17104E+11,울산광역시 울주군 언양읍 동부5길,18,null,3.17103E+24,,울산광역시 울주군 언양읍 동부5길 18,689804,44941,,null,,129.127004,35.56642613
MA010120220805534822,광명초장,,I2,음식,I201,한식,I20101,백반/한정식,I56111,한식 일반 음식점업,31,울산광역시,31140,남구,31140635,수암동,3114010800,야음동,3.11401E+18,1,대지,700,7,울산광역시 남구 야음동 700-7,3.11404E+11,울산광역시 남구 수암로128번길,14,null,3.11401E+24,,울산광역시 남구 수암로128번길 14,680840,44749,,1,,129.319684,35.52671505
MA010120220805533764,성인용품,,G2,소매,G221,기타 상품 소매,G22199,그 외 기타 상품 전문 소매업,G47859,그 외 기타 분류 안된 상품 전문 소매업,31,울산광역시,31140,남구,31140560,달동,3114010500,달동,3.11401E+18,1,대지,873,2,울산광역시 남구 달동 873-2,3.11404E+11,울산광역시 남구 중앙로186번길,19,null,3.11401E+24,,울산광역시 남구 중앙로186번길 19,680802,44691,,null,,129.3156194,35.53843142
MA010120220805533515,비너스노래연습장,,R1,예술·스포츠,R104,유원지·오락,R10407,노래방,R91223,노래 연습장 운영업,31,울산광역시,31140,남구,31140570,삼산동,3114010500,달동,3.11401E+18,1,대지,1279,5,울산광역시 남구 달동 1279-5,3.11403E+11,울산광역시 남구 달삼로,42,null,3.11401E+24,,울산광역시 남구 달삼로 42,680804,44721,,2,,129.3338151,35.53582504
MA010120220805533280,60계치킨울산,,I2,음식,I210,기타 간이,I21006,치킨,I56193,치킨 전문점,31,울산광역시,31110,중구,31110650,성안동,3111010900,성안동,3.11101E+18,1,대지,400,3,울산광역시 중구 성안동 400-3,3.11103E+11,울산광역시 중구 성안로,184,null,3.11101E+24,,울산광역시 중구 성안로 184,681300,44421,,1,,129.3175676,35.57662556
MA010120220805535306,마야미의류,,G2,소매,G209,섬유·의복·신발 소매,G20902,여성 의류 소매업,G47412,여자용 겉옷 소매업,31,울산광역시,31110,중구,31110520,반구1동,3111011800,반구동,3.11101E+18,1,대지,644,33,울산광역시 중구 반구동 644-33,3.11104E+11,울산광역시 중구 반구정6길,20,null,3.11101E+24,,울산광역시 중구 반구정6길 20,681807,44502,,null,,129.3452809,35.55617533
MA010120220805535686,프로월드컵,,G2,소매,G209,섬유·의복·신발 소매,G20910,신발 소매업,G47430,신발 소매업,31,울산광역시,31140,남구,31140570,삼산동,3114010600,삼산동,3.11401E+18,1,대지,1377,8,울산광역시 남구 삼산동 1377-8,3.11404E+11,울산광역시 남구 번영로250번길,9,null,3.11401E+24,세이브존,울산광역시 남구 번영로250번길 9,680731,44696,,1,,129.3246222,35.54810304
MA010120220805535016,몰디브커피,,I2,음식,I212,비알코올 ,I21201,카페,I56221,커피 전문점,31,울산광역시,31710,울주군,31710262,청량읍,3171026226,청량읍,3.17103E+18,1,대지,908,null,울산광역시 울주군 청량읍 문죽리 908,3.17103E+11,울산광역시 울주군 청량읍 청량천변로,115,1,3.17103E+24,,울산광역시 울주군 청량읍 청량천변로 115-1,689864,44960,,null,,129.2600489,35.52756014
MA010120220805539371,옥교뒷고기,,I2,음식,I201,한식,I20107,돼지고기 구이/찜,I56111,한식 일반 음식점업,31,울산광역시,31110,중구,31110585,중앙동,3111010500,옥교동,3.11101E+18,1,대지,179,null,울산광역시 중구 옥교동 179,3.11103E+11,울산광역시 중구 장춘로,130,null,3.11101E+24,,울산광역시 중구 장춘로 130,681190,44530,,1,,129.3228331,35.55735207
MA010120220805538936,새열린약국,,G2,소매,G215,의약·화장품 소매,G21501,약국,G47811,의약품 및 의료용품 소매업,31,울산광역시,31710,울주군,31710253,언양읍,3171025330,언양읍,3.17103E+18,1,대지,163,3,울산광역시 울주군 언양읍 동부리 163-3,3.17104E+11,울산광역시 울주군 언양읍 동문길,64,null,3.17103E+24,,울산광역시 울주군 언양읍 동문길 64,689804,44942,,1,,129.1247419,35.56558198
