상가업소번호,상호명,지점명,상권업종대분류코드,상권업종대분류명,상권업종중분류코드,상권업종중분류명,상권업종소분류코드,상권업종소분류명,표준산업분류코드,표준산업분류명,시도코드,시도명,시군구코드,시군구명,행정동코드,행정동명,법정동코드,법정동명,지번코드,대지구분코드,대지구분명,지번본번지,지번부번지,지번주소,도로명코드,도로명,건물본번지,건물부번지,건물관리번호,건물명,도로명주소,구우편번호,신우편번호,동정보,층정보,호정보,경도,위도
MA0101202210A0047972,우리동네힐링샵,,G2,소매,G215,의약·화장품 소매,G21502,의료기기 소매업,G47812,의료용 기구 소매업,44,충청남도,44270,당진시,44270390,송산면,4427039022,송산면,4.42704E+18,1,대지,11,null,충청남도 당진시 송산면 금암리 11,4.42703E+11,충청남도 당진시 송산면 송산로,164,null,4.48304E+24,대상아파트,충청남도 당진시 송산면 송산로 164,343754,31717,,4,,126.6603281,36.92193505
MA0101202210A0096646,진주댁아나고구이,,I2,음식,I201,한식,I20101,백반/한정식,I56111,한식 일반 음식점업,44,충청남도,44133,천안시 서북구,44133540,쌍용2동,4413310700,쌍용동,4.41331E+18,1,대지,768,null,충청남도 천안시 서북구 쌍용동 768,4.41335E+11,충청남도 천안시 서북구 쌍용16길,8,null,4.41331E+24,OK자동차정비,충청남도 천안시 서북구 쌍용16길 8,331948,31172,,null,,127.1213244,36.80011396
MA010120220805430836,황산벌스포츠,,G2,소매,G213,오락용품 소매,G21304,운동용품 소매업,G47631,운동 및 경기용품 소매업,44,충청남도,44230,논산시,44230510,취암동,4423010500,취암동,4.42301E+18,1,대지,372,98,충청남도 논산시 취암동 372-98,4.42305E+11,충청남도 논산시 시민로360번길,7,1,4.42301E+24,,충청남도 논산시 시민로360번길 7-1,320804,32954,,null,,127.0894649,36.19767788
MA010120220805430945,마왕마라탕홍성점,,I2,음식,I202,중식,I20202,마라탕/훠궈,I56121,중식 음식점업,44,충청남도,44800,홍성군,44800250,홍성읍,4480025021,홍성읍,4.48003E+18,1,대지,254,null,충청남도 홍성군 홍성읍 오관리 254,4.48005E+11,충청남도 홍성군 홍성읍 아문길29번길,55,null,4.48003E+24,,충청남도 홍성군 홍성읍 아문길29번길 55,350815,32230,,null,,126.6644817,36.60152134
MA010120220805430960,그라지애,,I2,음식,I210,기타 간이,I21001,빵/도넛,I56191,제과점업,44,충청남도,44250,계룡시,44250510,금암동,4425010100,금암동,4.42501E+18,1,대지,143,1,충청남도 계룡시 금암동 143-1,4.42505E+11,충청남도 계룡시 서금암3길,10,null,4.42501E+24,,충청남도 계룡시 서금암3길 10,321900,32827,,null,,127.2560319,36.27188512
MA010120220805431076,스마트공인중개사무소,,L1,부동산,L102,부동산 서비스,L10203,부동산 중개/대리업,L68221,부동산 중개 및 대리업,44,충청남도,44230,논산시,44230510,취암동,4423010900,내동,4.42301E+18,1,대지,955,null,충청남도 논산시 내동 955,4.42305E+11,충청남도 논산시 시민로210번길,9,1,4.42301E+24,,충청남도 논산시 시민로210번길 9-1,320804,32989,,null,,127.0982364,36.18619021
MA010120220805431275,히든당구클럽,,R1,예술·스포츠,R103,스포츠 서비스,R10310,당구장,R91135,당구장 운영업,44,충청남도,44230,논산시,44230510,취암동,4423010900,내동,4.42301E+18,1,대지,631,null,충청남도 논산시 내동 631,4.42303E+11,충청남도 논산시 중앙로,225,null,4.42301E+24,,충청남도 논산시 중앙로 225,320803,32989,,null,,127.1011073,36.18791517
MA010120220805431428,세븐스타코인노래연습장,,R1,예술·스포츠,R104,유원지·오락,R10407,노래방,R91223,노래 연습장 운영업,44,충청남도,44133,천안시 서북구,44133560,백석동,4413310300,백석동,4.41331E+18,1,대지,878,null,충청남도 천안시 서북구 백석동 878,4.41333E+11,충청남도 천안시 서북구 백석3로,131,null,4.41331E+24,빨간빌딩,충청남도 천안시 서북구 백석3로 131,331980,31158,,null,,127.1244596,36.8219813
MA010120220805431608,학암연가,,G2,소매,G204,종합 소매,G20404,슈퍼마켓,I55109,기타 일반 및 생활 숙박시설 운영업,44,충청남도,44825,태안군,44825350,원북면,4482535024,원북면,4.48254E+18,1,대지,515,122,충청남도 태안군 원북면 방갈리 515-122,4.48253E+11,충청남도 태안군 원북면 옥파로,1177,null,4.48254E+24,선창슈퍼민박,충청남도 태안군 원북면 옥파로 1177,357914,32105,,1,,126.2056393,36.89966309
MA010120220805431742,미도정,,I2,음식,I202,중식,I20201,중국집,I56121,중식 음식점업,44,충청남도,44200,아산시,44200253,배방읍,4420025324,배방읍,4.42003E+18,1,대지,66,5,충청남도 아산시 배방읍 공수리 66-5,4.42003E+11,충청남도 아산시 배방읍 모산로,165,null,4.42003E+24,,충청남도 아산시 배방읍 모산로 165,336852,31482,,null,,127.0609131,36.77537496
MA010120220805431794,연예인노래광장,,I2,음식,I211,주점,I21102,무도 유흥 주점,I56212,무도 유흥 주점업,44,충청남도,44270,당진시,44270510,당진1동,4427010100,읍내동,4.42701E+18,1,대지,638,23,충청남도 당진시 읍내동 638-23,4.42703E+11,충청남도 당진시 당진중앙3로,39,30,4.48303E+24,,충청남도 당진시 당진중앙3로 39-30,343924,31777,,2,,126.6286594,36.89167491
MA010120220805431933,국수나라,,I2,음식,I201,한식,I20105,국수/칼국수,I56111,한식 일반 음식점업,44,충청남도,44810,예산군,44810250,예산읍,4481025021,예산읍,4.48103E+18,1,대지,333,1,충청남도 예산군 예산읍 예산리 333-1,4.48103E+11,충청남도 예산군 예산읍 형제고개로,967,null,4.48103E+24,,충청남도 예산군 예산읍 형제고개로 967,340804,32438,,1,,126.8494485,36.67722029
MA010120220805431831,초원약초,,G2,소매,G205,식료품 소매,G20506,채소/과일 소매업,G47215,"채소, 과실 및 뿌리작물 소매업",44,충청남도,44710,금산군,44710350,남일면,4471035024,남일면,4.47104E+18,1,대지,456,null,충청남도 금산군 남일면 초현리 456,4.47103E+11,충청남도 금산군 남일면 봉황로,42,null,4.47104E+24,,충청남도 금산군 남일면 봉황로 42,312851,32758,,null,,127.5020961,36.03982931
MA010120220805431853,오르만홈,,G2,소매,G209,섬유·의복·신발 소매,G20906,침구류/커튼 소매업,G47421,가정용 직물제품 소매업,44,충청남도,44131,천안시 동남구,44131520,문성동,4413110200,성황동,4.41311E+18,1,대지,44,1,충청남도 천안시 동남구 성황동 44-1,4.41315E+11,충청남도 천안시 동남구 복자1길,5,null,4.41311E+24,,충청남도 천안시 동남구 복자1길 5,330130,31122,,2,,127.1504787,36.81462728
MA010120220805431893,에이플러스펜션모텔,,I1,숙박,I101,일반 숙박,I10103,펜션,I55102,여관업,44,충청남도,44770,서천군,44770320,화양면,4477032038,화양면,4.47703E+18,1,대지,185,3,충청남도 서천군 화양면 망월리 185-3,4.47705E+11,충청남도 서천군 화양면 장산로1040번길,15,null,4.47703E+24,나드리에1관모텔,충청남도 서천군 화양면 장산로1040번길 15,325851,33629,,null,,126.7535202,36.02976086
MA010120220805431941,구구이,,I2,음식,I201,한식,I20101,백반/한정식,I56111,한식 일반 음식점업,44,충청남도,44200,아산시,44200580,온양2동,4420010100,온천동,4.42001E+18,1,대지,87,2,충청남도 아산시 온천동 87-2,4.42003E+11,충청남도 아산시 온천대로,1510,4,4.42001E+24,,충청남도 아산시 온천대로 1510-4,336012,31514,,1,,127.0053477,36.78077189
MA010120220805431942,우리끼리키즈카페꿈꾸는마을천안,,R1,예술·스포츠,R103,스포츠 서비스,R10314,기타 스포츠시설 운영업,R91139,그 외 기타 스포츠시설 운영업,44,충청남도,44133,천안시 서북구,44133567,불당2동,4413310800,불당동,4.41331E+18,1,대지,1469,null,충청남도 천안시 서북구 불당동 1469,4.41333E+11,충청남도 천안시 서북구 불당24로,45,7,4.41331E+24,,충청남도 천안시 서북구 불당24로 45-7,331230,31156,,2,,127.1071424,36.82287986
MA010120220805432243,햇살담은창커튼&블라인드,,G2,소매,G209,섬유·의복·신발 소매,G20906,침구류/커튼 소매업,G47421,가정용 직물제품 소매업,44,충청남도,44133,천안시 서북구,44133510,성정1동,4413310200,성정동,4.41331E+18,1,대지,128,7,충청남도 천안시 서북구 성정동 128-7,4.41335E+11,충청남도 천안시 서북구 선영10길,35,3,4.41331E+24,,충청남도 천안시 서북구 선영10길 35-3,331998,31143,,1,,127.1457424,36.81622446
MA010120220805432310,천안정호두과자,,I2,음식,I210,기타 간이,I21001,빵/도넛,I56191,제과점업,44,충청남도,44270,당진시,44270530,당진3동,4427010500,시곡동,4.42701E+18,1,대지,86,6,충청남도 당진시 시곡동 86-6,4.42703E+11,충청남도 당진시 서해로,6298,null,4.48303E+24,,충청남도 당진시 서해로 6298,343060,31765,,null,,126.6852497,36.90131673
MA010120220805433701,부엉이종합인테리어,,M1,과학·기술,M112,전문 디자인,M11201,인테리어 디자인업,F42412,"도배, 실내 장식 및 내장 목공사업",44,충청남도,44133,천안시 서북구,44133250,성환읍,4413325021,성환읍,4.41333E+18,1,대지,449,513,충청남도 천안시 서북구 성환읍 성환리 449-513,4.41335E+11,충청남도 천안시 서북구 성환읍 성환시장길,15,3,4.41333E+24,,충청남도 천안시 서북구 성환읍 성환시장길 15-3,331805,31014,,null,,127.1297614,36.91889448
MA010120220805433655,계룡건강원,,G2,소매,G205,식료품 소매,G20508,건강보조식품 소매업,C10796,건강 보조용 액화식품 제조업,44,충청남도,44250,계룡시,44250510,금암동,4425010100,금암동,4.42501E+18,1,대지,174,5,충청남도 계룡시 금암동 174-5,4.42505E+11,충청남도 계룡시 장안1길,8,null,4.42501E+24,,충청남도 계룡시 장안1길 8,321900,32824,,null,,127.2483965,36.27190047
MA010120220805433974,청해막회집,,G2,소매,G205,식료품 소매,G20505,수산물 소매업,G47214,"신선, 냉동 및 기타 수산물 소매업",44,충청남도,44180,보령시,44180250,웅천읍,4418025021,웅천읍,4.41803E+18,1,대지,463,8,충청남도 보령시 웅천읍 대창리 463-8,4.41805E+11,충청남도 보령시 웅천읍 장터5길,7,null,4.41803E+24,,충청남도 보령시 웅천읍 장터5길 7,355853,33521,,1,,126.6000928,36.23319335
MA010120220805433800,해미복지용구,,G2,소매,G215,의약·화장품 소매,G21502,의료기기 소매업,G47812,의료용 기구 소매업,44,충청남도,44210,서산시,44210390,해미면,4421039021,해미면,4.42104E+18,1,대지,184,1,충청남도 서산시 해미면 읍내리 184-1,4.42103E+11,충청남도 서산시 해미면 남문1로,47,null,4.42104E+24,해미구시장재개발,충청남도 서산시 해미면 남문1로 47,356826,31960,,null,,126.5465426,36.71123301
MA010120220805434182,카페레브,,I2,음식,I212,비알코올 ,I21201,카페,I56221,커피 전문점,44,충청남도,44270,당진시,44270510,당진1동,4427010600,수청동,4.42701E+18,1,대지,1062,null,충청남도 당진시 수청동 1062,4.42703E+11,충청남도 당진시 남부로,260,6,4.42701E+24,,충청남도 당진시 남부로 260-6,343050,31778,,1,,126.6454611,36.88555085
MA010120220805434076,크루아삼육,,S2,수리·개인,S203,자동차 수리·세차,S20302,자동차 세차장,S95213,자동차 세차업,44,충청남도,44131,천안시 동남구,44131570,신방동,4413111600,신방동,4.41311E+18,1,대지,1977,null,충청남도 천안시 동남구 신방동 1977,4.41313E+11,충청남도 천안시 동남구 통정8로,58,null,4.41311E+24,,충청남도 천안시 동남구 통정8로 58,330260,31207,,1,,127.1323596,36.76953721
MA010120220805433494,오늘도짬뽕,,I2,음식,I202,중식,I20201,중국집,I56121,중식 음식점업,44,충청남도,44133,천안시 서북구,44133520,성정2동,4413310200,성정동,4.41331E+18,1,대지,1232,null,충청남도 천안시 서북구 성정동 1232,4.41335E+11,충청남도 천안시 서북구 성정중5길,10,null,4.41331E+24,하이파크,충청남도 천안시 서북구 성정중5길 10,331937,31108,,1,,127.1348211,36.82757226
MA010120220805432703,H스타일천연화장품,,G2,소매,G215,의약·화장품 소매,G21503,화장품 소매업,G47813,"화장품, 비누 및 방향제 소매업",44,충청남도,44150,공주시,44150560,옥룡동,4415010900,옥룡동,4.41501E+18,1,대지,283,70,충청남도 공주시 옥룡동 283-70,4.41505E+11,충청남도 공주시 중골1길,16,1,4.41501E+24,,충청남도 공주시 중골1길 16-1,314804,32561,,2,,127.1330024,36.4546014
MA010120220805432584,희미한옛사랑의그림자,,I2,음식,I211,주점,I21103,생맥주 전문,I56111,한식 일반 음식점업,44,충청남도,44133,천안시 서북구,44133580,부성1동,4413310400,두정동,4.41331E+18,1,대지,1507,null,충청남도 천안시 서북구 두정동 1507,4.41333E+11,충청남도 천안시 서북구 두정로,233,null,4.41331E+24,,충청남도 천안시 서북구 두정로 233,331962,31102,,1,,127.1429469,36.83373198
MA010120220805433331,모모의주방,,I2,음식,I201,한식,I20101,백반/한정식,I56111,한식 일반 음식점업,44,충청남도,44825,태안군,44825250,태안읍,4482525022,태안읍,4.48253E+18,1,대지,699,1,충청남도 태안군 태안읍 남문리 699-1,4.48255E+11,충청남도 태안군 태안읍 군청5길,22,4,4.48253E+24,,충청남도 태안군 태안읍 군청5길 22-4,357901,32144,,null,,126.3011459,36.74825327
MA010120220805433107,은성플러스,,I2,음식,I207,구내식당·뷔페,I20701,구내식당,I56130,기관 구내식당업,44,충청남도,44810,예산군,44810253,삽교읍,4481025341,삽교읍,4.48103E+18,1,대지,177,null,충청남도 예산군 삽교읍 월산리 177,4.48105E+11,충청남도 예산군 삽교읍 산단1길,130,null,4.48103E+24,은성전자,충청남도 예산군 삽교읍 산단1길 130,340905,32415,,null,,126.7595952,36.67125373
MA010120220805432418,맘스터치공주대,,I2,음식,I210,기타 간이,I21004,버거,I56192,"피자, 햄버거, 샌드위치 및 유사 음식점업",44,충청남도,44150,공주시,44150570,신관동,4415012000,신관동,4.41501E+18,1,대지,31,17,충청남도 공주시 신관동 31-17,4.41503E+11,충청남도 공주시 번영1로,116,8,4.41501E+24,,충청남도 공주시 번영1로 116-8,314802,32582,,1,,127.1402103,36.47369625
MA010120220805432484,김셰프사과발효빵,,I2,음식,I210,기타 간이,I21003,피자,I56192,"피자, 햄버거, 샌드위치 및 유사 음식점업",44,충청남도,44810,예산군,44810360,덕산면,4481036027,덕산면,4.48104E+18,1,대지,148,7,충청남도 예산군 덕산면 시량리 148-7,4.48103E+11,충청남도 예산군 덕산면 덕산온천로,169,null,4.48104E+24,,충청남도 예산군 덕산면 덕산온천로 169,340924,32407,,null,,126.6509971,36.68584301
MA010120220805432733,시골백반,,I2,음식,I201,한식,I20101,백반/한정식,I56111,한식 일반 음식점업,44,충청남도,44710,금산군,44710370,진산면,4471037028,진산면,4.47104E+18,1,대지,554,10,충청남도 금산군 진산면 읍내리 554-10,4.47103E+11,충청남도 금산군 진산면 읍내로,64,null,4.47104E+24,휴게실제과,충청남도 금산군 진산면 읍내로 64,312933,32704,,null,,127.3700188,36.14371238
MA010120220805433007,미르공인중개사사무소,,L1,부동산,L102,부동산 서비스,L10203,부동산 중개/대리업,L68221,부동산 중개 및 대리업,44,충청남도,44210,서산시,44210550,석남동,4421010900,예천동,4.42101E+18,1,대지,1701,null,충청남도 서산시 예천동 1701,4.42103E+11,충청남도 서산시 예천4로,48,1,4.42101E+24,,충청남도 서산시 예천4로 48-1,356110,32005,,null,,126.4523135,36.76540933
MA010120220805432561,탑클린,,N1,시설관리·임대,N102,청소·방제,N10201,건축물 일반 청소업,N74211,건축물 일반 청소업,44,충청남도,44210,서산시,44210340,지곡면,4421034021,지곡면,4.42103E+18,1,대지,294,4,충청남도 서산시 지곡면 화천리 294-4,4.42103E+11,충청남도 서산시 지곡면 화천1로,75,null,4.42103E+24,가야공인중개사,충청남도 서산시 지곡면 화천1로 75,356863,31919,,1,,126.4361426,36.8633635
MA010120220805433262,요리하는오빠,,I2,음식,I201,한식,I20101,백반/한정식,I56111,한식 일반 음식점업,44,충청남도,44133,천안시 서북구,44133256,직산읍,4413325626,직산읍,4.41333E+18,1,대지,302,null,충청남도 천안시 서북구 직산읍 삼은리 302,4.41335E+11,충청남도 천안시 서북구 직산읍 삼은3길,20,null,4.41333E+24,,충청남도 천안시 서북구 직산읍 삼은3길 20,331816,31037,,2,,127.1515472,36.87822083
MA010120220805432826,마스터바니에디션신세계,,G2,소매,G209,섬유·의복·신발 소매,G20905,기타 의류 소매업,G47419,기타 의복 소매업,44,충청남도,44131,천안시 동남구,44131590,신안동,4413111800,신부동,4.41311E+18,1,대지,361,1,충청남도 천안시 동남구 신부동 361-1,4.41313E+11,충청남도 천안시 동남구 만남로,43,null,4.41311E+24,신세계백화점천안아산점천안종합버스터미널,충청남도 천안시 동남구 만남로 43,330942,31120,,3,,127.157847,36.8193207
MA010120220805433136,롤링테이블,,I2,음식,I201,한식,I20101,백반/한정식,I56111,한식 일반 음식점업,44,충청남도,44133,천안시 서북구,44133550,쌍용3동,4413310700,쌍용동,4.41331E+18,1,대지,1978,null,충청남도 천안시 서북구 쌍용동 1978,4.41335E+11,충청남도 천안시 서북구 쌍용9길,2,null,4.41331E+24,,충청남도 천안시 서북구 쌍용9길 2,331956,31166,,1,,127.1198,36.80211228
MA010120220805436026,청구개발,,N1,시설관리·임대,N102,청소·방제,N10201,건축물 일반 청소업,N74211,건축물 일반 청소업,44,충청남도,44810,예산군,44810250,예산읍,4481025021,예산읍,4.48103E+18,1,대지,109,3,충청남도 예산군 예산읍 예산리 109-3,4.48103E+11,충청남도 예산군 예산읍 아리랑로,207,1,4.48103E+24,,충청남도 예산군 예산읍 아리랑로 207-1,340804,32434,,null,,126.849715,36.68261181
MA010120220805435727,본푸드서비스대상천안공장점,,I2,음식,I207,구내식당·뷔페,I20701,구내식당,I56130,기관 구내식당업,44,충청남도,44133,천안시 서북구,44133590,부성2동,4413310600,차암동,4.41331E+18,1,대지,54,1,충청남도 천안시 서북구 차암동 54-1,4.41333E+11,충청남도 천안시 서북구 2공단5로,51,null,4.41331E+24,대상식품,충청남도 천안시 서북구 2공단5로 51,331200,31075,,2,,127.1186861,36.85429931
MA010120220805435867,법무법인승평,,M1,과학·기술,M103,법무관련 ,M10301,변호사,M71101,변호사업,44,충청남도,44131,천안시 동남구,44131580,청룡동,4413111100,청당동,4.41311E+18,1,대지,485,null,충청남도 천안시 동남구 청당동 485,4.41313E+11,충청남도 천안시 동남구 청수14로,68,null,4.41311E+24,,충청남도 천안시 동남구 청수14로 68,330270,31198,,null,,127.153983,36.78440906
MA010120220805435688,충청남도옥외광고협회논산시지부,,M1,과학·기술,M105,광고,M10502,옥외/전시 광고 대행업,M71391,옥외 및 전시 광고업,44,충청남도,44230,논산시,44230253,연무읍,4423025324,연무읍,4.42303E+18,1,대지,878,4,충청남도 논산시 연무읍 동산리 878-4,4.42303E+11,충청남도 논산시 연무읍 동안로,901,null,4.42303E+24,,충청남도 논산시 연무읍 동안로 901,320833,33009,,null,,127.1043322,36.13216038
MA010120220805435842,세븐천안입장한성점,,G2,소매,G204,종합 소매,G20405,편의점,G47122,체인화 편의점,44,충청남도,44133,천안시 서북구,44133310,입장면,4413331024,입장면,4.41333E+18,1,대지,341,1,충청남도 천안시 서북구 입장면 도림리 341-1,4.41335E+11,충청남도 천안시 서북구 입장면 도림길,10,null,4.41333E+24,한성아파트,충청남도 천안시 서북구 입장면 도림길 10,331822,31061,,1,,127.245396,36.91537777
MA010120220805434472,비와이씨강원,,G2,소매,G209,섬유·의복·신발 소매,G20905,기타 의류 소매업,G47413,속옷 및 잠옷 소매업,44,충청남도,44131,천안시 동남구,44131510,중앙동,4413110400,사직동,4.41311E+18,1,대지,175,8,충청남도 천안시 동남구 사직동 175-8,4.41313E+11,충청남도 천안시 동남구 사직로,12,null,4.41311E+24,BYC할인매장,충청남도 천안시 동남구 사직로 12,330040,31129,,null,,127.149585,36.8011845
MA010120220805434601,옐로우스푼,,G2,소매,G204,종합 소매,G20405,편의점,G47122,체인화 편의점,44,충청남도,44133,천안시 서북구,44133590,부성2동,4413310600,차암동,4.41331E+18,1,대지,550,null,충청남도 천안시 서북구 차암동 550,4.41333E+11,충청남도 천안시 서북구 스마일시티2로,1,null,4.41331E+24,효성해링턴플레이스스마일시티,충청남도 천안시 서북구 스마일시티2로 1,331200,31085,,1,,127.1071593,36.84457991
MA010120220805435045,연못골,,I2,음식,I201,한식,I20101,백반/한정식,I56111,한식 일반 음식점업,44,충청남도,44800,홍성군,44800250,홍성읍,4480025021,홍성읍,4.48003E+18,1,대지,296,5,충청남도 홍성군 홍성읍 오관리 296-5,4.48005E+11,충청남도 홍성군 홍성읍 조양로143번길,26,null,4.48003E+24,,충청남도 홍성군 홍성읍 조양로143번길 26,350815,32222,,2,,126.6663168,36.60269537
MA010120220805434855,유케야,,I2,음식,I201,한식,I20101,백반/한정식,I56113,한식 육류 요리 전문점,44,충청남도,44133,천안시 서북구,44133590,부성2동,4413310400,두정동,4.41331E+18,1,대지,909,null,충청남도 천안시 서북구 두정동 909,4.41335E+11,충청남도 천안시 서북구 원두정10길,7,null,4.41331E+24,,충청남도 천안시 서북구 원두정10길 7,331959,31107,,1,,127.1347529,36.83362758
MA010120220805435060,한들스크린골프,,R1,예술·스포츠,R103,스포츠 서비스,R10311,골프 연습장,R91136,골프 연습장 운영업,44,충청남도,44133,천안시 서북구,44133560,백석동,4413310300,백석동,4.41331E+18,1,대지,101,10,충청남도 천안시 서북구 백석동 101-10,4.41333E+11,충청남도 천안시 서북구 한들2로,46,9,4.41331E+24,한들골프,충청남도 천안시 서북구 한들2로 46-9,331979,31097,,null,,127.1197635,36.8278132
MA010120220805435253,큰시장포차,,I2,음식,I211,주점,I21101,일반 유흥 주점,I56111,한식 일반 음식점업,44,충청남도,44800,홍성군,44800250,홍성읍,4480025022,홍성읍,4.48003E+18,1,대지,494,null,충청남도 홍성군 홍성읍 대교리 494,4.48005E+11,충청남도 홍성군 홍성읍 의사로57번길,13,10,4.48003E+24,,충청남도 홍성군 홍성읍 의사로57번길 13-10,350817,32221,,null,,126.669696,36.60247181
MA010120220805434447,올네이션테라피점,,G2,소매,G215,의약·화장품 소매,G21503,화장품 소매업,G47813,"화장품, 비누 및 방향제 소매업",44,충청남도,44133,천안시 서북구,44133510,성정1동,4413310200,성정동,4.41331E+18,1,대지,697,13,충청남도 천안시 서북구 성정동 697-13,4.41335E+11,충청남도 천안시 서북구 성정5길,14,null,4.41331E+24,,충청남도 천안시 서북구 성정5길 14,331968,31142,,null,,127.1396211,36.81736987
MA010120220805434637,대박통신,,G2,소매,G208,가전·통신 소매,G20802,핸드폰 소매업,G47312,통신기기 소매업,44,충청남도,44230,논산시,44230510,취암동,4423010500,취암동,4.42301E+18,1,대지,1062,9,충청남도 논산시 취암동 1062-9,4.42305E+11,충청남도 논산시 중앙로384번길,15,10,4.42301E+24,,충청남도 논산시 중앙로384번길 15-10,320803,32974,,1,,127.0907359,36.20027414
MA010120220805434457,다미,,S2,수리·개인,S207,이용·미용,S20701,미용실,S96112,두발 미용업,44,충청남도,44200,아산시,44200570,온양1동,4420010100,온천동,4.42001E+18,1,대지,305,7,충청남도 아산시 온천동 305-7,4.42005E+11,충청남도 아산시 청운로116번길,8,null,4.42001E+24,유희다방,충청남도 아산시 청운로116번길 8,336817,31520,,null,,127.008597,36.78421442
MA010120220805434525,스터디카페두잇,,R1,예술·스포츠,R102,도서관·사적지,R10202,독서실/스터디 카페,R90212,독서실 운영업,44,충청남도,44800,홍성군,44800250,홍성읍,4480025026,홍성읍,4.48003E+18,1,대지,106,8,충청남도 홍성군 홍성읍 남장리 106-8,4.48003E+11,충청남도 홍성군 홍성읍 홍장북로,424,null,4.48003E+24,,충청남도 홍성군 홍성읍 홍장북로 424,350807,32234,,3,,126.6689352,36.59275786
MA010120220805435022,광천새우젓상회현숙이네,,G2,소매,G205,식료품 소매,G20504,건어물/젓갈 소매업,G47213,건어물 및 젓갈류 소매업,44,충청남도,44800,홍성군,44800253,광천읍,4480025322,광천읍,4.48003E+18,1,대지,230,13,충청남도 홍성군 광천읍 광천리 230-13,4.48005E+11,충청남도 홍성군 광천읍 광천로277번길,35,null,4.48003E+24,,충청남도 홍성군 광천읍 광천로277번길 35,350902,32295,,null,,126.6242251,36.50062934
MA010120220805437566,멕시카나치킨,,I2,음식,I210,기타 간이,I21006,치킨,I56193,치킨 전문점,44,충청남도,44230,논산시,44230510,취암동,4423010900,내동,4.42301E+18,1,대지,1168,null,충청남도 논산시 내동 1168,4.42305E+11,충청남도 논산시 시민로132번길,44,7,4.42301E+24,,충청남도 논산시 시민로132번길 44-7,320803,32991,,null,,127.1061645,36.18022026
MA010120220805437945,누들보쌈,,I2,음식,I201,한식,I20103,족발/보쌈,I56111,한식 일반 음식점업,44,충청남도,44825,태안군,44825350,원북면,4482535024,원북면,4.48254E+18,1,대지,515,258,충청남도 태안군 원북면 방갈리 515-258,4.48253E+11,충청남도 태안군 원북면 옥파로,1152,null,4.48254E+24,,충청남도 태안군 원북면 옥파로 1152,357914,32105,,null,,126.2058262,36.89743129
MA010120220805437456,미니스톱만세,,G2,소매,G204,종합 소매,G20405,편의점,G47122,체인화 편의점,44,충청남도,44825,태안군,44825250,태안읍,4482525029,태안읍,4.48253E+18,1,대지,399,1,충청남도 태안군 태안읍 인평리 399-1,4.48253E+11,충청남도 태안군 태안읍 서해로,2120,null,4.48253E+24,,충청남도 태안군 태안읍 서해로 2120,357909,32138,,1,,126.3391664,36.75890038
MA010120220805437660,예원디자인,,M1,과학·기술,M112,전문 디자인,M11201,인테리어 디자인업,M73201,인테리어 디자인업,44,충청남도,44133,천안시 서북구,44133580,부성1동,4413310400,두정동,4.41331E+18,1,대지,1355,null,충청남도 천안시 서북구 두정동 1355,4.41333E+11,충청남도 천안시 서북구 오성로,95,10,4.41331E+24,,충청남도 천안시 서북구 오성로 95-10,331962,31106,,null,,127.1382894,36.83117506
MA010120220805438035,커브스당진클럽,,R1,예술·스포츠,R103,스포츠 서비스,R10307,헬스장,R91132,체력 단련시설 운영업,44,충청남도,44270,당진시,44270510,당진1동,4427010100,읍내동,4.42701E+18,1,대지,1529,null,충청남도 당진시 읍내동 1529,4.42705E+11,충청남도 당진시 북문로1길,41,16,4.42701E+24,,충청남도 당진시 북문로1길 41-16,343010,31768,,null,,126.631077,36.9020385
MA010120220805438186,먹고보자양꼬치,,I2,음식,I202,중식,I20201,중국집,I56121,중식 음식점업,44,충청남도,44133,천안시 서북구,44133256,직산읍,4413325626,직산읍,4.41333E+18,1,대지,76,61,충청남도 천안시 서북구 직산읍 삼은리 76-61,4.41335E+11,충청남도 천안시 서북구 직산읍 아랫말1길,7,1,4.41333E+24,,충청남도 천안시 서북구 직산읍 아랫말1길 7-1,331816,31037,,null,,127.1491998,36.87748312
MA010120220805437621,회빈루,,I2,음식,I202,중식,I20201,중국집,I56121,중식 음식점업,44,충청남도,44800,홍성군,44800250,홍성읍,4480025021,홍성읍,4.48003E+18,1,대지,331,6,충청남도 홍성군 홍성읍 오관리 331-6,4.48005E+11,충청남도 홍성군 홍성읍 조양로184번길,28,null,4.48003E+24,,충청남도 홍성군 홍성읍 조양로184번길 28,350816,32231,,null,,126.6702252,36.59963908
MA010120220805438407,끌리제,,G2,소매,G209,섬유·의복·신발 소매,G20902,여성 의류 소매업,G47412,여자용 겉옷 소매업,44,충청남도,44180,보령시,44180320,오천면,4418032021,오천면,4.41803E+18,1,대지,700,39,충청남도 보령시 오천면 소성리 700-39,4.41803E+11,충청남도 보령시 오천면 오천해안로,764,null,4.41803E+24,,충청남도 보령시 오천면 오천해안로 764,355843,33412,,2,,126.5196717,36.43782867
MA010120220805438416,7호점,,G2,소매,G222,중고 상품 소매,G22201,중고 상품 소매업,G47869,기타 중고 상품 소매업,44,충청남도,44133,천안시 서북구,44133510,성정1동,4413310200,성정동,4.41331E+18,1,대지,737,36,충청남도 천안시 서북구 성정동 737-36,4.41335E+11,충청남도 천안시 서북구 양지7길,23,null,4.41331E+24,,충청남도 천안시 서북구 양지7길 23,331969,31146,,null,,127.1384727,36.8128287
MA010120220805437268,한선생,,S2,수리·개인,S207,이용·미용,S20701,미용실,S96112,두발 미용업,44,충청남도,44150,공주시,44150510,중학동,4415010400,중동,4.41501E+18,1,대지,17,6,충청남도 공주시 중동 17-6,4.41503E+11,충청남도 공주시 무령로,256,null,4.41501E+24,,충청남도 공주시 무령로 256,314070,32562,,null,,127.1280338,36.45597111
MA010120220805436550,엠앤케이부동산개발,,L1,부동산,L102,부동산 서비스,L10203,부동산 중개/대리업,L68221,부동산 중개 및 대리업,44,충청남도,44133,천안시 서북구,44133590,부성2동,4413310600,차암동,4.41331E+18,1,대지,126,1,충청남도 천안시 서북구 차암동 126-1,4.41335E+11,충청남도 천안시 서북구 수레터2길,21,1,4.41331E+24,고궁원룸,충청남도 천안시 서북구 수레터2길 21-1,331200,31074,,null,,127.1137451,36.8510184
MA010120220805436690,청해수산,,G2,소매,G205,식료품 소매,G20505,수산물 소매업,G47214,"신선, 냉동 및 기타 수산물 소매업",44,충청남도,44200,아산시,44200590,온양3동,4420011300,모종동,4.42001E+18,1,대지,676,null,충청남도 아산시 모종동 676,4.42005E+11,충청남도 아산시 모종남로12번길,40,null,4.42001E+24,,충청남도 아산시 모종남로12번길 40,336040,31528,,null,,127.0225407,36.77751703
MA010120220805436958,아산청과,,G2,소매,G205,식료품 소매,G20506,채소/과일 소매업,G47215,"채소, 과실 및 뿌리작물 소매업",44,충청남도,44200,아산시,44200570,온양1동,4420010100,온천동,4.42001E+18,1,대지,92,1,충청남도 아산시 온천동 92-1,4.42005E+11,충청남도 아산시 시장남길,26,null,4.42001E+24,동덕슈퍼,충청남도 아산시 시장남길 26,336011,31513,,1,,127.0032736,36.78261994
MA010120220805436568,으뜸산업,,N1,시설관리·임대,N111,산업용품 대여,N11101,건설기계/장비 대여업,N76310,건설 및 토목공사용 기계ㆍ장비 임대업,44,충청남도,44270,당진시,44270320,석문면,4427032021,석문면,4.42703E+18,1,대지,796,5,충청남도 당진시 석문면 통정리 796-5,4.42703E+11,충청남도 당진시 석문면 대호만로,1185,1,4.48303E+24,,충청남도 당진시 석문면 대호만로 1185-1,343856,31703,,null,,126.5847493,36.9869737
MA010120220805437177,아버지가사온옛날통닭,,I2,음식,I210,기타 간이,I21006,치킨,I56111,한식 일반 음식점업,44,충청남도,44810,예산군,44810250,예산읍,4481025026,예산읍,4.48103E+18,1,대지,111,5,충청남도 예산군 예산읍 발연리 111-5,4.48103E+11,충청남도 예산군 예산읍 발연로,42,8,4.48103E+24,,충청남도 예산군 예산읍 발연로 42-8,340802,32428,,null,,126.8334014,36.69747542
MA010120220805437409,스마트광고인쇄기획,,M1,과학·기술,M114,인쇄·제품제작,M11401,명함/간판/광고물 제작,C18111,경 인쇄업,44,충청남도,44230,논산시,44230510,취암동,4423010500,취암동,4.42301E+18,1,대지,470,57,충청남도 논산시 취암동 470-57,4.42303E+11,충청남도 논산시 중앙로,337,null,4.42301E+24,가동,충청남도 논산시 중앙로 337,320804,32978,,null,,127.0928715,36.19539654
MA010120220805436990,정맥수학,,P1,교육,P105,일반 교육,P10501,입시·교과학원,P85501,일반 교과학원,44,충청남도,44270,당진시,44270530,당진3동,4427010400,원당동,4.42701E+18,1,대지,1184,null,충청남도 당진시 원당동 1184,4.42703E+11,충청남도 당진시 밤절로,62,null,4.48303E+24,와돈,충청남도 당진시 밤절로 62,343090,31771,,3,,126.6411161,36.90157705
MA010120220805439792,수림정,,I2,음식,I201,한식,I20101,백반/한정식,I56111,한식 일반 음식점업,44,충청남도,44131,천안시 동남구,44131570,신방동,4413111600,신방동,4.41311E+18,1,대지,1723,null,충청남도 천안시 동남구 신방동 1723,4.41313E+11,충청남도 천안시 동남구 통정6로,29,null,4.41311E+24,,충청남도 천안시 동남구 통정6로 29,330260,31205,,null,,127.13712,36.7745553
MA010120220805440262,추닭집백사장점,,I2,음식,I210,기타 간이,I21006,치킨,I56111,한식 일반 음식점업,44,충청남도,44825,태안군,44825253,안면읍,4482525323,안면읍,4.48253E+18,1,대지,1267,6,충청남도 태안군 안면읍 창기리 1267-6,4.48255E+11,충청남도 태안군 안면읍 백사장2길,9,2,4.48253E+24,,충청남도 태안군 안면읍 백사장2길 9-2,357965,32162,,1,,126.3177263,36.58395629
MA010120220805440263,오모차랜드,,G2,소매,G213,오락용품 소매,G21306,장난감 소매업,G47640,"게임용구, 인형 및 장난감 소매업",44,충청남도,44133,천안시 서북구,44133560,백석동,4413310300,백석동,4.41331E+18,1,대지,1108,null,충청남도 천안시 서북구 백석동 1108,4.41333E+11,충청남도 천안시 서북구 한들1로,126,15,4.41331E+24,,충청남도 천안시 서북구 한들1로 126-15,331220,31092,,2,,127.1198889,36.83350045
MA010120220805439853,윤주농원,,G2,소매,G205,식료품 소매,G20506,채소/과일 소매업,G47215,"채소, 과실 및 뿌리작물 소매업",44,충청남도,44131,천안시 동남구,44131530,원성1동,4413111200,유량동,4.41311E+18,1,대지,270,null,충청남도 천안시 동남구 유량동 270,4.41315E+11,충청남도 천안시 동남구 태조산길,141,38,4.41311E+24,,충청남도 천안시 동남구 태조산길 141-38,330952,31068,,null,,127.1782853,36.81677821
MA010120220805440202,카페그리니치,,I2,음식,I212,비알코올 ,I21201,카페,I56221,커피 전문점,44,충청남도,44210,서산시,44210540,수석동,4421010700,석림동,4.42101E+18,1,대지,795,6,충청남도 서산시 석림동 795-6,4.42103E+11,충청남도 서산시 동서1로,65,null,4.42101E+24,야베스빌딩,충청남도 서산시 동서1로 65,356819,32003,,1,,126.4628802,36.76852
MA010120220805439269,깐돌이노래연습장,,R1,예술·스포츠,R104,유원지·오락,R10407,노래방,R91223,노래 연습장 운영업,44,충청남도,44710,금산군,44710390,추부면,4471039023,추부면,4.47104E+18,1,대지,550,3,충청남도 금산군 추부면 마전리 550-3,4.47103E+11,충청남도 금산군 추부면 삼육로,7,null,4.47104E+24,,충청남도 금산군 추부면 삼육로 7,312941,32714,,2,,127.4660951,36.19094663
MA010120220805438641,요가공방&필라,,P1,교육,P106,기타 교육,P10603,요가/필라테스 학원,P85612,기타 스포츠 교육기관,44,충청남도,44800,홍성군,44800256,홍북읍,4480025625,홍북읍,4.48003E+18,1,대지,896,null,충청남도 홍성군 홍북읍 신경리 896,4.48003E+11,충청남도 홍성군 홍북읍 상하천로,31,null,4.48003E+24,국제아르페온1차,충청남도 홍성군 홍북읍 상하천로 31,350831,32263,,null,,126.6754098,36.65589267
MA010120220805439168,천안도시공인중개사사무소,,L1,부동산,L102,부동산 서비스,L10203,부동산 중개/대리업,L68221,부동산 중개 및 대리업,44,충청남도,44131,천안시 동남구,44131560,일봉동,4413111400,다가동,4.41311E+18,1,대지,378,2,충청남도 천안시 동남구 다가동 378-2,4.41315E+11,충청남도 천안시 동남구 차돌고개5길,15,null,4.41311E+24,,충청남도 천안시 동남구 차돌고개5길 15,330110,31154,,null,,127.1355788,36.79907393
MA010120220805438750,유민헤어,,S2,수리·개인,S207,이용·미용,S20701,미용실,S96112,두발 미용업,44,충청남도,44200,아산시,44200590,온양3동,4420011400,권곡동,4.42001E+18,1,대지,553,1,충청남도 아산시 권곡동 553-1,4.42003E+11,충청남도 아산시 번영로,136,null,4.42001E+24,,충청남도 아산시 번영로 136,336030,31514,,null,,127.0060554,36.78582431
MA010120220805441614,범수컷트,,S2,수리·개인,S207,이용·미용,S20701,미용실,S96112,두발 미용업,44,충청남도,44200,아산시,44200580,온양2동,4420010100,온천동,4.42001E+18,1,대지,152,12,충청남도 아산시 온천동 152-12,4.42005E+11,충청남도 아산시 온화로29번길,34,null,4.42001E+24,,충청남도 아산시 온화로29번길 34,336818,31570,,1,,127.001849,36.78016585
MA010120220805441991,통부심,,I2,음식,I201,한식,I20107,돼지고기 구이/찜,I56113,한식 육류 요리 전문점,44,충청남도,44133,천안시 서북구,44133590,부성2동,4413310400,두정동,4.41331E+18,1,대지,645,null,충청남도 천안시 서북구 두정동 645,4.41335E+11,충청남도 천안시 서북구 늘푸른4길,29,null,4.41331E+24,CJ프라자,충청남도 천안시 서북구 늘푸른4길 29,331958,31099,,1,,127.1304811,36.82673857
MA010120220805441891,부엉이샵,,G2,소매,G209,섬유·의복·신발 소매,G20905,기타 의류 소매업,G47422,의복 액세서리 및 모조 장신구 소매업,44,충청남도,44770,서천군,44770310,마서면,4477031033,마서면,4.47703E+18,1,대지,454,2,충청남도 서천군 마서면 도삼리 454-2,4.47705E+11,충청남도 서천군 마서면 도삼길,17,6,4.47703E+24,정가네백숙,충청남도 서천군 마서면 도삼길 17-6,325813,33657,,null,,126.7328487,36.02428092
MA010120220805442263,만득이,,I2,음식,I201,한식,I20107,돼지고기 구이/찜,I56113,한식 육류 요리 전문점,44,충청남도,44270,당진시,44270520,당진2동,4427010700,대덕동,4.42701E+18,1,대지,1628,null,충청남도 당진시 대덕동 1628,4.42705E+11,충청남도 당진시 먹거리길,112,5,4.48303E+24,삼마파라다이스,충청남도 당진시 먹거리길 112-5,343030,31776,,null,,126.6363925,36.88643835
MA010120220805442418,봄날테라피,,S2,수리·개인,S207,이용·미용,S20702,피부 관리실,S96113,피부 미용업,44,충청남도,44133,천안시 서북구,44133567,불당2동,4413310800,불당동,4.41331E+18,1,대지,1625,null,충청남도 천안시 서북구 불당동 1625,4.41335E+11,충청남도 천안시 서북구 불당33길,33,null,4.41331E+24,,충청남도 천안시 서북구 불당33길 33,331230,31156,,null,,127.1073259,36.81190508
MA010120220805441905,유일약국,,G2,소매,G215,의약·화장품 소매,G21501,약국,G47811,의약품 및 의료용품 소매업,44,충청남도,44150,공주시,44150570,신관동,4415012000,신관동,4.41501E+18,1,대지,24,126,충청남도 공주시 신관동 24-126,4.41503E+11,충청남도 공주시 번영1로,134,null,4.41501E+24,,충청남도 공주시 번영1로 134,314802,32581,,1,,127.1423134,36.47422508
MA010120220805442090,멋토탈패션,,G2,소매,G209,섬유·의복·신발 소매,G20902,여성 의류 소매업,G47412,여자용 겉옷 소매업,44,충청남도,44810,예산군,44810250,예산읍,4481025021,예산읍,4.48103E+18,1,대지,501,17,충청남도 예산군 예산읍 예산리 501-17,4.48105E+11,충청남도 예산군 예산읍 예산로194번길,26,null,4.48103E+24,,충청남도 예산군 예산읍 예산로194번길 26,340804,32436,,null,,126.8487811,36.67921442
MA010120220805441698,궁중화로,,I2,음식,I201,한식,I20107,돼지고기 구이/찜,I56113,한식 육류 요리 전문점,44,충청남도,44200,아산시,44200410,신창면,4420041022,신창면,4.42004E+18,1,대지,502,5,충청남도 아산시 신창면 읍내리 502-5,4.42005E+11,충청남도 아산시 신창면 순천향로15번길,17,null,4.42004E+24,샤인빌,충청남도 아산시 신창면 순천향로15번길 17,336885,31537,,1,,126.9336924,36.77521284
MA010120220805441841,신참떡볶이목천점,,I2,음식,I210,기타 간이,I21007,김밥/만두/분식,I56194,김밥 및 기타 간이 음식점업,44,충청남도,44131,천안시 동남구,44131250,목천읍,4413125033,목천읍,4.41313E+18,1,대지,134,9,충청남도 천안시 동남구 목천읍 신계리 134-9,4.41313E+11,충청남도 천안시 동남구 목천읍 충절로,896,null,4.41313E+24,황금상가,충청남도 천안시 동남구 목천읍 충절로 896,330846,31233,,null,,127.2100925,36.77333194
MA010120220805441307,감동쪽갈비,,I2,음식,I201,한식,I20107,돼지고기 구이/찜,I56113,한식 육류 요리 전문점,44,충청남도,44230,논산시,44230510,취암동,4423010900,내동,4.42301E+18,1,대지,1190,null,충청남도 논산시 내동 1190,4.42305E+11,충청남도 논산시 시민로132번길,36,21,4.42301E+24,,충청남도 논산시 시민로132번길 36-21,320803,32991,,1,,127.1056835,36.17949566
MA010120220805441248,피자파는집쌍용,,I2,음식,I210,기타 간이,I21003,피자,I56192,"피자, 햄버거, 샌드위치 및 유사 음식점업",44,충청남도,44133,천안시 서북구,44133550,쌍용3동,4413310700,쌍용동,4.41331E+18,1,대지,1343,null,충청남도 천안시 서북구 쌍용동 1343,4.41335E+11,충청남도 천안시 서북구 쌍용7길,27,null,4.41331E+24,라미스디자인,충청남도 천안시 서북구 쌍용7길 27,331956,31166,,1,,127.1216012,36.80138665
MA010120220805441633,포커스온스터디카페,,R1,예술·스포츠,R102,도서관·사적지,R10202,독서실/스터디 카페,R90212,독서실 운영업,44,충청남도,44200,아산시,44200253,배방읍,4420025324,배방읍,4.42003E+18,1,대지,42,1,충청남도 아산시 배방읍 공수리 42-1,4.42003E+11,충청남도 아산시 배방읍 모산로,185,null,4.42003E+24,리더스몰,충청남도 아산시 배방읍 모산로 185,336852,31482,,3,,127.0631291,36.77553662
MA010120220805441435,S무인텔,,I1,숙박,I101,일반 숙박,I10102,여관/모텔,I55102,여관업,44,충청남도,44760,부여군,44760310,규암면,4476031026,규암면,4.47603E+18,2,산,20,1,충청남도 부여군 규암면 합정리 산20-1,4.47603E+11,충청남도 부여군 규암면 서궁로,119,null,4.47603E+24,,충청남도 부여군 규암면 서궁로 119,323812,33115,,null,,126.8976668,36.31582939
MA010120220805440630,반올림피자샵목천점,,I2,음식,I210,기타 간이,I21003,피자,I56192,"피자, 햄버거, 샌드위치 및 유사 음식점업",44,충청남도,44131,천안시 동남구,44131250,목천읍,4413125033,목천읍,4.41313E+18,1,대지,170,5,충청남도 천안시 동남구 목천읍 신계리 170-5,4.41313E+11,충청남도 천안시 동남구 목천읍 충절로,935,5,4.41313E+24,,충청남도 천안시 동남구 목천읍 충절로 935-5,330846,31233,,null,,127.213103,36.77580309
MA010120220805440773,팡팡게임장,,R1,예술·스포츠,R104,유원지·오락,R10404,전자 게임장,R91221,전자 게임장 운영업,44,충청남도,44270,당진시,44270510,당진1동,4427010600,수청동,4.42701E+18,1,대지,996,null,충청남도 당진시 수청동 996,4.42703E+11,충청남도 당진시 밤절로,160,28,4.48303E+24,,충청남도 당진시 밤절로 160-28,343050,31771,,2,,126.6464298,36.9005744
MA010120220805441158,영동횟집,,I2,음식,I201,한식,I20111,횟집,I56114,한식 해산물 요리 전문점,44,충청남도,44180,보령시,44180565,대천5동,4418011000,신흑동,4.41801E+18,1,대지,1976,null,충청남도 보령시 신흑동 1976,4.41805E+11,충청남도 보령시 해수욕장5길,11,null,4.41801E+24,,충청남도 보령시 해수욕장5길 11,355944,33488,,null,,126.5166919,36.3058873
MA010120220805444454,양우내안애공인중개사사무소,,L1,부동산,L102,부동산 서비스,L10203,부동산 중개/대리업,L68221,부동산 중개 및 대리업,44,충청남도,44200,아산시,44200410,신창면,4420041025,신창면,4.42004E+18,1,대지,220,2,충청남도 아산시 신창면 행목리 220-2,4.42003E+11,충청남도 아산시 신창면 온천대로,1068,null,4.42004E+24,,충청남도 아산시 신창면 온천대로 1068,336884,31533,,1,,126.9580598,36.78327783
MA010120220805443542,쪽문만두,,I2,음식,I210,기타 간이,I21007,김밥/만두/분식,I56194,김밥 및 기타 간이 음식점업,44,충청남도,44131,천안시 동남구,44131510,중앙동,4413110400,사직동,4.41311E+18,1,대지,16,1,충청남도 천안시 동남구 사직동 16-1,4.41315E+11,충청남도 천안시 동남구 수선정길,1,null,4.41311E+24,,충청남도 천안시 동남구 수선정길 1,330040,31129,,null,,127.1492552,36.80365134
MA010120220805443564,필수굿,,R1,예술·스포츠,R103,스포츠 서비스,R10307,헬스장,R91132,체력 단련시설 운영업,44,충청남도,44131,천안시 동남구,44131570,신방동,4413111600,신방동,4.41311E+18,1,대지,71,8,충청남도 천안시 동남구 신방동 71-8,4.41313E+11,충청남도 천안시 동남구 수곡로,67,null,4.41311E+24,충무랜드,충청남도 천안시 동남구 수곡로 67,330938,31176,,7,,127.1269664,36.78877376
MA010120220805444134,엄마밥상,,I2,음식,I201,한식,I20101,백반/한정식,I56111,한식 일반 음식점업,44,충청남도,44270,당진시,44270253,송악읍,4427025338,송악읍,4.42703E+18,1,대지,194,1435,충청남도 당진시 송악읍 고대리 194-1435,4.42703E+11,충청남도 당진시 송악읍 북부산업로,1386,null,4.48303E+24,,충청남도 당진시 송악읍 북부산업로 1386,343823,31719,,null,,126.7348695,36.98119847
MA010120220805443901,경성제약충청총판,,G2,소매,G204,종합 소매,G20404,슈퍼마켓,G47129,기타 음ㆍ식료품 위주 종합 소매업,44,충청남도,44210,서산시,44210510,부춘동,4421010100,읍내동,4.42101E+18,1,대지,612,12,충청남도 서산시 읍내동 612-12,4.42103E+11,충청남도 서산시 부춘1로,38,null,4.42101E+24,,충청남도 서산시 부춘1로 38,356837,31973,,null,,126.4454907,36.7849194
MA010120220805444157,게스키즈,,G2,소매,G209,섬유·의복·신발 소매,G20905,기타 의류 소매업,G47419,기타 의복 소매업,44,충청남도,44760,부여군,44760310,규암면,4476031026,규암면,4.47603E+18,1,대지,172,null,충청남도 부여군 규암면 합정리 172,4.47603E+11,충청남도 부여군 규암면 백제문로,387,null,4.47603E+24,롯데프리미엄아울렛,충청남도 부여군 규암면 백제문로 387,323812,33115,,1,,126.9019748,36.30720831
MA010120220805444184,썬바이오,,G2,소매,G215,의약·화장품 소매,G21502,의료기기 소매업,G47812,의료용 기구 소매업,44,충청남도,44133,천안시 서북구,44133520,성정2동,4413310200,성정동,4.41331E+18,1,대지,647,9,충청남도 천안시 서북구 성정동 647-9,4.41332E+11,충청남도 천안시 서북구 쌍용대로,296,null,4.41331E+24,종근당빌딩,충청남도 천안시 서북구 쌍용대로 296,331973,31134,,null,,127.1371625,36.82371427
MA010120220805443790,29애비뉴,,S2,수리·개인,S207,이용·미용,S20701,미용실,S96112,두발 미용업,44,충청남도,44270,당진시,44270510,당진1동,4427010100,읍내동,4.42701E+18,1,대지,1582,null,충청남도 당진시 읍내동 1582,4.42705E+11,충청남도 당진시 북문로1길,29,null,4.42701E+24,하우스오브퍼스트,충청남도 당진시 북문로1길 29,343010,31768,,1,,126.6303905,36.90027343
MA010120220805444039,스테이오봉,,I1,숙박,I101,일반 숙박,I10103,펜션,I55109,기타 일반 및 생활 숙박시설 운영업,44,충청남도,44180,보령시,44180320,오천면,4418032027,오천면,4.41803E+18,1,대지,1671,21,충청남도 보령시 오천면 원산도리 1671-21,4.41805E+11,충청남도 보령시 오천면 원산도7길,117,23,4.41803E+24,,충청남도 보령시 오천면 원산도7길 117-23,355846,33411,,1,,126.4004102,36.36901908
MA010120220805443189,더몰트하우스,,I2,음식,I204,서양식,I20401,경양식,I56123,서양식 음식점업,44,충청남도,44133,천안시 서북구,44133567,불당2동,4413310800,불당동,4.41331E+18,1,대지,1683,null,충청남도 천안시 서북구 불당동 1683,4.41335E+11,충청남도 천안시 서북구 불당31길,22,null,4.41331E+24,,충청남도 천안시 서북구 불당31길 22,331230,31156,,1,,127.1056408,36.80935114
MA010120220805443374,우리요소수,,G2,소매,G221,기타 상품 소매,G22199,그 외 기타 상품 전문 소매업,G47859,그 외 기타 분류 안된 상품 전문 소매업,44,충청남도,44790,청양군,44790310,운곡면,4479031028,운곡면,4.47903E+18,1,대지,699,3,충청남도 청양군 운곡면 광암리 699-3,4.47903E+11,충청남도 청양군 운곡면 청신로,1399,null,4.47903E+24,,충청남도 청양군 운곡면 청신로 1399,345871,33313,,null,,126.8536439,36.56925547
MA010120220805442704,세븐일레븐천안수신점,,G2,소매,G204,종합 소매,G20405,편의점,G47122,체인화 편의점,44,충청남도,44131,천안시 동남구,44131350,수신면,4413135021,수신면,4.41314E+18,1,대지,236,9,충청남도 천안시 동남구 수신면 속창리 236-9,4.41313E+11,충청남도 천안시 동남구 수신면 수신로,409,null,4.41314E+24,삼거리호프,충청남도 천안시 동남구 수신면 수신로 409,330882,31251,,1,,127.2794411,36.72938891
MA010120220805442966,유구당구클럽,,R1,예술·스포츠,R103,스포츠 서비스,R10310,당구장,R91135,당구장 운영업,44,충청남도,44150,공주시,44150250,유구읍,4415025023,유구읍,4.41503E+18,1,대지,349,2,충청남도 공주시 유구읍 석남리 349-2,4.41503E+11,충청남도 공주시 유구읍 유구마곡사로,22,null,4.41503E+24,,충청남도 공주시 유구읍 유구마곡사로 22,314896,32506,,null,,126.9536815,36.55008796
MA010120220805442968,이마트24홍성월산,,G2,소매,G204,종합 소매,G20405,편의점,G47122,체인화 편의점,44,충청남도,44800,홍성군,44800250,홍성읍,4480025024,홍성읍,4.48003E+18,1,대지,847,10,충청남도 홍성군 홍성읍 월산리 847-10,4.48005E+11,충청남도 홍성군 홍성읍 월산로50번길,14,null,4.48003E+24,,충청남도 홍성군 홍성읍 월산로50번길 14,350819,32226,,1,,126.647732,36.59936794
MA010120220805443296,태안신발,,G2,소매,G209,섬유·의복·신발 소매,G20910,신발 소매업,G47430,신발 소매업,44,충청남도,44825,태안군,44825250,태안읍,4482525022,태안읍,4.48253E+18,1,대지,638,2,충청남도 태안군 태안읍 남문리 638-2,4.48255E+11,충청남도 태안군 태안읍 시장3길,11,3,4.48253E+24,,충청남도 태안군 태안읍 시장3길 11-3,357901,32143,,null,,126.2958364,36.75340365
MA010120220805442991,곰섬황토빌리지,,I1,숙박,I101,일반 숙박,I10102,여관/모텔,I55109,기타 일반 및 생활 숙박시설 운영업,44,충청남도,44825,태안군,44825320,남면,4482532028,남면,4.48253E+18,1,대지,893,7,충청남도 태안군 남면 신온리 893-7,4.48253E+11,충청남도 태안군 남면 곰섬로,474,null,4.48253E+24,,충청남도 태안군 남면 곰섬로 474,357953,32158,,null,,126.2943002,36.58678622
MA010120220805446340,지퍼스트,,N1,시설관리·임대,N104,고용 알선,N10403,상용 인력 공급 및 인사관리 서비스업,N75122,상용 인력 공급 및 인사관리 서비스업,44,충청남도,44131,천안시 동남구,44131540,원성2동,4413110700,원성동,4.41311E+18,1,대지,584,18,충청남도 천안시 동남구 원성동 584-18,4.41315E+11,충청남도 천안시 동남구 원거리6길,6,null,4.41311E+24,,충청남도 천안시 동남구 원거리6길 6,330954,31186,,1,,127.1587416,36.79902374
MA010120220805446221,포레스트앤,,M1,과학·기술,M107,본사·경영 컨설팅,M10703,경영 컨설팅업,M71531,경영 컨설팅업,44,충청남도,44200,아산시,44200330,탕정면,4420033023,탕정면,4.42003E+18,1,대지,106,null,충청남도 아산시 탕정면 동산리 106,4.42003E+11,충청남도 아산시 탕정면 삼성로,441,null,4.42003E+24,,충청남도 아산시 탕정면 삼성로 441,336842,31458,,1,,127.0867143,36.82235524
MA010120220805445514,돼지먹소,,I2,음식,I201,한식,I20107,돼지고기 구이/찜,I56113,한식 육류 요리 전문점,44,충청남도,44230,논산시,44230520,부창동,4423011000,강산동,4.42301E+18,1,대지,571,null,충청남도 논산시 강산동 571,4.42305E+11,충청남도 논산시 부창로100번길,19,4,4.42301E+24,,충청남도 논산시 부창로100번길 19-4,320080,32976,,null,,127.0881805,36.19433347
MA010120220805445929,하이웨이디씨클럽성환점,,G2,소매,G204,종합 소매,G20404,슈퍼마켓,G47121,슈퍼마켓,44,충청남도,44133,천안시 서북구,44133250,성환읍,4413325021,성환읍,4.41333E+18,1,대지,449,333,충청남도 천안시 서북구 성환읍 성환리 449-333,4.41333E+11,충청남도 천안시 서북구 성환읍 성환1로,213,null,4.41333E+24,A마트,충청남도 천안시 서북구 성환읍 성환1로 213,331805,31011,,null,,127.1275164,36.9140028
MA010120220805446246,함께,,R1,예술·스포츠,R103,스포츠 서비스,R10311,골프 연습장,R91136,골프 연습장 운영업,44,충청남도,44180,보령시,44180410,주교면,4418041022,주교면,4.41804E+18,1,대지,55,1,충청남도 보령시 주교면 은포리 55-1,4.41803E+11,충청남도 보령시 주교면 토정로,486,46,4.41804E+24,,충청남도 보령시 주교면 토정로 486-46,355923,33417,,null,,126.5497665,36.37821624
MA010120220805446441,대영에이치알,,N1,시설관리·임대,N104,고용 알선,N10403,상용 인력 공급 및 인사관리 서비스업,N75122,상용 인력 공급 및 인사관리 서비스업,44,충청남도,44131,천안시 동남구,44131360,병천면,4413136022,병천면,4.41314E+18,1,대지,210,8,충청남도 천안시 동남구 병천면 병천리 210-8,4.41315E+11,충청남도 천안시 동남구 병천면 아우내순대길,26,null,4.41314E+24,일반음식점,충청남도 천안시 동남구 병천면 아우내순대길 26,330861,31254,,2,,127.2985433,36.75989999
MA010120220805445427,왕다방,,I2,음식,I212,비알코올 ,I21201,카페,I56229,기타 비알코올 음료점업,44,충청남도,44270,당진시,44270250,합덕읍,4427025021,합덕읍,4.42703E+18,1,대지,255,29,충청남도 당진시 합덕읍 운산리 255-29,4.42703E+11,충청남도 당진시 합덕읍 합덕시장로,136,null,4.48303E+24,서울식당,충청남도 당진시 합덕읍 합덕시장로 136,343907,31812,,2,,126.7730931,36.80660151
MA010120220805445063,칭구야,,I2,음식,I211,주점,I21104,요리 주점,I56219,기타 주점업,44,충청남도,44133,천안시 서북구,44133530,쌍용1동,4413310700,쌍용동,4.41331E+18,1,대지,807,null,충청남도 천안시 서북구 쌍용동 807,4.41335E+11,충청남도 천안시 서북구 봉서5길,26,null,4.41331E+24,아리아리,충청남도 천안시 서북구 봉서5길 26,331949,31149,,1,,127.1325472,36.80954143
MA010120220805445254,등산로식당,,I2,음식,I201,한식,I20101,백반/한정식,I56111,한식 일반 음식점업,44,충청남도,44150,공주시,44150340,반포면,4415034030,반포면,4.41503E+18,1,대지,352,1,충청남도 공주시 반포면 상신리 352-1,4.41505E+11,충청남도 공주시 반포면 상하신길,454,4,4.41503E+24,,충청남도 공주시 반포면 상하신길 454-4,314923,32625,,1,,127.2140412,36.38361396
MA010120220805445258,티나,,G2,소매,G209,섬유·의복·신발 소매,G20902,여성 의류 소매업,G47412,여자용 겉옷 소매업,44,충청남도,44770,서천군,44770253,서천읍,4477025321,서천읍,4.47703E+18,1,대지,715,12,충청남도 서천군 서천읍 군사리 715-12,4.47703E+11,충청남도 서천군 서천읍 서천로,117,null,4.47703E+24,,충청남도 서천군 서천읍 서천로 117,325802,33642,,null,,126.6870607,36.07846635
MA010120220805444721,서울마님죽,,I2,음식,I201,한식,I20101,백반/한정식,I56111,한식 일반 음식점업,44,충청남도,44133,천안시 서북구,44133510,성정1동,4413310200,성정동,4.41331E+18,1,대지,728,5,충청남도 천안시 서북구 성정동 728-5,4.41333E+11,충청남도 천안시 서북구 성정로,94,null,4.41331E+24,천안공동어시장,충청남도 천안시 서북구 성정로 94,331969,31146,,null,,127.1404822,36.81352812
MA010120220805444911,벌크커피당진점,,I2,음식,I212,비알코올 ,I21201,카페,I56221,커피 전문점,44,충청남도,44270,당진시,44270530,당진3동,4427010400,원당동,4.42701E+18,1,대지,824,null,충청남도 당진시 원당동 824,4.42703E+11,충청남도 당진시 정안로,20,null,4.48303E+24,롯데마트,충청남도 당진시 정안로 20,343090,31767,,1,,126.6462834,36.90568202
MA010120220805447519,공차당진기지시점,,I2,음식,I212,비알코올 ,I21201,카페,I56221,커피 전문점,44,충청남도,44270,당진시,44270253,송악읍,4427025321,송악읍,4.42703E+18,1,대지,153,17,충청남도 당진시 송악읍 기지시리 153-17,4.42703E+11,충청남도 당진시 송악읍 반촌로,96,null,4.48303E+24,,충청남도 당진시 송악읍 반촌로 96,343825,31733,,1,,126.6942809,36.90401154
MA010120220805448285,신선식품,,I2,음식,I201,한식,I20107,돼지고기 구이/찜,I56113,한식 육류 요리 전문점,44,충청남도,44270,당진시,44270520,당진2동,4427010200,채운동,4.42701E+18,1,대지,26,null,충청남도 당진시 채운동 26,4.42703E+11,충청남도 당진시 아미로,833,null,4.42701E+24,,충청남도 당진시 아미로 833,343926,31786,,null,,126.6311869,36.88269295
MA010120220805447938,장원각,,I2,음식,I202,중식,I20201,중국집,I56121,중식 음식점업,44,충청남도,44210,서산시,44210510,부춘동,4421010100,읍내동,4.42101E+18,1,대지,139,12,충청남도 서산시 읍내동 139-12,4.42103E+11,충청남도 서산시 번화2로,2,null,4.42101E+24,,충청남도 서산시 번화2로 2,356805,31984,,1,,126.4491835,36.78011967
MA010120220805448382,지에스25성환,,G2,소매,G204,종합 소매,G20405,편의점,G47122,체인화 편의점,44,충청남도,44133,천안시 서북구,44133250,성환읍,4413325023,성환읍,4.41333E+18,1,대지,315,5,충청남도 천안시 서북구 성환읍 매주리 315-5,4.41335E+11,충청남도 천안시 서북구 성환읍 신선동길,26,null,4.41333E+24,,충청남도 천안시 서북구 성환읍 신선동길 26,331803,31017,,null,,127.1306068,36.9126467
MA010120220805447743,대박축산,,G2,소매,G205,식료품 소매,G20503,정육점,G47212,육류 소매업,44,충청남도,44150,공주시,44150540,웅진동,4415010500,산성동,4.41501E+18,1,대지,191,7,충청남도 공주시 산성동 191-7,4.41505E+11,충청남도 공주시 용당길,15,null,4.41501E+24,,충청남도 공주시 용당길 15,314020,32540,,null,,127.1233747,36.45856853
MA010120220805447942,크린토피아천안불당,,S2,수리·개인,S209,세탁,S20901,세탁소,S96913,세탁물 공급업,44,충청남도,44133,천안시 서북구,44133566,불당1동,4413310800,불당동,4.41331E+18,1,대지,729,null,충청남도 천안시 서북구 불당동 729,4.41335E+11,충청남도 천안시 서북구 검은들3길,50,null,4.41331E+24,시티플러스,충청남도 천안시 서북구 검은들3길 50,331982,31163,,1,,127.1090741,36.8099897
MA010120220805448253,논산독일보청기,,G2,소매,G215,의약·화장품 소매,G21502,의료기기 소매업,G47812,의료용 기구 소매업,44,충청남도,44230,논산시,44230510,취암동,4423010200,반월동,4.42301E+18,1,대지,94,7,충청남도 논산시 반월동 94-7,4.42305E+11,충청남도 논산시 중앙로480번길,10,null,4.42301E+24,,충청남도 논산시 중앙로480번길 10,320802,32968,,1,,127.0847176,36.2062216
MA010120220805448063,강변가든,,I2,음식,I201,한식,I20107,돼지고기 구이/찜,I56113,한식 육류 요리 전문점,44,충청남도,44760,부여군,44760310,규암면,4476031032,규암면,4.47603E+18,1,대지,132,7,충청남도 부여군 규암면 규암리 132-7,4.47603E+11,충청남도 부여군 규암면 수북로,52,null,4.47603E+24,,충청남도 부여군 규암면 수북로 52,323811,33126,,null,,126.8894936,36.27336928
MA010120220805448226,스페셜학원,,P1,교육,P105,일반 교육,P10501,입시·교과학원,P85501,일반 교과학원,44,충청남도,44270,당진시,44270530,당진3동,4427010400,원당동,4.42701E+18,1,대지,848,3,충청남도 당진시 원당동 848-3,4.42703E+11,충청남도 당진시 원당로,51,9,4.42701E+24,,충청남도 당진시 원당로 51-9,343090,31767,,3,,126.6422385,36.90598729
MA010120220805447467,오로라,,G2,소매,G215,의약·화장품 소매,G21503,화장품 소매업,G47813,"화장품, 비누 및 방향제 소매업",44,충청남도,44200,아산시,44200580,온양2동,4420010100,온천동,4.42001E+18,1,대지,153,37,충청남도 아산시 온천동 153-37,4.42005E+11,충청남도 아산시 온화로29번길,14,3,4.42001E+24,,충청남도 아산시 온화로29번길 14-3,336818,31570,,1,,127.0012969,36.77868331
MA010120220805448435,보성컴퍼니,,G2,소매,G208,가전·통신 소매,G20803,가전제품 소매업,G47320,가전제품 소매업,44,충청남도,44131,천안시 동남구,44131250,목천읍,4413125029,목천읍,4.41313E+18,1,대지,459,38,충청남도 천안시 동남구 목천읍 운전리 459-38,4.41315E+11,충청남도 천안시 동남구 목천읍 운전2길,32,null,4.41313E+24,,충청남도 천안시 동남구 목천읍 운전2길 32,330843,31246,,null,,127.2369905,36.76862311
MA010120220805447096,서울수치과의원,,Q1,보건의료,Q102,의원,Q10210,치과의원,Q86202,치과의원,44,충청남도,44800,홍성군,44800380,갈산면,4480038021,갈산면,4.48004E+18,1,대지,194,null,충청남도 홍성군 갈산면 상촌리 194,4.48003E+11,충청남도 홍성군 갈산면 상촌로,12,4,4.48004E+24,,충청남도 홍성군 갈산면 상촌로 12-4,350853,32202,,null,,126.5486253,36.60275287
MA010120220805447448,키스토어,,G2,소매,G210,철물·건설자재 소매,G21001,철물/공구 소매업,G47511,철물 및 난방용구 소매업,44,충청남도,44133,천안시 서북구,44133530,쌍용1동,4413310700,쌍용동,4.41331E+18,1,대지,191,null,충청남도 천안시 서북구 쌍용동 191,4.41333E+11,충청남도 천안시 서북구 충무로,187,null,4.41331E+24,E마트,충청남도 천안시 서북구 충무로 187,331945,31180,,3,,127.1270982,36.79592099
MA010120220805446916,오케이한우할인마트,,G2,소매,G205,식료품 소매,G20503,정육점,G47212,육류 소매업,44,충청남도,44210,서산시,44210525,동문1동,4421010200,동문동,4.42101E+18,1,대지,61,21,충청남도 서산시 동문동 61-21,4.42103E+11,충청남도 서산시 고운로,275,5,4.42101E+24,동문프라자,충청남도 서산시 고운로 275-5,356800,31978,,1,,126.4655348,36.78481024
MA010120220805446664,우신,,L1,부동산,L102,부동산 서비스,L10203,부동산 중개/대리업,L68221,부동산 중개 및 대리업,44,충청남도,44200,아산시,44200360,둔포면,4420036029,둔포면,4.42004E+18,1,대지,259,1,충청남도 아산시 둔포면 신양리 259-1,4.42003E+11,충청남도 아산시 둔포면 관용로,189,19,4.42004E+24,,충청남도 아산시 둔포면 관용로 189-19,336873,31412,,null,,127.0527638,36.89127111
MA010120220805449776,아이니쥬쌀롱,,S2,수리·개인,S207,이용·미용,S20702,피부 관리실,S96113,피부 미용업,44,충청남도,44133,천안시 서북구,44133580,부성1동,4413310400,두정동,4.41331E+18,1,대지,1469,null,충청남도 천안시 서북구 두정동 1469,4.41333E+11,충청남도 천안시 서북구 두정로,230,null,4.41331E+24,코리타운,충청남도 천안시 서북구 두정로 230,331962,31105,,2,,127.1425056,36.83308897
MA010120220805449668,끌로에,,G2,소매,G209,섬유·의복·신발 소매,G20905,기타 의류 소매업,G47414,셔츠 및 블라우스 소매업,44,충청남도,44131,천안시 동남구,44131580,청룡동,4413111100,청당동,4.41311E+18,1,대지,396,12,충청남도 천안시 동남구 청당동 396-12,4.41313E+11,충청남도 천안시 동남구 풍세로,798,null,4.41311E+24,코르지아빌딩,충청남도 천안시 동남구 풍세로 798,330270,31202,,null,,127.1426874,36.78059735
MA010120220805450299,별미회관,,I2,음식,I201,한식,I20101,백반/한정식,I56111,한식 일반 음식점업,44,충청남도,44150,공주시,44150250,유구읍,4415025023,유구읍,4.41503E+18,1,대지,283,27,충청남도 공주시 유구읍 석남리 283-27,4.41505E+11,충청남도 공주시 유구읍 시장길,5,null,4.41503E+24,,충청남도 공주시 유구읍 시장길 5,314896,32506,,null,,126.9515628,36.55065512
MA010120220805449851,동양노래연습장,,R1,예술·스포츠,R104,유원지·오락,R10407,노래방,R91223,노래 연습장 운영업,44,충청남도,44180,보령시,44180330,천북면,4418033023,천북면,4.41803E+18,1,대지,778,5,충청남도 보령시 천북면 사호리 778-5,4.41803E+11,충청남도 보령시 천북면 홍보로,1061,166,4.41803E+24,,충청남도 보령시 천북면 홍보로 1061-166,355812,33400,,null,,126.4831501,36.50404645
MA010120220805450453,플랜비안경원,,G2,소매,G216,안경·정밀기기 소매,G21602,안경렌즈 소매업,G47822,안경 및 렌즈 소매업,44,충청남도,44133,천안시 서북구,44133590,부성2동,4413310400,두정동,4.41331E+18,1,대지,1032,null,충청남도 천안시 서북구 두정동 1032,4.41335E+11,충청남도 천안시 서북구 부성6길,37,null,4.41331E+24,미주프라자,충청남도 천안시 서북구 부성6길 37,331960,31100,,null,,127.1378116,36.83579456
MA010120220805450258,맛나식당,,I2,음식,I201,한식,I20101,백반/한정식,I56111,한식 일반 음식점업,44,충청남도,44200,아산시,44200350,음봉면,4420035027,음봉면,4.42004E+18,1,대지,56,7,충청남도 아산시 음봉면 소동리 56-7,4.42005E+11,충청남도 아산시 음봉면 연암율금로295번길,32,5,4.42004E+24,,충청남도 아산시 음봉면 연암율금로295번길 32-5,336864,31413,,null,,127.0543589,36.87200824
MA010120220805449510,세교카용품,,G2,소매,G202,자동차 부품 소매,G20202,자동차 부품 소매업,G45220,자동차 중고 부품 및 내장품 판매업,44,충청남도,44200,아산시,44200310,송악면,4420031025,송악면,4.42003E+18,1,대지,570,3,충청남도 아산시 송악면 마곡리 570-3,4.42005E+11,충청남도 아산시 송악면 마곡길112번길,36,3,4.42003E+24,,충청남도 아산시 송악면 마곡길112번길 36-3,336921,31583,,null,,127.0022255,36.69399046
MA010120220805449370,다모아부동산투자컨설팅,,L1,부동산,L102,부동산 서비스,L10203,부동산 중개/대리업,L68221,부동산 중개 및 대리업,44,충청남도,44150,공주시,44150310,이인면,4415031037,이인면,4.41503E+18,1,대지,544,6,충청남도 공주시 이인면 신영리 544-6,4.41505E+11,충청남도 공주시 이인면 와룡길,127,null,4.41503E+24,,충청남도 공주시 이인면 와룡길 127,314844,32606,,1,,127.0883238,36.32850268
MA010120220805448549,카페알로,,I2,음식,I212,비알코올 ,I21201,카페,I56221,커피 전문점,44,충청남도,44133,천안시 서북구,44133520,성정2동,4413310200,성정동,4.41331E+18,1,대지,1347,null,충청남도 천안시 서북구 성정동 1347,4.41335E+11,충청남도 천안시 서북구 성정공원6길,36,null,4.41331E+24,평화로운나날,충청남도 천안시 서북구 성정공원6길 36,331978,31110,,null,,127.1416391,36.82836063
MA010120220805448684,큰맘할매순대국,,I2,음식,I201,한식,I20102,국/탕/찌개류,I56111,한식 일반 음식점업,44,충청남도,44800,홍성군,44800250,홍성읍,4480025030,홍성읍,4.48003E+18,1,대지,995,null,충청남도 홍성군 홍성읍 고암리 995,4.48005E+11,충청남도 홍성군 홍성읍 조양로205번길,67,null,4.48003E+24,,충청남도 홍성군 홍성읍 조양로205번길 67,350819,32220,,null,,126.6755064,36.60059904
MA010120220805448624,코우코우,,I2,음식,I212,비알코올 ,I21201,카페,I56221,커피 전문점,44,충청남도,44760,부여군,44760410,임천면,4476041021,임천면,4.47604E+18,1,대지,308,1,충청남도 부여군 임천면 군사리 308-1,4.47605E+11,충청남도 부여군 임천면 성흥로97번길,30,null,4.47604E+24,,충청남도 부여군 임천면 성흥로97번길 30,323923,33219,,null,,126.8948054,36.19017173
MA010120220805449253,세븐일레븐당진복운점,,G2,소매,G204,종합 소매,G20405,편의점,G47122,체인화 편의점,44,충청남도,44270,당진시,44270253,송악읍,4427025333,송악읍,4.42703E+18,1,대지,1639,1,충청남도 당진시 송악읍 복운리 1639-1,4.42705E+11,충청남도 당진시 송악읍 신복운로6길,16,1,4.48303E+24,행복,충청남도 당진시 송악읍 신복운로6길 16-1,343827,31724,,1,,126.7824495,36.94233534
MA010120220805449008,씨유천안쌍용인,,G2,소매,G204,종합 소매,G20405,편의점,G47122,체인화 편의점,44,충청남도,44133,천안시 서북구,44133530,쌍용1동,4413310700,쌍용동,4.41331E+18,1,대지,1063,null,충청남도 천안시 서북구 쌍용동 1063,4.41335E+11,충청남도 천안시 서북구 미라1길,18,null,4.41331E+24,올인노래방,충청남도 천안시 서북구 미라1길 18,331949,31155,,1,,127.1283974,36.80388782
MA010120220805449078,샤크스튜디오,,R1,예술·스포츠,R104,유원지·오락,R10405,기타 오락장,R91229,기타 오락장 운영업,44,충청남도,44133,천안시 서북구,44133520,성정2동,4413310200,성정동,4.41331E+18,1,대지,631,15,충청남도 천안시 서북구 성정동 631-15,4.41335E+11,충청남도 천안시 서북구 서부20길,41,null,4.41331E+24,,충청남도 천안시 서북구 서부20길 41,331936,31135,,null,,127.1428102,36.82488158
MA010120220805448580,에스케이공인중개사사무소,,L1,부동산,L102,부동산 서비스,L10203,부동산 중개/대리업,L68221,부동산 중개 및 대리업,44,충청남도,44270,당진시,44270320,석문면,4427032023,석문면,4.42703E+18,1,대지,192,11,충청남도 당진시 석문면 삼봉리 192-11,4.42703E+11,충청남도 당진시 석문면 대호만로,1470,null,4.42703E+24,,충청남도 당진시 석문면 대호만로 1470,343853,31705,,null,,126.5628806,37.0024259
MA010120220805451843,석문김밥천국,,I2,음식,I210,기타 간이,I21007,김밥/만두/분식,I56194,김밥 및 기타 간이 음식점업,44,충청남도,44270,당진시,44270320,석문면,4427032021,석문면,4.42703E+18,1,대지,1910,null,충청남도 당진시 석문면 통정리 1910,4.42705E+11,충청남도 당진시 석문면 해명4로2길,7,null,4.42703E+24,,충청남도 당진시 석문면 해명4로2길 7,343856,31703,,1,,126.5906503,36.97824024
MA010120220805452058,케이투서산점,,G2,소매,G209,섬유·의복·신발 소매,G20905,기타 의류 소매업,G47419,기타 의복 소매업,44,충청남도,44210,서산시,44210535,동문2동,4421010200,동문동,4.42101E+18,1,대지,909,3,충청남도 서산시 동문동 909-3,4.42103E+11,충청남도 서산시 시장5로,4,null,4.42101E+24,,충청남도 서산시 시장5로 4,356803,31981,,1,,126.4566782,36.7806587
MA010120220805451954,씨유천안청당하늘채점,,G2,소매,G204,종합 소매,G20405,편의점,G47122,체인화 편의점,44,충청남도,44131,천안시 동남구,44131580,청룡동,4413111100,청당동,4.41311E+18,1,대지,992,null,충청남도 천안시 동남구 청당동 992,4.41313E+11,충청남도 천안시 동남구 광풍로,1800,null,4.41311E+24,청당코오롱하늘채,충청남도 천안시 동남구 광풍로 1800,330270,31211,,1,,127.1451468,36.77905602
MA010120220805451631,삼겹살에소주한잔,,I2,음식,I201,한식,I20107,돼지고기 구이/찜,I56113,한식 육류 요리 전문점,44,충청남도,44131,천안시 동남구,44131250,목천읍,4413125033,목천읍,4.41313E+18,1,대지,422,13,충청남도 천안시 동남구 목천읍 신계리 422-13,4.41315E+11,충청남도 천안시 동남구 목천읍 신계1길,35,null,4.41313E+24,,충청남도 천안시 동남구 목천읍 신계1길 35,330846,31233,,1,,127.195481,36.77050347
MA010120220805451513,가야숯불치킨추부점,,I2,음식,I210,기타 간이,I21006,치킨,I56193,치킨 전문점,44,충청남도,44710,금산군,44710390,추부면,4471039023,추부면,4.47104E+18,1,대지,392,7,충청남도 금산군 추부면 마전리 392-7,4.47103E+11,충청남도 금산군 추부면 하마전로,53,null,4.47104E+24,,충청남도 금산군 추부면 하마전로 53,312941,32714,,null,,127.4722854,36.19137064
MA010120220805451570,충대농자재,,G2,소매,G221,기타 상품 소매,G22199,그 외 기타 상품 전문 소매업,G47859,그 외 기타 분류 안된 상품 전문 소매업,44,충청남도,44131,천안시 동남구,44131360,병천면,4413136023,병천면,4.41314E+18,1,대지,147,1,충청남도 천안시 동남구 병천면 탑원리 147-1,4.41315E+11,충청남도 천안시 동남구 병천면 탑원2길,1,null,4.41314E+24,광신슈퍼,충청남도 천안시 동남구 병천면 탑원2길 1,330863,31256,,null,,127.3117774,36.76415876
MA010120220805451718,억새정원,,I1,숙박,I101,일반 숙박,I10103,펜션,I55104,민박업,44,충청남도,44760,부여군,44760250,부여읍,4476025040,부여읍,4.47603E+18,1,대지,413,9,충청남도 부여군 부여읍 군수리 413-9,4.47605E+11,충청남도 부여군 부여읍 신기정로94번길,31,10,4.47603E+24,,충청남도 부여군 부여읍 신기정로94번길 31-10,323803,33170,,null,,126.9043804,36.26496296
MA010120220805451360,그루비고릴라,,I2,음식,I211,주점,I21104,요리 주점,I56219,기타 주점업,44,충청남도,44133,천안시 서북구,44133590,부성2동,4413310400,두정동,4.41331E+18,1,대지,855,null,충청남도 천안시 서북구 두정동 855,4.41335E+11,충청남도 천안시 서북구 원두정6길,26,null,4.41331E+24,,충청남도 천안시 서북구 원두정6길 26,331959,31107,,2,,127.1360338,36.83138398
MA010120220805450875,옷담,,G2,소매,G209,섬유·의복·신발 소매,G20902,여성 의류 소매업,G47412,여자용 겉옷 소매업,44,충청남도,44825,태안군,44825250,태안읍,4482525021,태안읍,4.48253E+18,1,대지,481,9,충청남도 태안군 태안읍 동문리 481-9,4.48253E+11,충청남도 태안군 태안읍 독샘로,61,null,4.48253E+24,,충청남도 태안군 태안읍 독샘로 61,357905,32141,,1,,126.2984539,36.75353123
MA010120220805450498,용짬뽕,,I2,음식,I202,중식,I20201,중국집,I56121,중식 음식점업,44,충청남도,44131,천안시 동남구,44131360,병천면,4413136021,병천면,4.41314E+18,1,대지,203,6,충청남도 천안시 동남구 병천면 가전리 203-6,4.41313E+11,충청남도 천안시 동남구 병천면 충절로,1578,null,4.41314E+24,,충청남도 천안시 동남구 병천면 충절로 1578,330861,31253,,null,,127.2817683,36.76800066
MA010120220805451206,지에스25뉴불당펜타포트점,,G2,소매,G204,종합 소매,G20405,편의점,G47122,체인화 편의점,44,충청남도,44133,천안시 서북구,44133566,불당1동,4413310800,불당동,4.41331E+18,1,대지,1292,null,충청남도 천안시 서북구 불당동 1292,4.41333E+11,충청남도 천안시 서북구 공원로,195,null,4.41331E+24,펜타포트,충청남도 천안시 서북구 공원로 195,331728,31168,,1,,127.1006757,36.79979741
MA010120220805454493,이마트24천안직산,,G2,소매,G204,종합 소매,G20405,편의점,G47122,체인화 편의점,44,충청남도,44133,천안시 서북구,44133256,직산읍,4413325626,직산읍,4.41333E+18,1,대지,76,482,충청남도 천안시 서북구 직산읍 삼은리 76-482,4.41335E+11,충청남도 천안시 서북구 직산읍 삼은2길,16,null,4.41333E+24,,충청남도 천안시 서북구 직산읍 삼은2길 16,331816,31037,,null,,127.1487094,36.87820955
MA010120220805453856,평화마트,,G2,소매,G204,종합 소매,G20404,슈퍼마켓,G47129,기타 음ㆍ식료품 위주 종합 소매업,44,충청남도,44770,서천군,44770253,서천읍,4477025321,서천읍,4.47703E+18,1,대지,184,17,충청남도 서천군 서천읍 군사리 184-17,4.47703E+11,충청남도 서천군 서천읍 서천로,33,null,4.47703E+24,,충청남도 서천군 서천읍 서천로 33,325802,33645,,null,,126.6956792,36.07557738
MA010120220805453927,타비타비프레바,,I2,음식,I212,비알코올 ,I21201,카페,I56221,커피 전문점,44,충청남도,44200,아산시,44200330,탕정면,4420033025,탕정면,4.42003E+18,1,대지,436,1,충청남도 아산시 탕정면 매곡리 436-1,4.42005E+11,충청남도 아산시 탕정면 매곡한들11길,24,null,4.42003E+24,,충청남도 아산시 탕정면 매곡한들11길 24,336843,31465,,1,,127.0808112,36.78450599
MA010120220805454218,세븐일레븐아산도고,,G2,소매,G204,종합 소매,G20405,편의점,G47122,체인화 편의점,44,충청남도,44200,아산시,44200400,도고면,4420040025,도고면,4.42004E+18,1,대지,375,4,충청남도 아산시 도고면 시전리 375-4,4.42003E+11,충청남도 아산시 도고면 도고산로,713,null,4.42004E+24,,충청남도 아산시 도고면 도고산로 713,336911,31552,,null,,126.8870091,36.74915644
MA010120220805454327,칼국수마을횟집,,I2,음식,I201,한식,I20105,국수/칼국수,I56112,한식 면 요리 전문점,44,충청남도,44131,천안시 동남구,44131580,청룡동,4413111100,청당동,4.41311E+18,1,대지,299,15,충청남도 천안시 동남구 청당동 299-15,4.41313E+11,충청남도 천안시 동남구 광풍로,1822,null,4.41311E+24,아이지타워,충청남도 천안시 동남구 광풍로 1822,330270,31211,,2,,127.1462452,36.78102846
MA010120220805454229,와우피씨,,R1,예술·스포츠,R104,유원지·오락,R10406,PC방,R91222,컴퓨터 게임방 운영업,44,충청남도,44131,천안시 동남구,44131590,신안동,4413111900,안서동,4.41311E+18,1,대지,379,3,충청남도 천안시 동남구 안서동 379-3,4.41313E+11,충청남도 천안시 동남구 문암로,79,null,4.41311E+24,성준고시원,충청남도 천안시 동남구 문암로 79,330997,31065,,2,,127.1816496,36.84187183
MA010120220805453522,배드민턴창고,,G2,소매,G213,오락용품 소매,G21304,운동용품 소매업,G47631,운동 및 경기용품 소매업,44,충청남도,44150,공주시,44150510,중학동,4415010400,중동,4.41501E+18,1,대지,147,281,충청남도 공주시 중동 147-281,4.41503E+11,충청남도 공주시 무령로,214,null,4.41501E+24,,충청남도 공주시 무령로 214,314070,32547,,null,,127.1234994,36.45641554
MA010120220805453970,이차돌아산,,I2,음식,I201,한식,I20108,소고기 구이/찜,I56113,한식 육류 요리 전문점,44,충청남도,44200,아산시,44200360,둔포면,4420036032,둔포면,4.42004E+18,1,대지,1703,null,충청남도 아산시 둔포면 석곡리 1703,4.42003E+11,충청남도 아산시 둔포면 아산밸리중앙로,80,20,4.42004E+24,,충청남도 아산시 둔포면 아산밸리중앙로 80-20,336871,31406,,null,,127.0570053,36.92039382
MA010120220805454415,참치마니아,,I2,음식,I203,일식,I20301,일식 회/초밥,I56112,한식 면 요리 전문점,44,충청남도,44810,예산군,44810250,예산읍,4481025025,예산읍,4.48103E+18,1,대지,753,null,충청남도 예산군 예산읍 산성리 753,4.48105E+11,충청남도 예산군 예산읍 벚꽃로127번길,12,null,4.48103E+24,,충청남도 예산군 예산읍 벚꽃로127번길 12,340803,32429,,null,,126.834768,36.692199
MA010120220805454298,퀸브릭스,,I2,음식,I210,기타 간이,I21099,그 외 기타 간이 음식점,I56199,간이 음식 포장 판매 전문점,44,충청남도,44133,천안시 서북구,44133566,불당1동,4413310800,불당동,4.41331E+18,1,대지,1041,null,충청남도 천안시 서북구 불당동 1041,4.41335E+11,충청남도 천안시 서북구 불당8길,7,null,4.41331E+24,경성빌리지,충청남도 천안시 서북구 불당8길 7,331984,31164,,null,,127.1066282,36.8025007
MA010120220805452612,다롱슈퍼,,G2,소매,G204,종합 소매,G20404,슈퍼마켓,G47129,기타 음ㆍ식료품 위주 종합 소매업,44,충청남도,44150,공주시,44150540,웅진동,4415010800,금성동,4.41501E+18,1,대지,87,4,충청남도 공주시 금성동 87-4,4.41505E+11,충청남도 공주시 정자방1길,17,null,4.41501E+24,,충청남도 공주시 정자방1길 17,314020,32536,,null,,127.1191012,36.46552149
MA010120220805452675,리얼파스타,,I2,음식,I204,서양식,I20402,파스타/스테이크,I56123,서양식 음식점업,44,충청남도,44133,천안시 서북구,44133540,쌍용2동,4413310700,쌍용동,4.41331E+18,1,대지,729,null,충청남도 천안시 서북구 쌍용동 729,4.41335E+11,충청남도 천안시 서북구 쌍용16길,24,null,4.41331E+24,,충청남도 천안시 서북구 쌍용16길 24,331948,31172,,1,,127.1209482,36.79871437
MA010120220805452795,리뉴얼카,,G2,소매,G202,자동차 부품 소매,G20202,자동차 부품 소매업,G45219,기타 자동차 신품 부품 및 내장품 판매업,44,충청남도,44133,천안시 서북구,44133590,부성2동,4413310400,두정동,4.41331E+18,1,대지,603,null,충청남도 천안시 서북구 두정동 603,4.41335E+11,충청남도 천안시 서북구 늘푸른1길,45,null,4.41331E+24,세광엔리치빌2차아파트,충청남도 천안시 서북구 늘푸른1길 45,331799,31099,,1,,127.1288516,36.83006995
MA010120220805453312,디바인핸즈,,G2,소매,G209,섬유·의복·신발 소매,G20901,남성 의류 소매업,G47411,남자용 겉옷 소매업,44,충청남도,44133,천안시 서북구,44133510,성정1동,4413310200,성정동,4.41331E+18,1,대지,702,10,충청남도 천안시 서북구 성정동 702-10,4.41332E+11,충청남도 천안시 서북구 쌍용대로,228,null,4.41331E+24,,충청남도 천안시 서북구 쌍용대로 228,331968,31142,,1,,127.1356505,36.81762044
MA010120220805452883,하다인테리어,,M1,과학·기술,M112,전문 디자인,M11201,인테리어 디자인업,F42412,"도배, 실내 장식 및 내장 목공사업",44,충청남도,44133,천안시 서북구,44133530,쌍용1동,4413310700,쌍용동,4.41331E+18,1,대지,1193,null,충청남도 천안시 서북구 쌍용동 1193,4.41335E+11,충청남도 천안시 서북구 미라2길,22,8,4.41331E+24,지성빌,충청남도 천안시 서북구 미라2길 22-8,331950,31155,,null,,127.1301776,36.80106218
MA010120220805452943,오쏘리노래연습장,,R1,예술·스포츠,R104,유원지·오락,R10407,노래방,R91223,노래 연습장 운영업,44,충청남도,44270,당진시,44270520,당진2동,4427010700,대덕동,4.42701E+18,1,대지,1593,null,충청남도 당진시 대덕동 1593,4.42705E+11,충청남도 당진시 먹거리길,111,null,4.48303E+24,,충청남도 당진시 먹거리길 111,343030,31776,,1,,126.6362177,36.8868058
MA010120220805453028,센스노래광장,,I2,음식,I211,주점,I21101,일반 유흥 주점,I56211,일반 유흥 주점업,44,충청남도,44270,당진시,44270510,당진1동,4427010100,읍내동,4.42701E+18,1,대지,634,16,충청남도 당진시 읍내동 634-16,4.42703E+11,충청남도 당진시 당진중앙3로,9,null,4.48303E+24,효성오토바이상사,충청남도 당진시 당진중앙3로 9,343924,31777,,3,,126.6269259,36.89137554
MA010120220805453346,보령자동차공업사,,S2,수리·개인,S203,자동차 수리·세차,S20301,자동차 정비소,S95211,자동차 종합 수리업,44,충청남도,44180,보령시,44180515,대천1동,4418010100,대천동,4.41801E+18,1,대지,618,569,충청남도 보령시 대천동 618-569,4.41803E+11,충청남도 보령시 중앙로,33,null,4.41801E+24,,충청남도 보령시 중앙로 33,355011,33462,,null,,126.5982242,36.34767694
MA010120220805452652,대박부동산중개,,L1,부동산,L102,부동산 서비스,L10203,부동산 중개/대리업,L68221,부동산 중개 및 대리업,44,충청남도,44270,당진시,44270510,당진1동,4427010600,수청동,4.42701E+18,1,대지,1212,null,충청남도 당진시 수청동 1212,4.42705E+11,충청남도 당진시 수청5길,16,null,4.42701E+24,,충청남도 당진시 수청5길 16,343050,31772,,1,,126.6466831,36.8976667
MA010120220805455541,천안신방도시공인중개사사무소,,L1,부동산,L102,부동산 서비스,L10203,부동산 중개/대리업,L68221,부동산 중개 및 대리업,44,충청남도,44131,천안시 동남구,44131570,신방동,4413111600,신방동,4.41311E+18,1,대지,507,1,충청남도 천안시 동남구 신방동 507-1,4.41313E+11,충청남도 천안시 동남구 신방통정로,22,null,4.41311E+24,,충청남도 천안시 동남구 신방통정로 22,330939,31210,,null,,127.1261262,36.77198783
MA010120220805455914,도솔역사문화유산연구소,,P1,교육,P106,기타 교육,P10629,그 외 기타 교육기관,P85699,그 외 기타 분류 안된 교육기관,44,충청남도,44133,천안시 서북구,44133530,쌍용1동,4413310700,쌍용동,4.41331E+18,1,대지,889,null,충청남도 천안시 서북구 쌍용동 889,4.41335E+11,충청남도 천안시 서북구 미라15길,24,null,4.41331E+24,대우타워아파트,충청남도 천안시 서북구 미라15길 24,331756,31155,,1,,127.1320774,36.80648305
MA010120220805456300,수북로힐,,R1,예술·스포츠,R104,유원지·오락,R10499,기타 오락관련 서비스업,R91299,그 외 기타 분류 안된 오락관련 서비스업,44,충청남도,44760,부여군,44760310,규암면,4476031033,규암면,4.47603E+18,1,대지,124,1,충청남도 부여군 규암면 외리 124-1,4.47605E+11,충청남도 부여군 규암면 수북로41번길,11,50,4.47603E+24,,충청남도 부여군 규암면 수북로41번길 11-50,323811,33124,,null,,126.8874617,36.27224189
MA010120220805454533,뉴욕버거선문대점아산,,I2,음식,I210,기타 간이,I21004,버거,I56192,"피자, 햄버거, 샌드위치 및 유사 음식점업",44,충청남도,44200,아산시,44200330,탕정면,4420033025,탕정면,4.42003E+18,1,대지,1003,null,충청남도 아산시 탕정면 매곡리 1003,4.42005E+11,충청남도 아산시 탕정면 선문로221번길,70,null,4.42003E+24,선문대학교,충청남도 아산시 탕정면 선문로221번길 70,336708,31460,,1,,127.075728,36.80102999
MA010120220805455481,스카이유학원,,P1,교육,P107,교육 지원,P10799,기타 교육지원 서비스업,P85709,기타 교육지원 서비스업,44,충청남도,44133,천안시 서북구,44133550,쌍용3동,4413310700,쌍용동,4.41331E+18,1,대지,1295,null,충청남도 천안시 서북구 쌍용동 1295,4.41332E+11,충청남도 천안시 서북구 서부대로,371,null,4.41331E+24,,충청남도 천안시 서북구 서부대로 371,331093,31166,,8,,127.1263962,36.80051178
MA010120220805454986,진악산건강원,,G2,소매,G205,식료품 소매,G20508,건강보조식품 소매업,C10796,건강 보조용 액화식품 제조업,44,충청남도,44710,금산군,44710250,금산읍,4471025022,금산읍,4.47103E+18,1,대지,534,2,충청남도 금산군 금산읍 중도리 534-2,4.47105E+11,충청남도 금산군 금산읍 건삼전1길,20,14,4.47103E+24,진악산건강원,충청남도 금산군 금산읍 건삼전1길 20-14,312806,32740,,null,,127.492495,36.10060852
MA010120220805455333,아르미온,,P1,교육,P106,기타 교육,P10613,기타 예술/스포츠 교육기관,P85629,기타 예술학원,44,충청남도,44790,청양군,44790250,청양읍,4479025021,청양읍,4.47903E+18,1,대지,134,3,충청남도 청양군 청양읍 읍내리 134-3,4.47905E+11,충청남도 청양군 청양읍 칠갑산로7길,20,null,4.47903E+24,조선일보,충청남도 청양군 청양읍 칠갑산로7길 20,345804,33326,,null,,126.8051774,36.45244592
MA010120220805457647,머그리감자탕,,I2,음식,I201,한식,I20102,국/탕/찌개류,I56111,한식 일반 음식점업,44,충청남도,44270,당진시,44270320,석문면,4427032023,석문면,4.42703E+18,1,대지,908,null,충청남도 당진시 석문면 삼봉리 908,4.42703E+11,충청남도 당진시 석문면 대호로,1554,1,4.48303E+24,노걸대뼈다귀,충청남도 당진시 석문면 대호로 1554-1,343853,31706,,null,,126.5354166,37.0126959
MA010120220805457835,돼지촌,,I2,음식,I201,한식,I20107,돼지고기 구이/찜,I56113,한식 육류 요리 전문점,44,충청남도,44710,금산군,44710250,금산읍,4471025025,금산읍,4.47103E+18,1,대지,56,4,충청남도 금산군 금산읍 아인리 56-4,4.47103E+11,충청남도 금산군 금산읍 비단로,448,null,4.47103E+24,돼지촌생고기전문가든,충청남도 금산군 금산읍 비단로 448,312805,32742,,null,,127.4813632,36.10284113
MA010120220805457973,만고당,,I2,음식,I210,기타 간이,I21003,피자,I56192,"피자, 햄버거, 샌드위치 및 유사 음식점업",44,충청남도,44230,논산시,44230410,은진면,4423041027,은진면,4.42304E+18,1,대지,125,5,충청남도 논산시 은진면 와야리 125-5,4.42303E+11,충청남도 논산시 은진면 대학로,140,null,4.42304E+24,,충청남도 논산시 은진면 대학로 140,320821,32998,,null,,127.1131456,36.18122751
MA010120220805457843,마루,,M1,과학·기술,M109,기술 서비스,M10999,기타 엔지니어링 서비스업,M72129,기타 엔지니어링 서비스업,44,충청남도,44710,금산군,44710390,추부면,4471039030,추부면,4.47104E+18,1,대지,649,1,충청남도 금산군 추부면 서대리 649-1,4.47105E+11,충청남도 금산군 추부면 대촌길,14,1,4.47104E+24,,충청남도 금산군 추부면 대촌길 14-1,312944,32710,,null,,127.5166111,36.21024131
MA010120220805458320,양지다방,,I2,음식,I212,비알코올 ,I21201,카페,I56229,기타 비알코올 음료점업,44,충청남도,44800,홍성군,44800380,갈산면,4480038021,갈산면,4.48004E+18,1,대지,237,22,충청남도 홍성군 갈산면 상촌리 237-22,4.48003E+11,충청남도 홍성군 갈산면 갈산로,99,null,4.48004E+24,,충청남도 홍성군 갈산면 갈산로 99,350853,32202,,null,,126.5504545,36.60474864
MA010120220805457065,천안정다운내과,,Q1,보건의료,Q102,의원,Q10201,내과/소아과 의원,Q86201,일반의원,44,충청남도,44131,천안시 동남구,44131530,원성1동,4413110700,원성동,4.41311E+18,1,대지,505,34,충청남도 천안시 동남구 원성동 505-34,4.41313E+11,충청남도 천안시 동남구 버들로,115,2,4.41311E+24,,충청남도 천안시 동남구 버들로 115-2,330952,31126,,2,,127.1593319,36.80653464
MA010120220805457504,금산우리의원,,Q1,보건의료,Q102,의원,Q10201,내과/소아과 의원,Q86201,일반의원,44,충청남도,44710,금산군,44710390,추부면,4471039023,추부면,4.47104E+18,1,대지,503,6,충청남도 금산군 추부면 마전리 503-6,4.47103E+11,충청남도 금산군 추부면 대학로,32,7,4.47104E+24,,충청남도 금산군 추부면 대학로 32-7,312941,32714,,null,,127.4679314,36.18905311
MA010120220805459756,충일운수철강,,G2,소매,G222,중고 상품 소매,G22201,중고 상품 소매업,G47869,기타 중고 상품 소매업,44,충청남도,44200,아산시,44200390,선장면,4420039029,선장면,4.42004E+18,1,대지,232,1,충청남도 아산시 선장면 선창리 232-1,4.42003E+11,충청남도 아산시 선장면 서부남로,101,null,4.42004E+24,경동택배,충청남도 아산시 선장면 서부남로 101,336893,31546,,null,,126.8723156,36.78902919
MA010120220805459610,임포르탄테,,G2,소매,G209,섬유·의복·신발 소매,G20905,기타 의류 소매업,G47414,셔츠 및 블라우스 소매업,44,충청남도,44133,천안시 서북구,44133590,부성2동,4413310400,두정동,4.41331E+18,1,대지,617,null,충청남도 천안시 서북구 두정동 617,4.41335E+11,충청남도 천안시 서북구 늘푸른3길,11,null,4.41331E+24,두정빌,충청남도 천안시 서북구 늘푸른3길 11,331958,31099,,null,,127.1284498,36.82595771
MA010120220805460205,스무살에머물다,,S2,수리·개인,S207,이용·미용,S20702,피부 관리실,S96113,피부 미용업,44,충청남도,44210,서산시,44210540,수석동,4421010700,석림동,4.42101E+18,1,대지,447,4,충청남도 서산시 석림동 447-4,4.42103E+11,충청남도 서산시 석림1로,66,null,4.42101E+24,,충청남도 서산시 석림1로 66,356818,32000,,null,,126.4632478,36.76974124
MA010120220805459961,르네상스스테이,,I1,숙박,I101,일반 숙박,I10102,여관/모텔,I55102,여관업,44,충청남도,44180,보령시,44180565,대천5동,4418011000,신흑동,4.41801E+18,1,대지,2006,null,충청남도 보령시 신흑동 2006,4.41803E+11,충청남도 보령시 대해로,881,null,4.41801E+24,,충청남도 보령시 대해로 881,355944,33487,,null,,126.5181182,36.30582388
MA010120220805459568,워시엔조이셀프빨래방계룡,,S2,수리·개인,S209,세탁,S20902,셀프 빨래방,S96912,가정용 세탁업,44,충청남도,44250,계룡시,44250510,금암동,4425010100,금암동,4.42501E+18,1,대지,169,3,충청남도 계룡시 금암동 169-3,4.42505E+11,충청남도 계룡시 장안2길,15,null,4.42501E+24,,충청남도 계룡시 장안2길 15,321900,32824,,null,,127.2495465,36.27268277
MA010120220805460364,바다슈퍼,,I2,음식,I201,한식,I20101,백반/한정식,I56111,한식 일반 음식점업,44,충청남도,44210,서산시,44210250,대산읍,4421025024,대산읍,4.42103E+18,1,대지,382,2,충청남도 서산시 대산읍 오지리 382-2,4.42103E+11,충청남도 서산시 대산읍 가로림로,816,null,4.42103E+24,,충청남도 서산시 대산읍 가로림로 816,356871,31911,,null,,126.3504449,36.96176451
MA010120220805460454,써밋솔루션,,G2,소매,G212,기타 생활용품 소매,G21202,주방/가정용품 소매업,G47599,그 외 기타 분류 안된 가정용품 소매업,44,충청남도,44200,아산시,44200253,배방읍,4420025331,배방읍,4.42003E+18,1,대지,1704,null,충청남도 아산시 배방읍 장재리 1704,4.42005E+11,충청남도 아산시 배방읍 공원로16번길,30,3,4.42003E+24,,충청남도 아산시 배방읍 공원로16번길 30-3,336857,31470,,1,,127.1027827,36.78535862
MA010120220805459384,노래타운땡큐,,I2,음식,I211,주점,I21104,요리 주점,I56219,기타 주점업,44,충청남도,44800,홍성군,44800256,홍북읍,4480025625,홍북읍,4.48003E+18,1,대지,562,null,충청남도 홍성군 홍북읍 신경리 562,4.48005E+11,충청남도 홍성군 홍북읍 청사로174번길,12,null,4.48003E+24,강남프라자,충청남도 홍성군 홍북읍 청사로174번길 12,350831,32256,,null,,126.6797431,36.65953637
MA010120220805459497,오렌즈천안,,G2,소매,G216,안경·정밀기기 소매,G21602,안경렌즈 소매업,G47822,안경 및 렌즈 소매업,44,충청남도,44131,천안시 동남구,44131580,청룡동,4413111100,청당동,4.41311E+18,1,대지,517,null,충청남도 천안시 동남구 청당동 517,4.41313E+11,충청남도 천안시 동남구 청수11로,24,null,4.41311E+24,,충청남도 천안시 동남구 청수11로 24,330270,31198,,1,,127.154911,36.78254123
MA010120220805458576,강릉동화가든짬뽕순두부,,I2,음식,I201,한식,I20101,백반/한정식,I56111,한식 일반 음식점업,44,충청남도,44200,아산시,44200330,탕정면,4420033021,탕정면,4.42003E+18,1,대지,418,null,충청남도 아산시 탕정면 용두리 418,4.42003E+11,충청남도 아산시 탕정면 탕정로,105,null,4.42003E+24,,충청남도 아산시 탕정면 탕정로 105,336841,31452,,1,,127.048192,36.80579622
MA010120220805458702,이마트24아산염치점,,G2,소매,G204,종합 소매,G20405,편의점,G47122,체인화 편의점,44,충청남도,44200,아산시,44200250,염치읍,4420025023,염치읍,4.42003E+18,1,대지,270,null,충청남도 아산시 염치읍 서원리 270,4.42003E+11,충청남도 아산시 염치읍 현대로,242,null,4.42003E+24,,충청남도 아산시 염치읍 현대로 242,336811,31441,,null,,126.9470651,36.82205673
MA010120220805458855,민속주점포차,,I2,음식,I211,주점,I21104,요리 주점,I56219,기타 주점업,44,충청남도,44810,예산군,44810360,덕산면,4481036021,덕산면,4.48104E+18,1,대지,341,8,충청남도 예산군 덕산면 읍내리 341-8,4.48103E+11,충청남도 예산군 덕산면 예덕로,18,1,4.48104E+24,,충청남도 예산군 덕산면 예덕로 18-1,340923,32406,,null,,126.6698691,36.70552901
MA010120220805458678,한국분식필리핀전통요리,,I2,음식,I210,기타 간이,I21007,김밥/만두/분식,I56111,한식 일반 음식점업,44,충청남도,44825,태안군,44825250,태안읍,4482525021,태안읍,4.48253E+18,1,대지,453,10,충청남도 태안군 태안읍 동문리 453-10,4.48255E+11,충청남도 태안군 태안읍 대지길,34,null,4.48253E+24,,충청남도 태안군 태안읍 대지길 34,357905,32141,,1,,126.2992814,36.75409273
MA010120220805459244,에이스탑공인중개사사무소,,L1,부동산,L102,부동산 서비스,L10203,부동산 중개/대리업,L68221,부동산 중개 및 대리업,44,충청남도,44131,천안시 동남구,44131590,신안동,4413111800,신부동,4.41311E+18,1,대지,886,3,충청남도 천안시 동남구 신부동 886-3,4.41313E+11,충청남도 천안시 동남구 중앙로,265,12,4.41311E+24,,충청남도 천안시 동남구 중앙로 265-12,330944,31117,,null,,127.1511577,36.82215686
MA010120220805458613,에스필라테스,,P1,교육,P106,기타 교육,P10603,요가/필라테스 학원,P85612,기타 스포츠 교육기관,44,충청남도,44133,천안시 서북구,44133520,성정2동,4413310200,성정동,4.41331E+18,1,대지,1117,null,충청남도 천안시 서북구 성정동 1117,4.41332E+11,충청남도 천안시 서북구 서부대로,704,null,4.41331E+24,태형빌딩,충청남도 천안시 서북구 서부대로 704,331937,31108,,null,,127.1335736,36.82984312
MA010120220805459057,유케이,,M1,과학·기술,M109,기술 서비스,M10999,기타 엔지니어링 서비스업,M72129,기타 엔지니어링 서비스업,44,충청남도,44825,태안군,44825350,원북면,4482535028,원북면,4.48254E+18,1,대지,683,9,충청남도 태안군 원북면 장대리 683-9,4.48255E+11,충청남도 태안군 원북면 장대문길,372,39,4.48254E+24,,충청남도 태안군 원북면 장대문길 372-39,357911,32114,,null,,126.232032,36.77576544
MA010120220805462417,자온길,,M1,과학·기술,M112,전문 디자인,M11203,시각 디자인업,M73203,시각 디자인업,44,충청남도,44760,부여군,44760310,규암면,4476031032,규암면,4.47603E+18,1,대지,104,17,충청남도 부여군 규암면 규암리 104-17,4.47605E+11,충청남도 부여군 규암면 수북로41번길,8,null,4.47603E+24,,충청남도 부여군 규암면 수북로41번길 8,323811,33124,,null,,126.8884836,36.27317064
MA010120220805462293,어부육지가,,I2,음식,I201,한식,I20111,횟집,I56114,한식 해산물 요리 전문점,44,충청남도,44133,천안시 서북구,44133250,성환읍,4413325022,성환읍,4.41333E+18,1,대지,65,3,충청남도 천안시 서북구 성환읍 성월리 65-3,4.41333E+11,충청남도 천안시 서북구 성환읍 대학로,68,null,4.41333E+24,머글거리,충청남도 천안시 서북구 성환읍 대학로 68,331804,31021,,null,,127.1421818,36.91321746
MA010120220805461791,굿맨헤어,,S2,수리·개인,S207,이용·미용,S20701,미용실,S96112,두발 미용업,44,충청남도,44133,천안시 서북구,44133520,성정2동,4413310200,성정동,4.41331E+18,1,대지,682,12,충청남도 천안시 서북구 성정동 682-12,4.41335E+11,충청남도 천안시 서북구 서부3길,3,null,4.41331E+24,,충청남도 천안시 서북구 서부3길 3,331976,31138,,1,,127.1392135,36.81873669
MA010120220805461803,씨유천안두정,,G2,소매,G204,종합 소매,G20405,편의점,G47122,체인화 편의점,44,충청남도,44133,천안시 서북구,44133590,부성2동,4413310400,두정동,4.41331E+18,1,대지,568,null,충청남도 천안시 서북구 두정동 568,4.41335E+11,충청남도 천안시 서북구 오성6길,17,null,4.41331E+24,은현빌딩,충청남도 천안시 서북구 오성6길 17,331958,31090,,1,,127.1293782,36.83207439
MA010120220805460710,메가엠지씨커피서산,,I2,음식,I212,비알코올 ,I21201,카페,I56221,커피 전문점,44,충청남도,44210,서산시,44210525,동문1동,4421010200,동문동,4.42101E+18,1,대지,66,null,충청남도 서산시 동문동 66,4.42103E+11,충청남도 서산시 고운로,275,5,4.42101E+24,동문프라자,충청남도 서산시 고운로 275-5,356800,31978,,1,,126.4655348,36.78481024
MA010120220805461345,모다아울렛레코브,,G2,소매,G209,섬유·의복·신발 소매,G20902,여성 의류 소매업,G47412,여자용 겉옷 소매업,44,충청남도,44133,천안시 서북구,44133566,불당1동,4413310800,불당동,4.41331E+18,1,대지,1289,null,충청남도 천안시 서북구 불당동 1289,4.41333E+11,충청남도 천안시 서북구 공원로,196,null,4.41331E+24,펜타포트,충청남도 천안시 서북구 공원로 196,331728,31168,,1,,127.1014313,36.79842434
MA010120220805461411,청춘장어,,I2,음식,I201,한식,I20112,해산물 구이/찜,I56114,한식 해산물 요리 전문점,44,충청남도,44200,아산시,44200590,온양3동,4420011400,권곡동,4.42001E+18,1,대지,552,26,충청남도 아산시 권곡동 552-26,4.42003E+11,충청남도 아산시 청운로,129,null,4.42001E+24,,충청남도 아산시 청운로 129,336030,31514,,null,,127.0081672,36.78540036
MA010120220805461227,계룡산림ENG,,M1,과학·기술,M109,기술 서비스,M10903,건물 및 토목 엔지니어링 서비스업,M72121,건물 및 토목 엔지니어링 서비스업,44,충청남도,44250,계룡시,44250510,금암동,4425010100,금암동,4.42501E+18,1,대지,146,9,충청남도 계룡시 금암동 146-9,4.42505E+11,충청남도 계룡시 서금암3길,5,null,4.42501E+24,쉐리움,충청남도 계룡시 서금암3길 5,321900,32826,,null,,127.2551751,36.27185275
MA010120220805461353,선화장여관,,I1,숙박,I101,일반 숙박,I10102,여관/모텔,I55102,여관업,44,충청남도,44200,아산시,44200570,온양1동,4420010100,온천동,4.42001E+18,1,대지,78,1,충청남도 아산시 온천동 78-1,4.42003E+11,충청남도 아산시 온천대로,1541,5,4.42001E+24,선화장여관,충청남도 아산시 온천대로 1541-5,336011,31520,,null,,127.0089436,36.78078388
MA010120220805460850,차빛나스팀세차,,S2,수리·개인,S203,자동차 수리·세차,S20302,자동차 세차장,S95213,자동차 세차업,44,충청남도,44131,천안시 동남구,44131570,신방동,4413111600,신방동,4.41311E+18,1,대지,1919,null,충청남도 천안시 동남구 신방동 1919,4.41313E+11,충청남도 천안시 동남구 통정8로,27,null,4.41311E+24,,충청남도 천안시 동남구 통정8로 27,330260,31207,,1,,127.1298207,36.77118583
MA010120220805461429,천지PC,,R1,예술·스포츠,R104,유원지·오락,R10404,전자 게임장,R91221,전자 게임장 운영업,44,충청남도,44131,천안시 동남구,44131510,중앙동,4413110100,대흥동,4.41311E+18,1,대지,6,3,충청남도 천안시 동남구 대흥동 6-3,4.41313E+11,충청남도 천안시 동남구 문화로,3,null,4.41311E+24,,충청남도 천안시 동남구 문화로 3,330010,31128,,2,,127.1489927,36.8111652
MA010120220805460615,온양여인숙,,I1,숙박,I101,일반 숙박,I10102,여관/모텔,I55102,여관업,44,충청남도,44200,아산시,44200580,온양2동,4420010100,온천동,4.42001E+18,1,대지,87,14,충청남도 아산시 온천동 87-14,4.42003E+11,충청남도 아산시 온천대로,1510,10,4.42001E+24,일심여인숙,충청남도 아산시 온천대로 1510-10,336012,31514,,null,,127.0052839,36.78050101
MA010120220805461482,메가커피,,I2,음식,I212,비알코올 ,I21201,카페,I56221,커피 전문점,44,충청남도,44200,아산시,44200253,배방읍,4420025325,배방읍,4.42003E+18,1,대지,1456,null,충청남도 아산시 배방읍 북수리 1456,4.42003E+11,충청남도 아산시 배방읍 북수로,121,null,4.42003E+24,엔젤시티빌딩,충청남도 아산시 배방읍 북수로 121,336851,31491,,1,,127.0741016,36.77415363
MA010120220805461489,서산한우명가,,I2,음식,I201,한식,I20108,소고기 구이/찜,I56113,한식 육류 요리 전문점,44,충청남도,44210,서산시,44210510,부춘동,4421010300,갈산동,4.42101E+18,1,대지,180,2,충청남도 서산시 갈산동 180-2,4.42103E+11,충청남도 서산시 안견로,475,null,4.42101E+24,,충청남도 서산시 안견로 475,356080,31987,,2,,126.4377753,36.78475523
MA010120220805461135,운동용품 소매업,,G2,소매,G213,오락용품 소매,G21304,운동용품 소매업,G47631,운동 및 경기용품 소매업,44,충청남도,44131,천안시 동남구,44131520,문성동,4413110300,문화동,4.41311E+18,1,대지,150,13,충청남도 천안시 동남구 문화동 150-13,4.41315E+11,충청남도 천안시 동남구 명동길,56,null,4.41311E+24,,충청남도 천안시 동남구 명동길 56,330020,31129,,null,,127.1491605,36.8081565
MA010120220805463575,지에스25장항타운점,,G2,소매,G204,종합 소매,G20405,편의점,G47122,체인화 편의점,44,충청남도,44770,서천군,44770250,장항읍,4477025024,장항읍,4.47703E+18,1,대지,303,33,충청남도 서천군 장항읍 신창리 303-33,4.47703E+11,충청남도 서천군 장항읍 장항로,78,6,4.47703E+24,,충청남도 서천군 장항읍 장항로 78-6,325903,33666,,1,,126.6871787,36.01254213
MA010120220805464476,떡이야기,,I2,음식,I210,기타 간이,I21002,떡/한과,C10711,떡류 제조업,44,충청남도,44180,보령시,44180515,대천1동,4418010200,죽정동,4.41801E+18,1,대지,735,29,충청남도 보령시 죽정동 735-29,4.41805E+11,충청남도 보령시 지장골길,143,null,4.41801E+24,,충청남도 보령시 지장골길 143,355011,33443,,null,,126.5991605,36.36070101
MA010120220805464149,하늘유통,,G2,소매,G204,종합 소매,G20404,슈퍼마켓,G47129,기타 음ㆍ식료품 위주 종합 소매업,44,충청남도,44150,공주시,44150370,정안면,4415037031,정안면,4.41504E+18,1,대지,507,2,충청남도 공주시 정안면 장원리 507-2,4.41501E+11,충청남도 공주시 정안면 논산천안고속도로,57,null,4.41504E+24,정안하행휴게소,충청남도 공주시 정안면 논산천안고속도로 57,314824,32513,,null,,127.112008,36.57079301
MA010120220805463795,셀렉토커피,,I2,음식,I212,비알코올 ,I21201,카페,I56221,커피 전문점,44,충청남도,44131,천안시 동남구,44131590,신안동,4413111800,신부동,4.41311E+18,1,대지,988,null,충청남도 천안시 동남구 신부동 988,4.41315E+11,충청남도 천안시 동남구 신부8길,21,null,4.41311E+24,도솔노블시티동문굿모닝힐,충청남도 천안시 동남구 신부8길 21,330944,31125,,1,,127.1613018,36.81703813
MA010120220805464289,우리블라인드커튼인테리어,,R1,예술·스포츠,R104,유원지·오락,R10410,복권 발행/판매업,R91241,복권 발행 및 판매업,44,충청남도,44210,서산시,44210535,동문2동,4421010200,동문동,4.42101E+18,1,대지,296,3,충청남도 서산시 동문동 296-3,4.42105E+11,충청남도 서산시 율지19길,25,null,4.42101E+24,,충청남도 서산시 율지19길 25,356801,31993,,null,,126.4654413,36.77714062
MA010120220805464490,비오공인중개사사무소,,L1,부동산,L102,부동산 서비스,L10203,부동산 중개/대리업,L68221,부동산 중개 및 대리업,44,충청남도,44270,당진시,44270380,신평면,4427038024,신평면,4.42704E+18,1,대지,303,3,충청남도 당진시 신평면 상오리 303-3,4.42703E+11,충청남도 당진시 신평면 덕평로,1221,null,4.42704E+24,,충청남도 당진시 신평면 덕평로 1221,343815,31747,,null,,126.7566768,36.86470711
MA010120220805463271,태양치킨,,I2,음식,I210,기타 간이,I21006,치킨,I56193,치킨 전문점,44,충청남도,44200,아산시,44200590,온양3동,4420011400,권곡동,4.42001E+18,1,대지,610,null,충청남도 아산시 권곡동 610,4.42005E+11,충청남도 아산시 문화로243번길,13,null,4.42001E+24,삼부르네상스,충청남도 아산시 문화로243번길 13,336712,31518,,1,,127.0127859,36.79129632
MA010120220805463414,대일모터스,,S2,수리·개인,S203,자동차 수리·세차,S20301,자동차 정비소,S95212,자동차 전문 수리업,44,충청남도,44131,천안시 동남구,44131570,신방동,4413111600,신방동,4.41311E+18,1,대지,820,null,충청남도 천안시 동남구 신방동 820,4.41315E+11,충청남도 천안시 동남구 천안천변길,45,null,4.41311E+24,대일모터스,충청남도 천안시 동남구 천안천변길 45,330940,31178,,null,,127.1145974,36.78191457
MA010120220805463213,대진종합유통,,G2,소매,G212,기타 생활용품 소매,G21202,주방/가정용품 소매업,G47592,"주방용품 및 가정용 유리, 요업제품 소매업",44,충청남도,44200,아산시,44200610,온양5동,4420010400,기산동,4.42001E+18,1,대지,253,null,충청남도 아산시 기산동 253,4.42005E+11,충청남도 아산시 신정로293번길,62,12,4.42001E+24,,충청남도 아산시 신정로293번길 62-12,336080,31539,,null,,126.9606887,36.74953441
MA010120220805463427,하나로닭강정,,I2,음식,I210,기타 간이,I21006,치킨,I56193,치킨 전문점,44,충청남도,44230,논산시,44230510,취암동,4423010900,내동,4.42301E+18,1,대지,72,4,충청남도 논산시 내동 72-4,4.42303E+11,충청남도 논산시 대학로,48,null,4.42301E+24,,충청남도 논산시 대학로 48,320802,32997,,null,,127.1034295,36.17730678
MA010120220805463050,이모네김밥분식,,I2,음식,I210,기타 간이,I21007,김밥/만두/분식,I56194,김밥 및 기타 간이 음식점업,44,충청남도,44200,아산시,44200590,온양3동,4420011300,모종동,4.42001E+18,1,대지,622,null,충청남도 아산시 모종동 622,4.42003E+11,충청남도 아산시 문화로,301,16,4.42001E+24,모종주공아파트,충청남도 아산시 문화로 301-16,336710,31525,,1,,127.0184965,36.78455785
MA010120220805463182,전설의갈비,,I2,음식,I201,한식,I20107,돼지고기 구이/찜,I56113,한식 육류 요리 전문점,44,충청남도,44210,서산시,44210510,부춘동,4421010100,읍내동,4.42101E+18,1,대지,607,2,충청남도 서산시 읍내동 607-2,4.42103E+11,충청남도 서산시 부춘4로,9,null,4.42101E+24,,충청남도 서산시 부춘4로 9,356837,31973,,1,,126.4475185,36.78546853
MA010120220805462751,정세대미용실,,S2,수리·개인,S207,이용·미용,S20701,미용실,S96112,두발 미용업,44,충청남도,44150,공주시,44150540,웅진동,4415010700,웅진동,4.41501E+18,1,대지,226,2,충청남도 공주시 웅진동 226-2,4.41503E+11,충청남도 공주시 백제문화로,2124,null,4.41501E+24,,충청남도 공주시 백제문화로 2124,314020,32543,,null,,127.1075275,36.45510758
MA010120220805463120,스터디카페오버컴죽정점,,R1,예술·스포츠,R102,도서관·사적지,R10202,독서실/스터디 카페,R90212,독서실 운영업,44,충청남도,44180,보령시,44180515,대천1동,4418010200,죽정동,4.41801E+18,1,대지,668,4,충청남도 보령시 죽정동 668-4,4.41805E+11,충청남도 보령시 지장골길,79,null,4.41801E+24,,충청남도 보령시 지장골길 79,355011,33443,,null,,126.6023411,36.3591702
MA010120220805465813,나마스테히마라야레스토랑,,I2,음식,I205,동남아시아,I20501,베트남식 전문,I56129,기타 외국식 음식점업,44,충청남도,44200,아산시,44200570,온양1동,4420010100,온천동,4.42001E+18,1,대지,86,9,충청남도 아산시 온천동 86-9,4.42003E+11,충청남도 아산시 온천대로,1499,null,4.42001E+24,TWORLD,충청남도 아산시 온천대로 1499,336011,31514,,2,,127.0046005,36.78136942
MA010120220805466377,연성에스앤에스,,N1,시설관리·임대,N104,고용 알선,N10402,임시/일용 인력 공급업,N75121,임시 및 일용 인력 공급업,44,충청남도,44131,천안시 동남구,44131590,신안동,4413111800,신부동,4.41311E+18,1,대지,394,3,충청남도 천안시 동남구 신부동 394-3,4.41313E+11,충청남도 천안시 동남구 중앙로,241,1,4.41311E+24,,충청남도 천안시 동남구 중앙로 241-1,330993,31117,,2,,127.1513863,36.81972535
MA010120220805465676,다락방,,I2,음식,I211,주점,I21104,요리 주점,I56219,기타 주점업,44,충청남도,44150,공주시,44150570,신관동,4415012000,신관동,4.41501E+18,1,대지,656,9,충청남도 공주시 신관동 656-9,4.41503E+11,충청남도 공주시 번영2로,68,1,4.41501E+24,,충청남도 공주시 번영2로 68-1,314802,32583,,null,,127.1365495,36.4727596
MA010120220805465964,담게협동조합,,I2,음식,I212,비알코올 ,I21201,카페,I56221,커피 전문점,44,충청남도,44230,논산시,44230510,취암동,4423010100,화지동,4.42301E+18,1,대지,61,2,충청남도 논산시 화지동 61-2,4.42305E+11,충청남도 논산시 해월로179번길,11,null,4.42301E+24,,충청남도 논산시 해월로179번길 11,320802,32966,,null,,127.0866596,36.2065699
MA010120220805466401,주니앤주주,,M1,과학·기술,M107,본사·경영 컨설팅,M10703,경영 컨설팅업,M71531,경영 컨설팅업,44,충청남도,44133,천안시 서북구,44133590,부성2동,4413310400,두정동,4.41331E+18,1,대지,798,null,충청남도 천안시 서북구 두정동 798,4.41333E+11,충청남도 천안시 서북구 오성로,40,null,4.41331E+24,동명빌딩,충청남도 천안시 서북구 오성로 40,331958,31099,,null,,127.1317192,36.83026215
MA010120220805465791,정율컨설팅,,L1,부동산,L102,부동산 서비스,L10203,부동산 중개/대리업,L68221,부동산 중개 및 대리업,44,충청남도,44210,서산시,44210535,동문2동,4421010200,동문동,4.42101E+18,1,대지,330,11,충청남도 서산시 동문동 330-11,4.42103E+11,충청남도 서산시 율지8로,16,null,4.42101E+24,,충청남도 서산시 율지8로 16,356801,31992,,null,,126.4611585,36.78180709
MA010120220805465804,아라,,N1,시설관리·임대,N108,기타 사업 서비스,N10802,전시/컨벤션/행사 대행 서비스업,N75992,"전시, 컨벤션 및 행사 대행업",44,충청남도,44133,천안시 서북구,44133510,성정1동,4413310200,성정동,4.41331E+18,1,대지,697,16,충청남도 천안시 서북구 성정동 697-16,4.41335E+11,충청남도 천안시 서북구 성정5길,18,null,4.41331E+24,,충청남도 천안시 서북구 성정5길 18,331968,31142,,2,,127.1396068,36.81764012
MA010120220805464965,바다마피싱,,G2,소매,G213,오락용품 소매,G21306,장난감 소매업,G47640,"게임용구, 인형 및 장난감 소매업",44,충청남도,44210,서산시,44210250,대산읍,4421025028,대산읍,4.42103E+18,1,대지,2,24,충청남도 서산시 대산읍 화곡리 2-24,4.42103E+11,충청남도 서산시 대산읍 삼길포1로,57,null,4.42103E+24,,충청남도 서산시 대산읍 삼길포1로 57,356872,31904,,null,,126.4520724,37.00294263
MA010120220805465233,캐리어냉난방기,,G2,소매,G222,중고 상품 소매,G22201,중고 상품 소매업,G47862,중고 가전제품 및 통신장비 소매업,44,충청남도,44131,천안시 동남구,44131550,봉명동,4413111300,봉명동,4.41311E+18,1,대지,453,null,충청남도 천안시 동남구 봉명동 453,4.41315E+11,충청남도 천안시 동남구 봉서9길,25,null,4.41311E+24,금탑빌딩,충청남도 천안시 동남구 봉서9길 25,330930,31148,,null,,127.1335625,36.81193692
MA010120220805465048,비에이치씨치킨삽교천점,,I2,음식,I210,기타 간이,I21006,치킨,I56193,치킨 전문점,44,충청남도,44270,당진시,44270380,신평면,4427038028,신평면,4.42704E+18,1,대지,187,1,충청남도 당진시 신평면 운정리 187-1,4.42705E+11,충청남도 당진시 신평면 삽교천3길,93,null,4.42704E+24,,충청남도 당진시 신평면 삽교천3길 93,343816,31744,,null,,126.8255071,36.88935028
MA010120220805464865,금강보석이용원,,S2,수리·개인,S207,이용·미용,S20701,미용실,S96111,이용업,44,충청남도,44210,서산시,44210550,석남동,4421010800,석남동,4.42101E+18,1,대지,22,26,충청남도 서산시 석남동 22-26,4.42103E+11,충청남도 서산시 서해로,3370,null,4.42101E+24,,충청남도 서산시 서해로 3370,356110,31999,,4,,126.453497,36.76893904
MA010120220805464866,워니스,,I2,음식,I210,기타 간이,I21001,빵/도넛,I56191,제과점업,44,충청남도,44210,서산시,44210540,수석동,4421010700,석림동,4.42101E+18,1,대지,424,32,충청남도 서산시 석림동 424-32,4.42103E+11,충청남도 서산시 정주골5로,28,null,4.42101E+24,화인빌,충청남도 서산시 정주골5로 28,356818,32003,,1,,126.4667538,36.76804735
MA010120220805464989,스카이골프클럽,,R1,예술·스포츠,R103,스포츠 서비스,R10311,골프 연습장,R91136,골프 연습장 운영업,44,충청남도,44770,서천군,44770253,서천읍,4477025323,서천읍,4.47703E+18,1,대지,234,2,충청남도 서천군 서천읍 오석리 234-2,4.47705E+11,충청남도 서천군 서천읍 오태길,110,8,4.47703E+24,,충청남도 서천군 서천읍 오태길 110-8,325801,33634,,null,,126.6952392,36.09481391
MA010120220805464867,기억헤어,,S2,수리·개인,S207,이용·미용,S20701,미용실,S96112,두발 미용업,44,충청남도,44133,천안시 서북구,44133590,부성2동,4413310400,두정동,4.41331E+18,1,대지,640,null,충청남도 천안시 서북구 두정동 640,4.41335E+11,충청남도 천안시 서북구 늘푸른3길,22,null,4.41331E+24,이화빌딩,충청남도 천안시 서북구 늘푸른3길 22,331958,31099,,2,,127.1295702,36.82601097
MA010120220805465004,이브다방,,I2,음식,I212,비알코올 ,I21201,카페,I56221,커피 전문점,44,충청남도,44133,천안시 서북구,44133250,성환읍,4413325021,성환읍,4.41333E+18,1,대지,449,44,충청남도 천안시 서북구 성환읍 성환리 449-44,4.41335E+11,충청남도 천안시 서북구 성환읍 성환9길,7,6,4.41333E+24,,충청남도 천안시 서북구 성환읍 성환9길 7-6,331805,31016,,1,,127.1289135,36.9164822
MA010120220805465312,선,,I2,음식,I201,한식,I20101,백반/한정식,I56111,한식 일반 음식점업,44,충청남도,44133,천안시 서북구,44133566,불당1동,4413310800,불당동,4.41331E+18,1,대지,1377,null,충청남도 천안시 서북구 불당동 1377,4.41335E+11,충청남도 천안시 서북구 불당15길,6,1,4.41331E+24,,충청남도 천안시 서북구 불당15길 6-1,331985,31169,,1,,127.1063604,36.79950682
MA010120220805465448,김정희공인중개사사무소,,L1,부동산,L102,부동산 서비스,L10203,부동산 중개/대리업,L68221,부동산 중개 및 대리업,44,충청남도,44150,공주시,44150570,신관동,4415012000,신관동,4.41501E+18,1,대지,268,8,충청남도 공주시 신관동 268-8,4.41505E+11,충청남도 공주시 신금1길,6,null,4.41501E+24,주공아파트,충청남도 공주시 신금1길 6,314803,32577,,null,,127.1409955,36.4763605
MA010120220805468018,팔공티,,I2,음식,I212,비알코올 ,I21201,카페,I56221,커피 전문점,44,충청남도,44133,천안시 서북구,44133580,부성1동,4413310400,두정동,4.41331E+18,1,대지,74,20,충청남도 천안시 서북구 두정동 74-20,4.41335E+11,충청남도 천안시 서북구 두정역서3길,21,12,4.41331E+24,,충청남도 천안시 서북구 두정역서3길 21-12,331957,31103,,null,,127.1475728,36.83308937
MA010120220805467888,오하라뷰티,,S2,수리·개인,S207,이용·미용,S20703,네일숍,S96119,기타 미용업,44,충청남도,44210,서산시,44210550,석남동,4421010800,석남동,4.42101E+18,1,대지,91,null,충청남도 서산시 석남동 91,4.42103E+11,충청남도 서산시 동서1로,141,null,4.42101E+24,,충청남도 서산시 동서1로 141,356110,32004,,2,,126.4550701,36.76645441
MA010120220805468482,마르셀라,,G2,소매,G209,섬유·의복·신발 소매,G20905,기타 의류 소매업,G47413,속옷 및 잠옷 소매업,44,충청남도,44770,서천군,44770253,서천읍,4477025321,서천읍,4.47703E+18,1,대지,516,4,충청남도 서천군 서천읍 군사리 516-4,4.47703E+11,충청남도 서천군 서천읍 군청로,28,null,4.47703E+24,,충청남도 서천군 서천읍 군청로 28,325802,33644,,null,,126.6912099,36.07730409
MA010120220805468347,곤지암할매소머리국밥대산점,,I2,음식,I201,한식,I20102,국/탕/찌개류,I56111,한식 일반 음식점업,44,충청남도,44210,서산시,44210250,대산읍,4421025021,대산읍,4.42103E+18,1,대지,150,55,충청남도 서산시 대산읍 대산리 150-55,4.42105E+11,충청남도 서산시 대산읍 탑골1길,39,30,4.42103E+24,,충청남도 서산시 대산읍 탑골1길 39-30,356873,31909,,null,,126.437249,36.93177053
MA010120220805468231,알베로,,I2,음식,I212,비알코올 ,I21201,카페,I56221,커피 전문점,44,충청남도,44200,아산시,44200610,온양5동,4420011200,용화동,4.42001E+18,1,대지,410,1,충청남도 아산시 용화동 410-1,4.42003E+11,충청남도 아산시 시민로,247,null,4.42001E+24,,충청남도 아산시 시민로 247,336050,31567,,null,,126.9943262,36.77202809
MA010120220805467913,돼지네,,I2,음식,I201,한식,I20107,돼지고기 구이/찜,I56113,한식 육류 요리 전문점,44,충청남도,44770,서천군,44770253,서천읍,4477025322,서천읍,4.47703E+18,1,대지,307,1,충청남도 서천군 서천읍 사곡리 307-1,4.47705E+11,충청남도 서천군 서천읍 사곡안길11번길,4,null,4.47703E+24,,충청남도 서천군 서천읍 사곡안길11번길 4,325806,33640,,null,,126.6860159,36.08187057
MA010120220805468176,롱비치패밀리호텔,,I1,숙박,I101,일반 숙박,I10102,여관/모텔,I55102,여관업,44,충청남도,44825,태안군,44825340,소원면,4482534027,소원면,4.48253E+18,1,대지,1438,null,충청남도 태안군 소원면 모항리 1438,4.48255E+11,충청남도 태안군 소원면 만리포2길,120,null,4.48253E+24,,충청남도 태안군 소원면 만리포2길 120,357931,32123,,null,,126.141371,36.78454722
MA010120220805466842,감천,,G2,소매,G205,식료품 소매,G20501,곡물/곡분 소매업,G47211,"곡물, 곡분 및 가축 사료 소매업",44,충청남도,44133,천안시 서북구,44133560,백석동,4413310300,백석동,4.41331E+18,1,대지,306,4,충청남도 천안시 서북구 백석동 306-4,4.41333E+11,충청남도 천안시 서북구 백석로,23,3,4.41331E+24,,충청남도 천안시 서북구 백석로 23-3,331979,31095,,null,,127.114605,36.82311589
MA010120220805467505,오박사네,,I1,숙박,I101,일반 숙박,I10103,펜션,I55109,기타 일반 및 생활 숙박시설 운영업,44,충청남도,44825,태안군,44825310,고남면,4482531023,고남면,4.48253E+18,1,대지,85,14,충청남도 태안군 고남면 고남리 85-14,4.48252E+11,충청남도 태안군 고남면 안면대로,4407,106,4.48253E+24,,충청남도 태안군 고남면 안면대로 4407-106,357971,32172,,null,,126.4255396,36.41422154
MA010120220805466642,새롬애드,,M1,과학·기술,M105,광고,M10504,광고물 설계/제작업,M71393,"광고물 문안, 도안, 설계 등 작성업",44,충청남도,44131,천안시 동남구,44131570,신방동,4413111600,신방동,4.41311E+18,1,대지,784,1,충청남도 천안시 동남구 신방동 784-1,4.41313E+11,충청남도 천안시 동남구 신촌로,24,null,4.41311E+24,천안산업기자재유통단지,충청남도 천안시 동남구 신촌로 24,330940,31177,,2,,127.1219399,36.78742106
MA010120220805467537,고매산방,,G2,소매,G218,장식품 소매,G21801,예술품 소매업,G47841,예술품 및 골동품 소매업,44,충청남도,44131,천안시 동남구,44131320,광덕면,4413132021,광덕면,4.41313E+18,1,대지,403,4,충청남도 천안시 동남구 광덕면 광덕리 403-4,4.41313E+11,충청남도 천안시 동남구 광덕면 광풍로,250,2,4.41313E+24,B동,충청남도 천안시 동남구 광덕면 광풍로 250-2,330921,31220,,null,,127.0524183,36.67360132
MA010120220805466764,씨앤지,,G2,소매,G205,식료품 소매,G20508,건강보조식품 소매업,G47217,건강 보조식품 소매업,44,충청남도,44710,금산군,44710250,금산읍,4471025022,금산읍,4.47103E+18,1,대지,11,9,충청남도 금산군 금산읍 중도리 11-9,4.47103E+11,충청남도 금산군 금산읍 인삼약초로,45,null,4.47103E+24,"금산국제인삼시장조합,약초상가",충청남도 금산군 금산읍 인삼약초로 45,312806,32739,,null,,127.4983281,36.10195798
MA010120220805467299,이도한의원,,Q1,보건의료,Q102,의원,Q10211,한의원,Q86203,한의원,44,충청남도,44200,아산시,44200330,탕정면,4420033022,탕정면,4.42003E+18,1,대지,930,4,충청남도 아산시 탕정면 명암리 930-4,4.42003E+11,충청남도 아산시 탕정면 탕정면로,18,null,4.42003E+24,,충청남도 아산시 탕정면 탕정면로 18,336841,31456,,2,,127.0591174,36.79855672
MA010120220805470434,뉴럭셔리질러존노래연습장,,R1,예술·스포츠,R104,유원지·오락,R10407,노래방,R91223,노래 연습장 운영업,44,충청남도,44270,당진시,44270510,당진1동,4427010100,읍내동,4.42701E+18,1,대지,1520,null,충청남도 당진시 읍내동 1520,4.42705E+11,충청남도 당진시 북문로1길,35,10,4.42701E+24,,충청남도 당진시 북문로1길 35-10,343010,31768,,null,,126.6307426,36.90128673
MA010120220805470251,크라운호프천안두정점,,I2,음식,I211,주점,I21103,생맥주 전문,I56213,생맥주 전문점,44,충청남도,44133,천안시 서북구,44133590,부성2동,4413310400,두정동,4.41331E+18,1,대지,875,1,충청남도 천안시 서북구 두정동 875-1,4.41335E+11,충청남도 천안시 서북구 원두정6길,13,null,4.41331E+24,탑스빌,충청남도 천안시 서북구 원두정6길 13,331959,31107,,1,,127.1347632,36.83171719
MA010120220805470253,씨유서산석림한성점,,G2,소매,G204,종합 소매,G20405,편의점,G47122,체인화 편의점,44,충청남도,44210,서산시,44210540,수석동,4421010700,석림동,4.42101E+18,1,대지,590,1,충청남도 서산시 석림동 590-1,4.42103E+11,충청남도 서산시 동서2로,15,null,4.42101E+24,석림한성필하우스,충청남도 서산시 동서2로 15,356775,32001,,1,,126.4684576,36.7747375
MA010120220805469641,에이치엘,,S2,수리·개인,S209,세탁,S20901,세탁소,S96913,세탁물 공급업,44,충청남도,44200,아산시,44200360,둔포면,4420036030,둔포면,4.42004E+18,1,대지,69,null,충청남도 아산시 둔포면 봉재리 69,4.42005E+11,충청남도 아산시 둔포면 봉재길63번길,31,1,4.42004E+24,,충청남도 아산시 둔포면 봉재길63번길 31-1,336873,31411,,null,,127.0411573,36.88457261
MA010120220805470077,성은디자인,,M1,과학·기술,M112,전문 디자인,M11203,시각 디자인업,M73203,시각 디자인업,44,충청남도,44810,예산군,44810253,삽교읍,4481025334,삽교읍,4.48103E+18,1,대지,115,2,충청남도 예산군 삽교읍 상성리 115-2,4.48103E+11,충청남도 예산군 삽교읍 삽교평야로,173,82,4.48103E+24,,충청남도 예산군 삽교읍 삽교평야로 173-82,340903,32412,,null,,126.7133,36.69904954
MA010120220805469793,백제크리닝,,S2,수리·개인,S209,세탁,S20901,세탁소,S96912,가정용 세탁업,44,충청남도,44760,부여군,44760310,규암면,4476031021,규암면,4.47603E+18,1,대지,62,7,충청남도 부여군 규암면 반산리 62-7,4.47603E+11,충청남도 부여군 규암면 흥수로,887,null,4.47603E+24,,충청남도 부여군 규암면 흥수로 887,323813,33122,,null,,126.8791247,36.2746424
MA010120220805470097,백암셀프세차장,,S2,수리·개인,S203,자동차 수리·세차,S20302,자동차 세차장,S95213,자동차 세차업,44,충청남도,44270,당진시,44270520,당진2동,4427010200,채운동,4.42701E+18,1,대지,151,13,충청남도 당진시 채운동 151-13,4.42703E+11,충청남도 당진시 백암로,145,null,4.48303E+24,백암셀프세차타운,충청남도 당진시 백암로 145,343926,31784,,null,,126.6232579,36.88822427
MA010120220805469801,더팜홈쿡성연점,,G2,소매,G205,식료품 소매,G20509,반찬/식료품 소매업,G47218,조리 반찬류 소매업,44,충청남도,44210,서산시,44210360,성연면,4421036021,성연면,4.42104E+18,1,대지,1108,null,충청남도 서산시 성연면 일람리 1108,4.42103E+11,충청남도 서산시 성연면 성연3로,31,null,4.42104E+24,,충청남도 서산시 성연면 성연3로 31,356852,31931,,1,,126.4515062,36.82222239
MA010120220805470176,은광주유소,,G2,소매,G214,연료 소매,G21401,주유소,G47711,운송장비용 주유소 운영업,44,충청남도,44131,천안시 동남구,44131310,풍세면,4413131025,풍세면,4.41313E+18,1,대지,102,null,충청남도 천안시 동남구 풍세면 남관리 102,4.41313E+11,충청남도 천안시 동남구 풍세면 풍세로,477,null,4.41313E+24,은광주유소(SK),충청남도 천안시 동남구 풍세면 풍세로 477,330911,31213,,null,,127.1273604,36.75599208
MA010120220805469741,메가엠지씨커피천안불당지웰,,I2,음식,I212,비알코올 ,I21201,카페,I56221,커피 전문점,44,충청남도,44133,천안시 서북구,44133567,불당2동,4413310800,불당동,4.41331E+18,1,대지,1548,null,충청남도 천안시 서북구 불당동 1548,4.41333E+11,충청남도 천안시 서북구 불당26로,77,null,4.41331E+24,천안불당지웰더샵,충청남도 천안시 서북구 불당26로 77,331230,31156,,1,,127.1047548,36.81614825
MA010120220805468826,비너스롯데아울렛,,G2,소매,G209,섬유·의복·신발 소매,G20905,기타 의류 소매업,G47413,속옷 및 잠옷 소매업,44,충청남도,44760,부여군,44760310,규암면,4476031026,규암면,4.47603E+18,1,대지,172,null,충청남도 부여군 규암면 합정리 172,4.47603E+11,충청남도 부여군 규암면 백제문로,387,null,4.47603E+24,롯데프리미엄아울렛,충청남도 부여군 규암면 백제문로 387,323812,33115,,2,,126.9019748,36.30720831
MA010120220805468848,해오름7080,,I2,음식,I211,주점,I21104,요리 주점,I56219,기타 주점업,44,충청남도,44270,당진시,44270253,송악읍,4427025342,송악읍,4.42703E+18,1,대지,631,28,충청남도 당진시 송악읍 가학리 631-28,4.42703E+11,충청남도 당진시 송악읍 송악로,11,null,4.42703E+24,,충청남도 당진시 송악읍 송악로 11,343822,31733,,2,,126.6931219,36.90486386
MA010120220805469521,이마트24보령동대타운점,,G2,소매,G204,종합 소매,G20405,편의점,G47122,체인화 편의점,44,충청남도,44180,보령시,44180535,대천3동,4418010400,동대동,4.41801E+18,1,대지,1007,null,충청남도 보령시 동대동 1007,4.41803E+11,충청남도 보령시 신평로,23,null,4.41801E+24,,충청남도 보령시 신평로 23,355936,33436,,null,,126.6059527,36.35345384
MA010120220805468806,스마트에어컨,,N1,시설관리·임대,N102,청소·방제,N10202,"산업설비, 운송장비 및 공공장소 청소업",N74212,"산업설비, 운송장비 및 공공장소 청소업",44,충청남도,44270,당진시,44270390,송산면,4427039021,송산면,4.42704E+18,1,대지,430,1,충청남도 당진시 송산면 상거리 430-1,4.42705E+11,충청남도 당진시 송산면 상거길,12,null,4.42704E+24,,충청남도 당진시 송산면 상거길 12,343834,31714,,null,,126.6810467,36.93102483
MA010120220805468869,클라비스,,G2,소매,G209,섬유·의복·신발 소매,G20902,여성 의류 소매업,G47412,여자용 겉옷 소매업,44,충청남도,44270,당진시,44270510,당진1동,4427010100,읍내동,4.42701E+18,1,대지,524,null,충청남도 당진시 읍내동 524,4.42703E+11,충청남도 당진시 당진중앙1로,83,null,4.48303E+24,,충청남도 당진시 당진중앙1로 83,343923,31769,,null,,126.6292713,36.89384463
MA010120220805468811,천안라트리호텔,,I1,숙박,I101,일반 숙박,I10102,여관/모텔,I55102,여관업,44,충청남도,44133,천안시 서북구,44133520,성정2동,4413310200,성정동,4.41331E+18,1,대지,1416,null,충청남도 천안시 서북구 성정동 1416,4.41335E+11,충청남도 천안시 서북구 성정공원3길,25,null,4.41331E+24,시마빌딩,충청남도 천안시 서북구 성정공원3길 25,331978,31110,,null,,127.1437463,36.82637524
MA010120220805472267,홍익돈까스,,I2,음식,I203,일식,I20302,일식 카레/돈가스/덮밥,I56123,서양식 음식점업,44,충청남도,44133,천안시 서북구,44133590,부성2동,4413310400,두정동,4.41331E+18,1,대지,975,null,충청남도 천안시 서북구 두정동 975,4.41333E+11,충청남도 천안시 서북구 두정로,159,null,4.41331E+24,나우휘트니스센타,충청남도 천안시 서북구 두정로 159,331960,31100,,1,,127.1344004,36.83407559
MA010120220805471583,힐스템해독센터,,S2,수리·개인,S208,욕탕·신체관리,S20802,마사지/안마,S96122,마사지업,44,충청남도,44230,논산시,44230520,부창동,4423010300,대교동,4.42301E+18,1,대지,305,44,충청남도 논산시 대교동 305-44,4.42305E+11,충청남도 논산시 중앙로506번길,48,7,4.42301E+24,,충청남도 논산시 중앙로506번길 48-7,320801,32948,,1,,127.0867818,36.21041016
MA010120220805472315,닭치고한잔,,I2,음식,I211,주점,I21104,요리 주점,I56219,기타 주점업,44,충청남도,44210,서산시,44210550,석남동,4421010800,석남동,4.42101E+18,1,대지,82,19,충청남도 서산시 석남동 82-19,4.42103E+11,충청남도 서산시 동서1로,131,null,4.42101E+24,,충청남도 서산시 동서1로 131,356110,32004,,1,,126.4562267,36.76630722
MA010120220805471858,모던PC,,R1,예술·스포츠,R104,유원지·오락,R10406,PC방,R91222,컴퓨터 게임방 운영업,44,충청남도,44133,천안시 서북구,44133590,부성2동,4413310400,두정동,4.41331E+18,1,대지,1872,null,충청남도 천안시 서북구 두정동 1872,4.41335E+11,충청남도 천안시 서북구 두정고8길,9,null,4.41331E+24,영광빌딩,충청남도 천안시 서북구 두정고8길 9,331964,31089,,null,,127.1318549,36.83809423
MA010120220805471317,이춘봉,,I2,음식,I210,기타 간이,I21006,치킨,I56193,치킨 전문점,44,충청남도,44133,천안시 서북구,44133250,성환읍,4413325021,성환읍,4.41333E+18,1,대지,449,45,충청남도 천안시 서북구 성환읍 성환리 449-45,4.41335E+11,충청남도 천안시 서북구 성환읍 성환9길,11,3,4.41333E+24,,충청남도 천안시 서북구 성환읍 성환9길 11-3,331805,31016,,1,,127.1290382,36.91636597
MA010120220805471447,캠핑고래예산홍성점,,G2,소매,G213,오락용품 소매,G21304,운동용품 소매업,G47631,운동 및 경기용품 소매업,44,충청남도,44810,예산군,44810400,오가면,4481040025,오가면,4.48104E+18,1,대지,142,18,충청남도 예산군 오가면 월곡리 142-18,4.48103E+11,충청남도 예산군 오가면 충서로,381,null,4.48104E+24,,충청남도 예산군 오가면 충서로 381,340913,32426,,1,,126.7793651,36.67107052
MA010120220805470961,이우철한방누룽지삼계탕,,I2,음식,I201,한식,I20102,국/탕/찌개류,I56111,한식 일반 음식점업,44,충청남도,44131,천안시 동남구,44131530,원성1동,4413111200,유량동,4.41311E+18,1,대지,274,16,충청남도 천안시 동남구 유량동 274-16,4.41315E+11,충청남도 천안시 동남구 태조산길,142,3,4.41311E+24,,충청남도 천안시 동남구 태조산길 142-3,330952,31068,,1,,127.1795754,36.81457024
MA010120220805470771,GS25홍성,,G2,소매,G204,종합 소매,G20405,편의점,G47122,체인화 편의점,44,충청남도,44800,홍성군,44800250,홍성읍,4480025021,홍성읍,4.48003E+18,1,대지,450,null,충청남도 홍성군 홍성읍 오관리 450,4.48003E+11,충청남도 홍성군 홍성읍 문화로,117,null,4.48003E+24,,충청남도 홍성군 홍성읍 문화로 117,350817,32237,,null,,126.662111,36.5977099
MA010120220805470787,밥장인서산,,I2,음식,I201,한식,I20101,백반/한정식,I56111,한식 일반 음식점업,44,충청남도,44210,서산시,44210510,부춘동,4421010100,읍내동,4.42101E+18,1,대지,54,8,충청남도 서산시 읍내동 54-8,4.42103E+11,충청남도 서산시 호수공원4로,18,null,4.42101E+24,,충청남도 서산시 호수공원4로 18,356805,31989,,1,,126.4479323,36.77494903
MA010120220805470807,형제에어컨,,G2,소매,G208,가전·통신 소매,G20803,가전제품 소매업,G47320,가전제품 소매업,44,충청남도,44770,서천군,44770390,종천면,4477039030,종천면,4.47704E+18,1,대지,197,null,충청남도 서천군 종천면 지석리 197,4.47705E+11,충청남도 서천군 종천면 지석길56번길,10,9,4.47704E+24,,충청남도 서천군 종천면 지석길56번길 10-9,325872,33612,,null,,126.6848115,36.11417545
MA010120220805471368,더옹기cafe,,I2,음식,I212,비알코올 ,I21201,카페,I56221,커피 전문점,44,충청남도,44800,홍성군,44800380,갈산면,4480038032,갈산면,4.48004E+18,1,대지,110,17,충청남도 홍성군 갈산면 동성리 110-17,4.48005E+11,충청남도 홍성군 갈산면 갈산서길475번길,127,null,4.48004E+24,,충청남도 홍성군 갈산면 갈산서길475번길 127,350852,32200,,1,,126.5195764,36.63671078
MA010120220805473892,오두막집,,I2,음식,I201,한식,I20101,백반/한정식,I56111,한식 일반 음식점업,44,충청남도,44760,부여군,44760250,부여읍,4476025029,부여읍,4.47603E+18,1,대지,102,null,충청남도 부여군 부여읍 구아리 102,4.47603E+11,충청남도 부여군 부여읍 나성로,117,13,4.47603E+24,,충청남도 부여군 부여읍 나성로 117-13,323805,33139,,null,,126.9086104,36.28567576
MA010120220805473726,박선희헤어,,S2,수리·개인,S207,이용·미용,S20701,미용실,S96112,두발 미용업,44,충청남도,44230,논산시,44230510,취암동,4423010500,취암동,4.42301E+18,1,대지,95,null,충청남도 논산시 취암동 95,4.42305E+11,충청남도 논산시 논산대로348번길,7,null,4.42301E+24,주공아파트,충청남도 논산시 논산대로348번길 7,320755,32984,,1,,127.1003674,36.19428148
MA010120220805473733,로얄스텐드빠단란주점,,I2,음식,I211,주점,I21101,일반 유흥 주점,I56211,일반 유흥 주점업,44,충청남도,44200,아산시,44200570,온양1동,4420010100,온천동,4.42001E+18,1,대지,78,11,충청남도 아산시 온천동 78-11,4.42005E+11,충청남도 아산시 청운로84번길,20,null,4.42001E+24,대경무도학원,충청남도 아산시 청운로84번길 20,336011,31520,,null,,127.0090201,36.78093772
MA010120220805474231,지평씨앤디지평C&D,,M1,과학·기술,M107,본사·경영 컨설팅,M10703,경영 컨설팅업,M71531,경영 컨설팅업,44,충청남도,44200,아산시,44200330,탕정면,4420033024,탕정면,4.42003E+18,1,대지,210,9,충청남도 아산시 탕정면 호산리 210-9,4.42003E+11,충청남도 아산시 탕정면 선문로,373,1,4.42003E+24,LCD노래방,충청남도 아산시 탕정면 선문로 373-1,336843,31457,,1,,127.0799749,36.80853355
MA010120220805473815,뷰티플러스,,S2,수리·개인,S207,이용·미용,S20702,피부 관리실,S96113,피부 미용업,44,충청남도,44210,서산시,44210550,석남동,4421010800,석남동,4.42101E+18,1,대지,9,11,충청남도 서산시 석남동 9-11,4.42103E+11,충청남도 서산시 덕지천로,34,null,4.42101E+24,,충청남도 서산시 덕지천로 34,356110,31995,,2,,126.4551498,36.7725289
MA010120220805473739,타이에스,,S2,수리·개인,S208,욕탕·신체관리,S20802,마사지/안마,S96122,마사지업,44,충청남도,44200,아산시,44200360,둔포면,4420036032,둔포면,4.42004E+18,1,대지,1703,null,충청남도 아산시 둔포면 석곡리 1703,4.42003E+11,충청남도 아산시 둔포면 아산밸리중앙로,80,20,4.42004E+24,,충청남도 아산시 둔포면 아산밸리중앙로 80-20,336871,31406,,2,,127.0570053,36.92039382
MA010120220805472693,가족커플펜션해루피아,,I1,숙박,I101,일반 숙박,I10103,펜션,I55109,기타 일반 및 생활 숙박시설 운영업,44,충청남도,44825,태안군,44825253,안면읍,4482525321,안면읍,4.48253E+18,1,대지,63,22,충청남도 태안군 안면읍 승언리 63-22,4.48252E+11,충청남도 태안군 안면읍 안면대로,3071,38,4.48253E+24,,충청남도 태안군 안면읍 안면대로 3071-38,357961,32166,,null,,126.3540593,36.50300184
MA010120220805473260,인생마차,,I2,음식,I211,주점,I21104,요리 주점,I56219,기타 주점업,44,충청남도,44200,아산시,44200570,온양1동,4420010100,온천동,4.42001E+18,1,대지,83,3,충청남도 아산시 온천동 83-3,4.42003E+11,충청남도 아산시 청운로,79,null,4.42001E+24,,충청남도 아산시 청운로 79,336011,31514,,null,,127.0067996,36.78111746
MA010120220805472966,정사부마라탕,,I2,음식,I202,중식,I20202,마라탕/훠궈,I56121,중식 음식점업,44,충청남도,44131,천안시 동남구,44131590,신안동,4413111900,안서동,4.41311E+18,1,대지,313,4,충청남도 천안시 동남구 안서동 313-4,4.41315E+11,충청남도 천안시 동남구 중암샛길,12,null,4.41311E+24,월드타운,충청남도 천안시 동남구 중암샛길 12,330997,31066,,1,,127.1756623,36.83143103
MA010120220805472776,모든수선,,S2,수리·개인,S206,기타 가정용품 수리,S20601,의류/이불 수선업,S95391,의복 및 기타 가정용 직물제품 수리업,44,충청남도,44710,금산군,44710390,추부면,4471039023,추부면,4.47104E+18,1,대지,569,2,충청남도 금산군 추부면 마전리 569-2,4.47103E+11,충청남도 금산군 추부면 마전로,43,null,4.47104E+24,참지,충청남도 금산군 추부면 마전로 43,312941,32714,,1,,127.4676221,36.19040365
MA010120220805473091,기쁨의시작,,I2,음식,I210,기타 간이,I21001,빵/도넛,I56191,제과점업,44,충청남도,44131,천안시 동남구,44131580,청룡동,4413111100,청당동,4.41311E+18,1,대지,899,null,충청남도 천안시 동남구 청당동 899,4.41315E+11,충청남도 천안시 동남구 청수10길,15,null,4.41311E+24,,충청남도 천안시 동남구 청수10길 15,330270,31197,,null,,127.1609165,36.78249362
MA010120220805473284,약선김치,,G2,소매,G205,식료품 소매,G20509,반찬/식료품 소매업,G47218,조리 반찬류 소매업,44,충청남도,44131,천안시 동남구,44131580,청룡동,4413111100,청당동,4.41311E+18,1,대지,574,null,충청남도 천안시 동남구 청당동 574,4.41313E+11,충청남도 천안시 동남구 청수6로,35,60,4.41311E+24,,충청남도 천안시 동남구 청수6로 35-60,330270,31198,,null,,127.157793,36.78433697
MA010120220805472980,지케이홍삼,,G2,소매,G212,기타 생활용품 소매,G21202,주방/가정용품 소매업,G47592,"주방용품 및 가정용 유리, 요업제품 소매업",44,충청남도,44710,금산군,44710250,금산읍,4471025022,금산읍,4.47103E+18,1,대지,8,1,충청남도 금산군 금산읍 중도리 8-1,4.47103E+11,충청남도 금산군 금산읍 인삼약초로,45,null,4.47103E+24,"금산국제인삼시장조합,약초상가",충청남도 금산군 금산읍 인삼약초로 45,312806,32739,,null,,127.4983281,36.10195798
MA010120220805476238,준코-천안,,I2,음식,I211,주점,I21104,요리 주점,I56219,기타 주점업,44,충청남도,44133,천안시 서북구,44133566,불당1동,4413310800,불당동,4.41331E+18,1,대지,706,null,충청남도 천안시 서북구 불당동 706,4.41335E+11,충청남도 천안시 서북구 검은들3길,21,null,4.41331E+24,탑필드프라자빌딩,충청남도 천안시 서북구 검은들3길 21,331982,31163,,2,,127.1103001,36.81153987
MA010120220805475651,청양가전가구프라자,,G2,소매,G208,가전·통신 소매,G20803,가전제품 소매업,G47320,가전제품 소매업,44,충청남도,44790,청양군,44790250,청양읍,4479025029,청양읍,4.47903E+18,1,대지,178,8,충청남도 청양군 청양읍 송방리 178-8,4.47903E+11,충청남도 청양군 청양읍 문화예술로,140,null,4.47903E+24,,충청남도 청양군 청양읍 문화예술로 140,345801,33329,,null,,126.7992751,36.45179191
MA010120220805476256,커리어넷천안지사,,N1,시설관리·임대,N104,고용 알선,N10401,고용 알선업,N75110,고용 알선업,44,충청남도,44131,천안시 동남구,44131590,신안동,4413111800,신부동,4.41311E+18,1,대지,462,1,충청남도 천안시 동남구 신부동 462-1,4.41313E+11,충청남도 천안시 동남구 만남로,40,null,4.41311E+24,,충청남도 천안시 동남구 만남로 40,330993,31123,,null,,127.1566219,36.8186091
MA010120220805476511,대륙주유소,,G2,소매,G214,연료 소매,G21401,주유소,G47711,운송장비용 주유소 운영업,44,충청남도,44131,천안시 동남구,44131590,신안동,4413111800,신부동,4.41311E+18,1,대지,58,1,충청남도 천안시 동남구 신부동 58-1,4.41312E+11,충청남도 천안시 동남구 천안대로,782,null,4.41311E+24,오룡휴게소,충청남도 천안시 동남구 천안대로 782,330989,31067,,null,,127.1654353,36.8182928
MA010120220805476512,산마루,,R1,예술·스포츠,R104,유원지·오락,R10499,기타 오락관련 서비스업,R91299,그 외 기타 분류 안된 오락관련 서비스업,44,충청남도,44810,예산군,44810340,대흥면,4481034022,대흥면,4.48103E+18,1,대지,67,25,충청남도 예산군 대흥면 상중리 67-25,4.48103E+11,충청남도 예산군 대흥면 예당로,765,42,4.48103E+24,,충청남도 예산군 대흥면 예당로 765-42,340843,32450,,null,,126.7889199,36.59597504
MA010120220805476343,티에이치구공외식산업)씨스트로(SEASTRO,,I2,음식,I201,한식,I20111,횟집,I56114,한식 해산물 요리 전문점,44,충청남도,44825,태안군,44825253,안면읍,4482525324,안면읍,4.48253E+18,1,대지,765,81,충청남도 태안군 안면읍 중장리 765-81,4.48253E+11,충청남도 태안군 안면읍 꽃지해안로,204,null,4.48253E+24,아일랜드리솜,충청남도 태안군 안면읍 꽃지해안로 204,357962,32166,,1,,126.3366548,36.49009953
MA010120220805476192,사회적협동조합다물,,R1,예술·스포츠,R104,유원지·오락,R10499,기타 오락관련 서비스업,R91299,그 외 기타 분류 안된 오락관련 서비스업,44,충청남도,44180,보령시,44180390,미산면,4418039027,미산면,4.41804E+18,1,대지,4,2,충청남도 보령시 미산면 봉성리 4-2,4.41805E+11,충청남도 보령시 미산면 봉성길,307,null,4.41804E+24,,충청남도 보령시 미산면 봉성길 307,355873,33513,,null,,126.711993,36.2328823
MA010120220805476200,아산도농교류센터,,R1,예술·스포츠,R104,유원지·오락,R10499,기타 오락관련 서비스업,R91299,그 외 기타 분류 안된 오락관련 서비스업,44,충청남도,44200,아산시,44200310,송악면,4420031024,송악면,4.42003E+18,1,대지,108,8,충청남도 아산시 송악면 강당리 108-8,4.42005E+11,충청남도 아산시 송악면 강당로115번길,5,null,4.42003E+24,,충청남도 아산시 송악면 강당로115번길 5,336921,31557,,null,,127.017226,36.72433151
MA010120220805475852,법곡스포츠센터,,R1,예술·스포츠,R103,스포츠 서비스,R10314,기타 스포츠시설 운영업,R91139,그 외 기타 스포츠시설 운영업,44,충청남도,44200,아산시,44200620,온양6동,4420010700,법곡동,4.42001E+18,1,대지,263,1,충청남도 아산시 법곡동 263-1,4.42005E+11,충청남도 아산시 외암로1399번길,142,null,4.42001E+24,,충청남도 아산시 외암로1399번길 142,336150,31560,,null,,127.0041512,36.75547528
MA010120220805476358,문화랑,,N1,시설관리·임대,N108,기타 사업 서비스,N10802,전시/컨벤션/행사 대행 서비스업,N75992,"전시, 컨벤션 및 행사 대행업",44,충청남도,44131,천안시 동남구,44131590,신안동,4413111900,안서동,4.41311E+18,1,대지,365,3,충청남도 천안시 동남구 안서동 365-3,4.41315E+11,충청남도 천안시 동남구 문암1길,68,null,4.41311E+24,안서금호어울림아파트,충청남도 천안시 동남구 문암1길 68,330778,31065,,1,,127.1767309,36.84050415
MA010120220805475388,비비큐아산탕정점,,I2,음식,I210,기타 간이,I21006,치킨,I56193,치킨 전문점,44,충청남도,44200,아산시,44200330,탕정면,4420033022,탕정면,4.42003E+18,1,대지,937,8,충청남도 아산시 탕정면 명암리 937-8,4.42005E+11,충청남도 아산시 탕정면 탕정면로8번길,10,8,4.42003E+24,,충청남도 아산시 탕정면 탕정면로8번길 10-8,336841,31456,,1,,127.0576547,36.79813061
MA010120220805474961,가의도펜션민박,,I1,숙박,I101,일반 숙박,I10103,펜션,I55109,기타 일반 및 생활 숙박시설 운영업,44,충청남도,44825,태안군,44825330,근흥면,4482533029,근흥면,4.48253E+18,1,대지,388,null,충청남도 태안군 근흥면 가의도리 388,4.48255E+11,충청남도 태안군 근흥면 가의도길,62,1,4.48253E+24,,충청남도 태안군 근흥면 가의도길 62-1,357941,32133,,null,,126.071753,36.67563594
MA010120220805475510,찐한식뷔페,,I2,음식,I207,구내식당·뷔페,I20702,뷔페,I56111,한식 일반 음식점업,44,충청남도,44270,당진시,44270510,당진1동,4427010600,수청동,4.42701E+18,1,대지,1059,null,충청남도 당진시 수청동 1059,4.42703E+11,충청남도 당진시 남부로,266,null,4.42701E+24,지혜,충청남도 당진시 남부로 266,343050,31778,,1,,126.6460038,36.88594452
MA010120220805474652,일등로또판매점,,R1,예술·스포츠,R104,유원지·오락,R10410,복권 발행/판매업,R91241,복권 발행 및 판매업,44,충청남도,44131,천안시 동남구,44131540,원성2동,4413110700,원성동,4.41311E+18,1,대지,124,5,충청남도 천안시 동남구 원성동 124-5,4.41313E+11,충청남도 천안시 동남구 충절로,162,null,4.41311E+24,,충청남도 천안시 동남구 충절로 162,330953,31186,,null,,127.1585802,36.80456478
MA010120220805474771,천안노동법률사무소,,M1,과학·기술,M103,법무관련 ,M10307,공인노무사,M71109,기타 법무관련 서비스업,44,충청남도,44133,천안시 서북구,44133590,부성2동,4413310400,두정동,4.41331E+18,1,대지,719,null,충청남도 천안시 서북구 두정동 719,4.41332E+11,충청남도 천안시 서북구 서부대로,731,null,4.41331E+24,두정정형외과,충청남도 천안시 서북구 서부대로 731,331958,31090,,4,,127.1331301,36.83239017
MA010120220805474776,쎄븐피시,,R1,예술·스포츠,R104,유원지·오락,R10406,PC방,R91222,컴퓨터 게임방 운영업,44,충청남도,44230,논산시,44230510,취암동,4423010500,취암동,4.42301E+18,1,대지,1044,8,충청남도 논산시 취암동 1044-8,4.42305E+11,충청남도 논산시 관촉로285번길,17,null,4.42301E+24,,충청남도 논산시 관촉로285번길 17,320802,32974,,1,,127.089491,36.20310362
MA010120220805475279,크로스핏고마,,R1,예술·스포츠,R103,스포츠 서비스,R10307,헬스장,R91132,체력 단련시설 운영업,44,충청남도,44150,공주시,44150570,신관동,4415012000,신관동,4.41501E+18,1,대지,652,6,충청남도 공주시 신관동 652-6,4.41503E+11,충청남도 공주시 번영2로,75,null,4.41501E+24,,충청남도 공주시 번영2로 75,314802,32583,,1,,127.1367796,36.47313977
MA010120220805474665,진머리방,,S2,수리·개인,S207,이용·미용,S20701,미용실,S96112,두발 미용업,44,충청남도,44131,천안시 동남구,44131560,일봉동,4413111400,다가동,4.41311E+18,1,대지,394,16,충청남도 천안시 동남구 다가동 394-16,4.41315E+11,충청남도 천안시 동남구 다가4길,13,null,4.41311E+24,진마트,충청남도 천안시 동남구 다가4길 13,330110,31154,,1,,127.141042,36.79953706
MA010120220805475366,오공주네에어컨보일러,,S2,수리·개인,S205,가전제품 수리,S20501,가전제품 수리업,S95310,가전제품 수리업,44,충청남도,44131,천안시 동남구,44131580,청룡동,4413112000,구룡동,4.41311E+18,1,대지,113,3,충청남도 천안시 동남구 구룡동 113-3,4.41315E+11,충청남도 천안시 동남구 용평1길,13,null,4.41311E+24,,충청남도 천안시 동남구 용평1길 13,330080,31212,,null,,127.1553838,36.76599907
MA010120220805474682,춘희,,I2,음식,I211,주점,I21104,요리 주점,I56219,기타 주점업,44,충청남도,44133,천안시 서북구,44133560,백석동,4413310300,백석동,4.41331E+18,1,대지,302,7,충청남도 천안시 서북구 백석동 302-7,4.41333E+11,충청남도 천안시 서북구 백석로,17,5,4.41331E+24,중화요리난향,충청남도 천안시 서북구 백석로 17-5,331979,31095,,1,,127.1139764,36.82319231
MA010120220805474997,금강어죽,,I2,음식,I201,한식,I20101,백반/한정식,I56111,한식 일반 음식점업,44,충청남도,44770,서천군,44770253,서천읍,4477025321,서천읍,4.47703E+18,1,대지,856,13,충청남도 서천군 서천읍 군사리 856-13,4.47705E+11,충청남도 서천군 서천읍 충절로41번길,5,5,4.47703E+24,,충청남도 서천군 서천읍 충절로41번길 5-5,325802,33642,,null,,126.6870723,36.07576278
MA010120220805474807,폰앤피규어,,G2,소매,G213,오락용품 소매,G21306,장난감 소매업,G47640,"게임용구, 인형 및 장난감 소매업",44,충청남도,44230,논산시,44230510,취암동,4423010900,내동,4.42301E+18,1,대지,1035,null,충청남도 논산시 내동 1035,4.42303E+11,충청남도 논산시 시민로,299,1,4.42301E+24,,충청남도 논산시 시민로 299-1,320802,32981,,1,,127.0920417,36.19215475
MA010120220805475068,축산물프라자,,G2,소매,G205,식료품 소매,G20503,정육점,G47212,육류 소매업,44,충청남도,44200,아산시,44200350,음봉면,4420035034,음봉면,4.42004E+18,1,대지,365,1,충청남도 아산시 음봉면 덕지리 365-1,4.42003E+11,충청남도 아산시 음봉면 월암로,8,null,4.42004E+24,,충청남도 아산시 음봉면 월암로 8,336861,31417,,1,,127.0755268,36.83826434
MA010120220805478293,나드리상점,,N1,시설관리·임대,N110,가정용품 대여,N11001,스포츠/레크리에이션 용품 대여업,N76210,스포츠 및 레크리에이션 용품 임대업,44,충청남도,44131,천안시 동남구,44131580,청룡동,4413112000,구룡동,4.41311E+18,1,대지,539,10,충청남도 천안시 동남구 구룡동 539-10,4.41315E+11,충청남도 천안시 동남구 용평3길,22,null,4.41311E+24,,충청남도 천안시 동남구 용평3길 22,330080,31212,,null,,127.1454018,36.7742456
MA010120220805477730,순복이네반찬,,G2,소매,G205,식료품 소매,G20508,건강보조식품 소매업,G47217,건강 보조식품 소매업,44,충청남도,44825,태안군,44825250,태안읍,4482525021,태안읍,4.48253E+18,1,대지,257,4,충청남도 태안군 태안읍 동문리 257-4,4.48255E+11,충청남도 태안군 태안읍 동문1길,73,null,4.48253E+24,,충청남도 태안군 태안읍 동문1길 73,357905,32143,,null,,126.3054265,36.74962991
MA010120220805478437,철이네1번지,,I2,음식,I201,한식,I20107,돼지고기 구이/찜,I56113,한식 육류 요리 전문점,44,충청남도,44133,천안시 서북구,44133567,불당2동,4413310800,불당동,4.41331E+18,1,대지,1488,null,충청남도 천안시 서북구 불당동 1488,4.41333E+11,충청남도 천안시 서북구 불당25로,200,null,4.41331E+24,NS타워,충청남도 천안시 서북구 불당25로 200,331230,31156,,1,,127.109128,36.81887557
MA010120220805478078,예스민공인중개사,,L1,부동산,L102,부동산 서비스,L10203,부동산 중개/대리업,L68221,부동산 중개 및 대리업,44,충청남도,44230,논산시,44230510,취암동,4423010900,내동,4.42301E+18,1,대지,794,null,충청남도 논산시 내동 794,4.42305E+11,충청남도 논산시 시민로194번길,24,null,4.42301E+24,,충청남도 논산시 시민로194번길 24,320804,32989,,1,,127.1006564,36.18553247
MA010120220805478137,예촌포장마차,,I2,음식,I211,주점,I21103,생맥주 전문,I56213,생맥주 전문점,44,충청남도,44270,당진시,44270320,석문면,4427032025,석문면,4.42703E+18,1,대지,907,1,충청남도 당진시 석문면 교로리 907-1,4.42705E+11,충청남도 당진시 석문면 교로길,3,null,4.48303E+24,윤선이네막창구이,충청남도 당진시 석문면 교로길 3,343851,31700,,1,,126.5135641,37.04890877
MA010120220805478400,탑조명인테리어,,M1,과학·기술,M112,전문 디자인,M11201,인테리어 디자인업,F42412,"도배, 실내 장식 및 내장 목공사업",44,충청남도,44180,보령시,44180545,대천4동,4418010500,명천동,4.41801E+18,1,대지,887,19,충청남도 보령시 명천동 887-19,4.41805E+11,충청남도 보령시 양지뜸길,19,14,4.41801E+24,,충청남도 보령시 양지뜸길 19-14,355941,33484,,null,,126.6106262,36.3286896
