상가업소번호,상호명,지점명,상권업종대분류코드,상권업종대분류명,상권업종중분류코드,상권업종중분류명,상권업종소분류코드,상권업종소분류명,표준산업분류코드,표준산업분류명,시도코드,시도명,시군구코드,시군구명,행정동코드,행정동명,법정동코드,법정동명,지번코드,대지구분코드,대지구분명,지번본번지,지번부번지,지번주소,도로명코드,도로명,건물본번지,건물부번지,건물관리번호,건물명,도로명주소,구우편번호,신우편번호,동정보,층정보,호정보,경도,위도
MA0101202210A0082752,엠마스키친,,I2,음식,I204,서양식,I20401,경양식,I56123,서양식 음식점업,41,경기도,41465,용인시 수지구,41465590,성복동,4146510600,성복동,4.14651E+18,1,대지,516,3,경기도 용인시 수지구 성복동 516-3,4.14653E+11,경기도 용인시 수지구 성복2로,270,null,4.14651E+24,,경기도 용인시 수지구 성복2로 270,448831,16806,,,,127.0582289,37.31916439
MA0101202210A0004063,팽성농산물센터,,G2,소매,G205,식료품 소매,G20506,채소/과일 소매업,G47215,"채소, 과실 및 뿌리작물 소매업",41,경기도,41220,평택시,41220250,팽성읍,4122025039,팽성읍,4.12203E+18,1,대지,93,1,경기도 평택시 팽성읍 석근리 93-1,4.12204E+11,경기도 평택시 팽성읍 석근2길,36,null,4.12203E+24,,경기도 평택시 팽성읍 석근2길 36,451803,17997,,,,127.0480753,36.93633588
MA0101202210A0089792,역전할머니맥주평택궁리점,,I2,음식,I211,주점,I21103,생맥주 전문,I56213,생맥주 전문점,41,경기도,41220,평택시,41220330,고덕면,4122033026,고덕면,4.12203E+18,1,대지,72,11,경기도 평택시 고덕면 궁리 72-11,4.12204E+11,경기도 평택시 고덕면 궁2길,67,null,4.12203E+24,,경기도 평택시 고덕면 궁2길 67,451841,17821,,,,127.0343809,37.01803922
MA0101202210A0101847,지제역부동산마트공인중개사사무소,,L1,부동산,L102,부동산 서비스,L10203,부동산 중개/대리업,L68221,부동산 중개 및 대리업,41,경기도,41220,평택시,41220650,동삭동,4122011900,동삭동,4.12201E+18,1,대지,386,23,경기도 평택시 동삭동 386-23,4.12203E+11,경기도 평택시 지제동삭2로,181,24,4.12201E+24,,경기도 평택시 지제동삭2로 181-24,450802,18029,,1,,127.0938317,37.01683196
MA0101202210A0050965,혜윰건축사사무소,,M1,과학·기술,M109,기술 서비스,M10901,건축 설계 및 관련 서비스업,M72111,건축 설계 및 관련 서비스업,41,경기도,41271,안산시 상록구,41271510,일동,4127110100,일동,4.12711E+18,1,대지,624,12,경기도 안산시 상록구 일동 624-12,4.12714E+11,경기도 안산시 상록구 웃말5길,9,1,4.12711E+24,고요한정원,경기도 안산시 상록구 웃말5길 9-1,426860,15328,,,,126.8710457,37.30618207
MA0101202210A0067941,양촌리민물장어,,I2,음식,I201,한식,I20112,해산물 구이/찜,I56111,한식 일반 음식점업,41,경기도,41480,파주시,41480570,운정3동,4148010800,야당동,4.14801E+18,1,대지,920,null,경기도 파주시 야당동 920,4.14803E+11,경기도 파주시 경의로,968,null,4.14801E+24,,경기도 파주시 경의로 968,413200,10906,,,,126.7597475,37.70380206
MA0101202210A0067942,에프엠카페,,I2,음식,I212,비알코올 ,I21201,카페,I56221,커피 전문점,41,경기도,41190,부천시,41190742,신중동,4119010800,중동,4.11901E+18,1,대지,1151,4,경기도 부천시 중동 1151-4,4.11904E+11,경기도 부천시 중동로248번길,31,null,4.11951E+24,이스트타워투,경기도 부천시 중동로248번길 31,420852,14548,,,,126.770369,37.50179662
MA0101202210A0068914,카이로스라운지역동점,,I2,음식,I201,한식,I20101,백반/한정식,I56111,한식 일반 음식점업,41,경기도,41610,광주시,41610510,경안동,4161011200,역동,4.16101E+18,1,대지,8,19,경기도 광주시 역동 8-19,4.16103E+11,경기도 광주시 중앙로,95,5,4.16101E+24,성환빌딩,경기도 광주시 중앙로 95-5,464807,12759,,8,,127.2583068,37.40813748
MA0101202210A0072309,디자인올타,,M1,과학·기술,M112,전문 디자인,M11203,시각 디자인업,M73203,시각 디자인업,41,경기도,41133,성남시 중원구,41133570,상대원1동,4113310500,상대원동,4.11331E+18,1,대지,5460,null,경기도 성남시 중원구 상대원동 5460,4.11334E+11,경기도 성남시 중원구 갈마치로288번길,14,null,4.11331E+24,성남SKV1TOWER,경기도 성남시 중원구 갈마치로288번길 14,462121,13201,,,,127.1738417,37.43950257
MA0101202210A0083536,좋아좋아메들리,,I2,음식,I211,주점,I21104,요리 주점,I56219,기타 주점업,41,경기도,41190,부천시,41190603,심곡동,4119010200,심곡동,4.11901E+18,1,대지,388,11,경기도 부천시 심곡동 388-11,4.11904E+11,경기도 부천시 신흥로16번길,59,null,4.11951E+24,,경기도 부천시 신흥로16번길 59,420827,14636,,1,,126.7798074,37.48472976
MA0101202210A0071854,희야,,I2,음식,I203,일식,I20301,일식 회/초밥,I56122,일식 음식점업,41,경기도,41220,평택시,41220520,서정동,4122010100,서정동,4.12201E+18,1,대지,816,2,경기도 평택시 서정동 816-2,4.12204E+11,경기도 평택시 특구로23번길,19,null,4.12201E+24,,경기도 평택시 특구로23번길 19,459813,17774,,1,,127.0620911,37.06755302
MA0101202210A0076234,비에이치씨충호회관점,,I2,음식,I210,기타 간이,I21006,치킨,I56193,치킨 전문점,41,경기도,41360,남양주시,41360250,와부읍,4136025024,와부읍,4.13603E+18,2,산,319,1,경기도 남양주시 와부읍 월문리 산319-1,4.13604E+11,경기도 남양주시 와부읍 석실로260번길,74,17,4.13603E+24,,경기도 남양주시 와부읍 석실로260번길 74-17,472905,12203,,1,,127.2256856,37.60292814
MA0101202210A0058768,생곡메밀막국수,,I2,음식,I201,한식,I20105,국수/칼국수,I56112,한식 면 요리 전문점,41,경기도,41590,화성시,41590540,병점2동,4159011700,병점동,4.15901E+18,1,대지,208,null,경기도 화성시 병점동 208,4.15903E+11,경기도 화성시 동탄지성로,222,null,4.15901E+24,,경기도 화성시 동탄지성로 222,445360,18421,,1,,127.0531178,37.21383105
MA010120220805430777,고매커피,,I2,음식,I212,비알코올 ,I21201,카페,I56221,커피 전문점,41,경기도,41463,용인시 기흥구,41463540,기흥동,4146310800,고매동,4.14631E+18,1,대지,245,2,경기도 용인시 기흥구 고매동 245-2,4.14634E+11,경기도 용인시 기흥구 원고매로2번길,85,2,4.14631E+24,,경기도 용인시 기흥구 원고매로2번길 85-2,446901,17086,,1,,127.1107596,37.2194952
MA010120220805430785,꿈의부동산공인중개사사무소,,L1,부동산,L102,부동산 서비스,L10203,부동산 중개/대리업,L68221,부동산 중개 및 대리업,41,경기도,41271,안산시 상록구,41271540,본오1동,4127110400,본오동,4.12711E+18,1,대지,866,17,경기도 안산시 상록구 본오동 866-17,4.12713E+11,경기도 안산시 상록구 본원로,49,null,4.12711E+24,,경기도 안산시 상록구 본원로 49,426813,15551,,,,126.8640051,37.29204895
MA010120220805430792,푸라닭성남동점,,I2,음식,I210,기타 간이,I21006,치킨,I56193,치킨 전문점,41,경기도,41133,성남시 중원구,41133510,성남동,4113310100,성남동,4.11331E+18,1,대지,2616,null,경기도 성남시 중원구 성남동 2616,4.11333E+11,경기도 성남시 중원구 광명로,138,null,4.11331E+24,,경기도 성남시 중원구 광명로 138,462826,13360,,1,,127.1435025,37.43726821
MA010120220805430794,유니텍이엔씨,,M1,과학·기술,M109,기술 서비스,M10903,건물 및 토목 엔지니어링 서비스업,M72121,건물 및 토목 엔지니어링 서비스업,41,경기도,41450,하남시,41450520,신장1동,4145010600,신장동,4.14501E+18,1,대지,427,372,경기도 하남시 신장동 427-372,4.14504E+11,경기도 하남시 하남대로801번길,74,null,4.14501E+24,하이렉스오피스텔,경기도 하남시 하남대로801번길 74,465820,12957,,14,,127.2058887,37.53792059
MA010120220805430809,엘에스라인디스트리뷰션,,N1,시설관리·임대,N108,기타 사업 서비스,N10802,전시/컨벤션/행사 대행 서비스업,N75992,"전시, 컨벤션 및 행사 대행업",41,경기도,41480,파주시,41480540,교하동,4148011500,문발동,4.14801E+18,1,대지,534,4,경기도 파주시 문발동 534-4,4.14804E+11,경기도 파주시 회동길,77,4,4.14803E+24,,경기도 파주시 회동길 77-4,413070,10881,,,,126.6874086,37.70637062
MA010120220805430833,두메골민속주점,,I2,음식,I211,주점,I21104,요리 주점,I56219,기타 주점업,41,경기도,41171,안양시 만안구,41171510,안양1동,4117110100,안양동,4.11711E+18,1,대지,638,4,경기도 안양시 만안구 안양동 638-4,4.11713E+11,경기도 안양시 만안구 만안로,214,null,4.11711E+24,,경기도 안양시 만안구 만안로 214,430831,13992,,1,,126.9237979,37.39989816
MA010120220805430839,수지상현문고,,G2,소매,G213,오락용품 소매,G21301,서점,G47611,"서적, 신문 및 잡지류 소매업",41,경기도,41465,용인시 수지구,41465580,상현2동,4146510700,상현동,4.14651E+18,1,대지,254,9,경기도 용인시 수지구 상현동 254-9,4.14653E+11,경기도 용인시 수지구 상현로,114,null,4.14651E+24,나래빌딩,경기도 용인시 수지구 상현로 114,448132,16930,,,,127.0843349,37.30720461
MA010120220805430984,가원건축사사무소,,M1,과학·기술,M109,기술 서비스,M10901,건축 설계 및 관련 서비스업,M72111,건축 설계 및 관련 서비스업,41,경기도,41220,평택시,41220520,서정동,4122010100,서정동,4.12201E+18,1,대지,795,1,경기도 평택시 서정동 795-1,4.12202E+11,경기도 평택시 경기대로,1387,null,4.12201E+24,승원빌딩,경기도 평택시 경기대로 1387,459813,17773,,3,,127.0638504,37.06897267
MA010120220805430917,슈퍼핑스포츠&치어리딩,,P1,교육,P106,기타 교육,P10603,요가/필라테스 학원,P85612,기타 스포츠 교육기관,41,경기도,41590,화성시,41590600,동탄6동,4159012900,오산동,4.15901E+18,1,대지,995,1,경기도 화성시 오산동 995-1,4.15905E+11,경기도 화성시 동탄기흥로353번길,100,null,4.15901E+24,,경기도 화성시 동탄기흥로353번길 100,445150,18480,,,,127.0855864,37.18785503
MA010120220805430928,서문,,I2,음식,I210,기타 간이,I21006,치킨,I56193,치킨 전문점,41,경기도,41480,파주시,41480570,운정3동,4148010800,야당동,4.14801E+18,1,대지,178,54,경기도 파주시 야당동 178-54,4.14804E+11,경기도 파주시 송학2길,6,29,4.14803E+24,,경기도 파주시 송학2길 6-29,413837,10909,,1,,126.7627294,37.70929347
MA010120220805431008,리트머스,,G2,소매,G209,섬유·의복·신발 소매,G20905,기타 의류 소매업,G47414,셔츠 및 블라우스 소매업,41,경기도,41500,이천시,41500510,창전동,4150010100,창전동,4.15001E+18,1,대지,152,5,경기도 이천시 창전동 152-5,4.15003E+11,경기도 이천시 영창로,165,null,4.15001E+24,엔씨백화점,경기도 이천시 영창로 165,467804,17365,,4,,127.4410745,37.28191625
MA010120220805431018,스테이라운지,,I2,음식,I211,주점,I21104,요리 주점,I56219,기타 주점업,41,경기도,41220,평택시,41220250,팽성읍,4122025041,팽성읍,4.12203E+18,1,대지,112,10,경기도 평택시 팽성읍 안정리 112-10,4.12203E+11,경기도 평택시 팽성읍 안정쇼핑로,25,1,4.12203E+24,,경기도 평택시 팽성읍 안정쇼핑로 25-1,451807,17982,,1,,127.0453043,36.96049118
MA010120220805431042,윈저,,I2,음식,I211,주점,I21101,일반 유흥 주점,I56211,일반 유흥 주점업,41,경기도,41210,광명시,41210633,하안3동,4121010300,하안동,4.12101E+18,1,대지,36,4,경기도 광명시 하안동 36-4,4.12103E+11,경기도 광명시 범안로,1050,null,4.12101E+24,,경기도 광명시 범안로 1050,423848,14305,,3,,126.8797256,37.46217512
MA010120220805431047,오마이블라디,,N1,시설관리·임대,N105,여행사·보조,N10501,여행사,N75210,여행사업,41,경기도,41150,의정부시,41150580,자금동,4115010900,금오동,4.11501E+18,1,대지,473,1,경기도 의정부시 금오동 473-1,4.11503E+11,경기도 의정부시 청사로,45,null,4.11501E+24,플래티넘프라자,경기도 의정부시 청사로 45,480865,11757,,7,,127.0695954,37.75226404
MA010120220805431052,아이키친,,I2,음식,I212,비알코올 ,I21201,카페,I56229,기타 비알코올 음료점업,41,경기도,41131,성남시 수정구,41131625,위례동,4113110800,창곡동,4.11311E+18,1,대지,509,null,경기도 성남시 수정구 창곡동 509,4.11313E+11,경기도 성남시 수정구 위례광장로,300,null,4.11311E+24,창곡동509번지,경기도 성남시 수정구 위례광장로 300,461210,13640,,2,,127.1426826,37.47346723
MA010120220805431059,신세계빈대떡,,I2,음식,I201,한식,I20104,전/부침개,I56111,한식 일반 음식점업,41,경기도,41465,용인시 수지구,41465550,죽전2동,4146510200,죽전동,4.14651E+18,1,대지,1003,120,경기도 용인시 수지구 죽전동 1003-120,4.14652E+11,경기도 용인시 수지구 포은대로,537,null,4.14651E+24,하이카프라자,경기도 용인시 수지구 포은대로 537,448162,16869,,,,127.1081275,37.32616498
MA010120220805430995,윤서엔지니어링,,M1,과학·기술,M109,기술 서비스,M10903,건물 및 토목 엔지니어링 서비스업,M72121,건물 및 토목 엔지니어링 서비스업,41,경기도,41173,안양시 동안구,41173560,관양2동,4117310200,관양동,4.11731E+18,1,대지,954,1,경기도 안양시 동안구 관양동 954-1,4.11734E+11,경기도 안양시 동안구 흥안대로427번길,16,null,4.11731E+24,평촌디지털엠파이어,경기도 안양시 동안구 흥안대로427번길 16,431804,14059,,,,126.9737569,37.39299865
MA010120220805431102,베스킨라빈스용인연원,,I2,음식,I210,기타 간이,I21008,아이스크림/빙수,I56194,김밥 및 기타 간이 음식점업,41,경기도,41463,용인시 기흥구,41463570,마북동,4146311300,마북동,4.14631E+18,1,대지,524,8,경기도 용인시 기흥구 마북동 524-8,4.14634E+11,경기도 용인시 기흥구 연원로42번길,2,null,4.14631E+24,블루밍구성더센트럴,경기도 용인시 기흥구 연원로42번길 2,446938,16909,,1,,127.1113641,37.30043622
MA010120220805431108,에스비에스노래연습장,,R1,예술·스포츠,R104,유원지·오락,R10407,노래방,R91223,노래 연습장 운영업,41,경기도,41285,고양시 일산동구,41285530,정발산동,4128510300,정발산동,4.12851E+18,1,대지,1135,5,경기도 고양시 일산동구 정발산동 1135-5,4.12854E+11,경기도 고양시 일산동구 산두로273번길,31,null,4.12851E+24,,경기도 고양시 일산동구 산두로273번길 31,410828,10357,,지,,126.7775523,37.67406555
MA010120220805431146,거문도,,I2,음식,I201,한식,I20101,백반/한정식,I56111,한식 일반 음식점업,41,경기도,41173,안양시 동안구,41173560,관양2동,4117310200,관양동,4.11731E+18,1,대지,1496,22,경기도 안양시 동안구 관양동 1496-22,4.11734E+11,경기도 안양시 동안구 흥안대로517번길,31,null,4.11731E+24,,경기도 안양시 동안구 흥안대로517번길 31,431846,13951,,1,,126.974747,37.3999094
MA010120220805431170,코끼리를삼킨보아,,M1,과학·기술,M105,광고,M10501,광고 대행업,M71310,광고 대행업,41,경기도,41500,이천시,41500515,증포동,4150010800,갈산동,4.15001E+18,1,대지,715,20,경기도 이천시 갈산동 715-20,4.15004E+11,경기도 이천시 영창로314번길,34,null,4.15001E+24,,경기도 이천시 영창로314번길 34,467110,17361,,4,,127.4592396,37.28066698
MA010120220805431181,지디알골프아카데미(HGA),,R1,예술·스포츠,R103,스포츠 서비스,R10311,골프 연습장,R91136,골프 연습장 운영업,41,경기도,41463,용인시 기흥구,41463516,영덕1동,4146311100,영덕동,4.14631E+18,1,대지,974,7,경기도 용인시 기흥구 영덕동 974-7,4.14633E+11,경기도 용인시 기흥구 흥덕2로,115,null,4.14631E+24,미래도프라자,경기도 용인시 기흥구 흥덕2로 115,446908,16953,,,,127.0737866,37.27783713
MA010120220805431182,달사냥노래광장,,I2,음식,I211,주점,I21101,일반 유흥 주점,I56211,일반 유흥 주점업,41,경기도,41430,의왕시,41430510,고천동,4143010100,고천동,4.14301E+18,1,대지,276,8,경기도 의왕시 고천동 276-8,4.14303E+11,경기도 의왕시 왕곡로,3,null,4.14301E+24,대림빌딩,경기도 의왕시 왕곡로 3,437801,16063,,,,126.9751704,37.3472185
MA010120220805431187,전국택시복지정비센터,,S2,수리·개인,S203,자동차 수리·세차,S20301,자동차 정비소,S95211,자동차 종합 수리업,41,경기도,41610,광주시,41610540,쌍령동,4161010200,쌍령동,4.16101E+18,1,대지,409,21,경기도 광주시 쌍령동 409-21,4.16102E+11,경기도 광주시 경충대로,1407,5,4.16101E+24,,경기도 광주시 경충대로 1407-5,464130,12791,,,,127.2754513,37.39551145
MA010120220805431262,서희베스트부동산중개사무소,,L1,부동산,L102,부동산 서비스,L10203,부동산 중개/대리업,L68221,부동산 중개 및 대리업,41,경기도,41113,수원시 권선구,41113550,평동,4111312900,오목천동,4.11131E+18,1,대지,327,6,경기도 수원시 권선구 오목천동 327-6,4.11135E+11,경기도 수원시 권선구 온정로9번길,33,null,4.11131E+24,,경기도 수원시 권선구 온정로9번길 33,441849,16631,,,,126.9636173,37.24661134
MA010120220805431288,신신안슈퍼,,G2,소매,G204,종합 소매,G20404,슈퍼마켓,G47129,기타 음ㆍ식료품 위주 종합 소매업,41,경기도,41273,안산시 단원구,41273545,원곡동,4127310800,원곡동,4.12731E+18,1,대지,806,5,경기도 안산시 단원구 원곡동 806-5,4.12733E+11,경기도 안산시 단원구 원곡1로,19,null,4.12731E+24,,경기도 안산시 단원구 원곡1로 19,425846,15392,,,,126.7936269,37.32820606
MA010120220805431289,킴스김밥,,I2,음식,I210,기타 간이,I21007,김밥/만두/분식,I56194,김밥 및 기타 간이 음식점업,41,경기도,41461,용인시 처인구,41461360,양지면,4146136021,양지면,4.14614E+18,1,대지,568,5,경기도 용인시 처인구 양지면 양지리 568-5,4.14613E+11,경기도 용인시 처인구 양지면 양지로,126,null,4.14614E+24,현대파크,경기도 용인시 처인구 양지면 양지로 126,449825,17158,,,,127.2824739,37.23432075
MA010120220805431312,씨엔비,,I2,음식,I211,주점,I21104,요리 주점,I56219,기타 주점업,41,경기도,41463,용인시 기흥구,41463570,마북동,4146311300,마북동,4.14631E+18,1,대지,73,3,경기도 용인시 기흥구 마북동 73-3,4.14633E+11,경기도 용인시 기흥구 마북로,244,3,4.14631E+24,,경기도 용인시 기흥구 마북로 244-3,446505,16891,,1,,127.13155,37.30869588
MA010120220805431317,황궁노래광장,,I2,음식,I211,주점,I21101,일반 유흥 주점,I56211,일반 유흥 주점업,41,경기도,41273,안산시 단원구,41273535,호수동,4127310100,고잔동,4.12731E+18,1,대지,709,4,경기도 안산시 단원구 고잔동 709-4,4.12733E+11,경기도 안산시 단원구 광덕2로,163,5,4.12731E+24,황금프라자,경기도 안산시 단원구 광덕2로 163-5,425807,15471,,,,126.8283976,37.31037198
MA010120220805431455,블랙야크안양인덕원점,,G2,소매,G213,오락용품 소매,G21304,운동용품 소매업,G47631,운동 및 경기용품 소매업,41,경기도,41173,안양시 동안구,41173570,평촌동,4117310300,평촌동,4.11731E+18,1,대지,80,1,경기도 안양시 동안구 평촌동 80-1,4.11732E+11,경기도 안양시 동안구 흥안대로,467,null,4.11731E+24,,경기도 안양시 동안구 흥안대로 467,431070,14058,,1,,126.9756909,37.39611508
MA010120220805431244,더행복한밥상,,I2,음식,I201,한식,I20101,백반/한정식,I56111,한식 일반 음식점업,41,경기도,41131,성남시 수정구,41131510,신흥1동,4113110100,신흥동,4.11311E+18,1,대지,5559,null,경기도 성남시 수정구 신흥동 5559,4.11314E+11,경기도 성남시 수정구 시민로175번길,37,1,4.11311E+24,,경기도 성남시 수정구 시민로175번길 37-1,461864,13338,,1,,127.1386865,37.44237833
MA010120220805431348,월드할인마트,,G2,소매,G204,종합 소매,G20404,슈퍼마켓,G47129,기타 음ㆍ식료품 위주 종합 소매업,41,경기도,41115,수원시 팔달구,41115680,화서1동,4111513800,화서동,4.11151E+18,1,대지,71,69,경기도 수원시 팔달구 화서동 71-69,4.11154E+11,경기도 수원시 팔달구 팔달로130번길,8,null,4.11151E+24,,경기도 수원시 팔달구 팔달로130번길 8,442858,16440,,1,,127.0048414,37.27971955
MA010120220805431360,금월집만두,,I2,음식,I210,기타 간이,I21007,김밥/만두/분식,I56194,김밥 및 기타 간이 음식점업,41,경기도,41281,고양시 덕양구,41281610,능곡동,4128112000,토당동,4.12811E+18,1,대지,335,89,경기도 고양시 덕양구 토당동 335-89,4.12813E+11,경기도 고양시 덕양구 토당로,87,null,4.12811E+24,,경기도 고양시 덕양구 토당로 87,412818,10509,,,,126.8180372,37.62298514
MA010120220805431372,포토이즘박스민락지점,,M1,과학·기술,M113,사진 촬영,M11301,사진촬영업,M73301,인물 사진 및 행사용 영상 촬영업,41,경기도,41150,의정부시,41150578,송산3동,4115010600,민락동,4.11501E+18,1,대지,808,4,경기도 의정부시 민락동 808-4,4.11504E+11,경기도 의정부시 오목로225번길,147,null,4.11501E+24,폴리프라자Ⅱ,경기도 의정부시 오목로225번길 147,480090,11813,,1,,127.095701,37.7452951
MA010120220805431377,투유플라워케이크,,I2,음식,I210,기타 간이,I21001,빵/도넛,I56191,제과점업,41,경기도,41610,광주시,41610520,송정동,4161010300,송정동,4.16101E+18,1,대지,592,4,경기도 광주시 송정동 592-4,4.16103E+11,경기도 광주시 중앙로,171,1,4.16101E+24,,경기도 광주시 중앙로 171-1,464903,12744,,,,127.2567141,37.41499372
MA010120220805431688,이룸공인중개사사무소,,L1,부동산,L102,부동산 서비스,L10203,부동산 중개/대리업,L68221,부동산 중개 및 대리업,41,경기도,41461,용인시 처인구,41461360,양지면,4146136022,양지면,4.14614E+18,1,대지,133,6,경기도 용인시 처인구 양지면 남곡리 133-6,4.14613E+11,경기도 용인시 처인구 양지면 남평로,6,null,4.14614E+24,,경기도 용인시 처인구 양지면 남평로 6,449825,17161,,,,127.2857038,37.23242091
MA010120220805431538,카페예이,,I2,음식,I212,비알코올 ,I21201,카페,I56221,커피 전문점,41,경기도,41461,용인시 처인구,41461253,모현읍,4146125321,모현읍,4.14613E+18,1,대지,463,5,경기도 용인시 처인구 모현읍 왕산리 463-5,4.14614E+11,경기도 용인시 처인구 모현읍 백옥대로2332번길,17,null,4.14613E+24,,경기도 용인시 처인구 모현읍 백옥대로2332번길 17,449854,17035,,1,,127.2489445,37.33205356
MA010120220805431568,비쥬,,G2,소매,G217,시계·귀금속 소매,G21701,시계/귀금속 소매업,G47830,시계 및 귀금속 소매업,41,경기도,41173,안양시 동안구,41173540,부흥동,4117310100,비산동,4.11731E+18,1,대지,1107,1,경기도 안양시 동안구 비산동 1107-1,4.11732E+11,경기도 안양시 동안구 시민대로,167,null,4.11731E+24,안양벤처텔,경기도 안양시 동안구 시민대로 167,431817,14048,,,,126.9496085,37.39079524
MA010120220805431569,박치기당구클럽,,R1,예술·스포츠,R103,스포츠 서비스,R10310,당구장,R91135,당구장 운영업,41,경기도,41273,안산시 단원구,41273570,초지동,4127310500,원시동,4.12731E+18,1,대지,730,1,경기도 안산시 단원구 원시동 730-1,4.12733E+11,경기도 안산시 단원구 산단로,123,null,4.12731E+24,JS테크노타워지식산업센터,경기도 안산시 단원구 산단로 123,425851,15430,,,,126.7873409,37.30650728
MA010120220805431515,려,,G2,소매,G215,의약·화장품 소매,G21503,화장품 소매업,G47813,"화장품, 비누 및 방향제 소매업",41,경기도,41570,김포시,41570525,장기본동,4157010400,장기동,4.15701E+18,1,대지,1868,8,경기도 김포시 장기동 1868-8,4.15703E+11,경기도 김포시 김포한강4로,176,null,4.15701E+24,,경기도 김포시 김포한강4로 176,415060,10082,,,,126.6629112,37.64773763
MA010120220805431720,이든펜션,,I1,숙박,I101,일반 숙박,I10103,펜션,I55109,기타 일반 및 생활 숙박시설 운영업,41,경기도,41820,가평군,41820350,북면,4182035025,북면,4.18204E+18,1,대지,553,17,경기도 가평군 북면 적목리 553-17,4.18203E+11,경기도 가평군 북면 가화로,3169,46,4.18204E+24,,경기도 가평군 북면 가화로 3169-46,477841,12400,,,,127.4373462,37.99504865
MA010120220805431604,철구PC부천,,R1,예술·스포츠,R104,유원지·오락,R10406,PC방,R91222,컴퓨터 게임방 운영업,41,경기도,41190,부천시,41190744,상동,4119010900,상동,4.11901E+18,1,대지,544,9,경기도 부천시 상동 544-9,4.11903E+11,경기도 부천시 상동로,79,null,4.11951E+24,부천상동수석프라자,경기도 부천시 상동로 79,420864,14544,,,,126.7523458,37.50425666
MA010120220805431605,위드비PC,,R1,예술·스포츠,R104,유원지·오락,R10406,PC방,R91222,컴퓨터 게임방 운영업,41,경기도,41133,성남시 중원구,41133540,금광2동,4113310300,금광동,4.11331E+18,1,대지,4356,null,경기도 성남시 중원구 금광동 4356,4.11334E+11,경기도 성남시 중원구 산성대로372번길,11,null,4.11331E+24,,경기도 성남시 중원구 산성대로372번길 11,462805,13179,,2,,127.1583645,37.44514221
MA010120220805431631,펀비어킹홈딜리버리성남,,I2,음식,I211,주점,I21103,생맥주 전문,I56111,한식 일반 음식점업,41,경기도,41133,성남시 중원구,41133525,중앙동,4113313200,중앙동,4.11331E+18,1,대지,348,null,경기도 성남시 중원구 중앙동 348,4.11332E+11,경기도 성남시 중원구 산성대로,328,2,4.11331E+24,,경기도 성남시 중원구 산성대로 328-2,462835,13248,,1,,127.152912,37.44259828
MA010120220805431641,주원패션,,G2,소매,G209,섬유·의복·신발 소매,G20902,여성 의류 소매업,G47412,여자용 겉옷 소매업,41,경기도,41133,성남시 중원구,41133510,성남동,4113310100,성남동,4.11331E+18,1,대지,4931,null,경기도 성남시 중원구 성남동 4931,4.11332E+11,경기도 성남시 중원구 둔촌대로,68,null,4.11331E+24,모란공영주차장,경기도 성남시 중원구 둔촌대로 68,462829,13383,,,,127.1266444,37.42933256
MA010120220805431652,온종합관리,,N1,시설관리·임대,N102,청소·방제,N10201,건축물 일반 청소업,N74211,건축물 일반 청소업,41,경기도,41390,시흥시,41390581,군자동,4139012700,거모동,4.13901E+18,1,대지,589,9,경기도 시흥시 거모동 589-9,4.13903E+11,경기도 시흥시 죽율로,213,null,4.13901E+24,,경기도 시흥시 죽율로 213,429803,15044,,,,126.7726423,37.35715748
MA010120220805431662,엔주네일,,S2,수리·개인,S207,이용·미용,S20703,네일숍,S96119,기타 미용업,41,경기도,41287,고양시 일산서구,41287570,대화동,4128710400,대화동,4.12871E+18,1,대지,2223,null,경기도 고양시 일산서구 대화동 2223,4.12873E+11,경기도 고양시 일산서구 중앙로,1557,null,4.12871E+24,삼운트루아오피스텔,경기도 고양시 일산서구 중앙로 1557,411805,10381,,2,,126.7486385,37.67520391
MA010120220805431676,건축사사무소성주,,M1,과학·기술,M109,기술 서비스,M10901,건축 설계 및 관련 서비스업,M72111,건축 설계 및 관련 서비스업,41,경기도,41360,남양주시,41360253,진접읍,4136025321,진접읍,4.13603E+18,1,대지,68,19,경기도 남양주시 진접읍 장현리 68-19,4.13603E+11,경기도 남양주시 진접읍 금강로,1509,10,4.13603E+24,,경기도 남양주시 진접읍 금강로 1509-10,472865,12009,,2,,127.1914876,37.72583503
MA010120220805431787,하얼빈,,S2,수리·개인,S208,욕탕·신체관리,S20802,마사지/안마,S96122,마사지업,41,경기도,41135,성남시 분당구,41135665,구미1동,4113511400,구미동,4.11351E+18,1,대지,7,2,경기도 성남시 분당구 구미동 7-2,4.11353E+11,경기도 성남시 분당구 돌마로,46,null,4.11351E+24,,경기도 성남시 분당구 돌마로 46,463808,13630,,3,,127.1069803,37.34968364
MA010120220805431788,꼬뜨블렁쉬,,I2,음식,I212,비알코올 ,I21201,카페,I56221,커피 전문점,41,경기도,41281,고양시 덕양구,41281530,흥도동,4128110400,원흥동,4.12811E+18,1,대지,630,null,경기도 고양시 덕양구 원흥동 630,4.12813E+11,경기도 고양시 덕양구 원흥5로,25,null,4.12811E+24,삼송원흥역센트럴푸르지오,경기도 고양시 덕양구 원흥5로 25,412040,10564,,,,126.876625,37.64861495
MA010120220805431790,식판히어로,,N1,시설관리·임대,N102,청소·방제,N10202,"산업설비, 운송장비 및 공공장소 청소업",N74212,"산업설비, 운송장비 및 공공장소 청소업",41,경기도,41590,화성시,41590560,기배동,4159012400,기안동,4.15901E+18,1,대지,170,null,경기도 화성시 기안동 170,4.15904E+11,경기도 화성시 기배로109번길,3,8,4.15901E+24,,경기도 화성시 기배로109번길 3-8,445310,18339,,,,126.9856497,37.22668077
MA010120220805431937,컴포즈커피하남감일백제로점,,I2,음식,I212,비알코올 ,I21201,카페,I56221,커피 전문점,41,경기도,41450,하남시,41450582,감일동,4145011500,감이동,4.14501E+18,1,대지,525,1,경기도 하남시 감이동 525-1,4.14503E+11,경기도 하남시 감일백제로,105,null,4.14501E+24,신성메디타워,경기도 하남시 감일백제로 105,465190,13004,,1,,127.1612143,37.50466896
MA010120220805431939,착한숯불통바베큐,,I2,음식,I201,한식,I20107,돼지고기 구이/찜,I56111,한식 일반 음식점업,41,경기도,41590,화성시,41590253,봉담읍,4159025328,봉담읍,4.15903E+18,1,대지,258,null,경기도 화성시 봉담읍 왕림리 258,4.15904E+11,경기도 화성시 봉담읍 독정길,24,2,4.15903E+24,,경기도 화성시 봉담읍 독정길 24-2,445906,18332,,1,,126.9369885,37.19481492
MA010120220805431834,행복식당,,I2,음식,I201,한식,I20101,백반/한정식,I56111,한식 일반 음식점업,41,경기도,41220,평택시,41220630,비전2동,4122011800,비전동,4.12201E+18,1,대지,889,null,경기도 평택시 비전동 889,4.12203E+11,경기도 평택시 중앙로,335,null,4.12201E+24,벽산아파트,경기도 평택시 중앙로 335,450731,17873,,,,127.1192788,36.99203506
MA010120220805431858,퀸스토리,,S2,수리·개인,S206,기타 가정용품 수리,S20601,의류/이불 수선업,S95391,의복 및 기타 가정용 직물제품 수리업,41,경기도,41390,시흥시,41390631,장곡동,4139013000,장곡동,4.13901E+18,1,대지,823,6,경기도 시흥시 장곡동 823-6,4.13903E+11,경기도 시흥시 장곡로,17,null,4.13901E+24,에이스프라자,경기도 시흥시 장곡로 17,429842,15002,,,,126.786806,37.37905508
MA010120220805431881,블루클럽,,S2,수리·개인,S207,이용·미용,S20701,미용실,S96112,두발 미용업,41,경기도,41480,파주시,41480570,운정3동,4148010800,야당동,4.14801E+18,1,대지,1066,2,경기도 파주시 야당동 1066-2,4.14803E+11,경기도 파주시 경의로,1068,null,4.14801E+24,삼융프라자,경기도 파주시 경의로 1068,413200,10908,,,,126.7596466,37.71257677
MA010120220805431882,디카프워크룸,,I2,음식,I212,비알코올 ,I21201,카페,I56221,커피 전문점,41,경기도,41480,파주시,41480540,교하동,4148011500,문발동,4.14801E+18,1,대지,606,11,경기도 파주시 문발동 606-11,4.14804E+11,경기도 파주시 꽃아마길,41,null,4.14803E+24,,경기도 파주시 꽃아마길 41,413070,10884,,1,,126.7079265,37.71926529
MA010120220805431892,바디,,S2,수리·개인,S208,욕탕·신체관리,S20803,체형/비만 관리,S96129,체형 등 기타 신체 관리 서비스업,41,경기도,41190,부천시,41190603,심곡동,4119010200,심곡동,4.11901E+18,1,대지,110,17,경기도 부천시 심곡동 110-17,4.11904E+11,경기도 부천시 부흥로373번길,36,1,4.11951E+24,,경기도 부천시 부흥로373번길 36-1,420820,14577,,,,126.7841524,37.49291092
MA010120220805431897,프렌즈,,R1,예술·스포츠,R103,스포츠 서비스,R10311,골프 연습장,R91136,골프 연습장 운영업,41,경기도,41360,남양주시,41360253,진접읍,4136025328,진접읍,4.13603E+18,1,대지,1059,4,경기도 남양주시 진접읍 금곡리 1059-4,4.13604E+11,경기도 남양주시 진접읍 해밀예당2로145번길,3,9,4.13603E+24,,경기도 남양주시 진접읍 해밀예당2로145번길 3-9,472861,12060,,4,,127.203683,37.71835837
MA010120220805432011,"포레,쉼과요가",,P1,교육,P106,기타 교육,P10603,요가/필라테스 학원,P85612,기타 스포츠 교육기관,41,경기도,41135,성남시 분당구,41135662,금곡동,4113511100,금곡동,4.11351E+18,1,대지,161,null,경기도 성남시 분당구 금곡동 161,4.11352E+11,경기도 성남시 분당구 성남대로,165,null,4.11351E+24,천사의도시1오피스텔,경기도 성남시 분당구 성남대로 165,463805,13615,,,,127.1082995,37.35075687
MA010120220805432012,1인용피자안성만세점,,I2,음식,I210,기타 간이,I21003,피자,I56192,"피자, 햄버거, 샌드위치 및 유사 음식점업",41,경기도,41550,안성시,41550380,원곡면,4155038026,원곡면,4.15504E+18,1,대지,229,68,경기도 안성시 원곡면 외가천리 229-68,4.15503E+11,경기도 안성시 원곡면 만세로,1413,null,4.15504E+24,,경기도 안성시 원곡면 만세로 1413,456811,17556,,,,127.1295311,37.03675288
MA010120220805432096,옷장,,G2,소매,G209,섬유·의복·신발 소매,G20902,여성 의류 소매업,G47412,여자용 겉옷 소매업,41,경기도,41480,파주시,41480510,금촌1동,4148010100,금촌동,4.14801E+18,1,대지,764,15,경기도 파주시 금촌동 764-15,4.14804E+11,경기도 파주시 금정12길,19,null,4.14801E+24,,경기도 파주시 금정12길 19,413011,10929,,1,,126.7759629,37.75968942
MA010120220805432112,아너시티지상6층H611,,M1,과학·기술,M107,본사·경영 컨설팅,M10703,경영 컨설팅업,M71531,경영 컨설팅업,41,경기도,41310,구리시,41310510,갈매동,4131010100,갈매동,4.13101E+18,1,대지,552,6,경기도 구리시 갈매동 552-6,4.13105E+11,경기도 구리시 갈매순환로166번길,45,null,4.13101E+24,구리갈매아너시티,경기도 구리시 갈매순환로166번길 45,471859,11901,,,,127.1229749,37.63491745
MA010120220805432121,통나무집,,I2,음식,I212,비알코올 ,I21201,카페,I56229,기타 비알코올 음료점업,41,경기도,41113,수원시 권선구,41113550,평동,4111312800,고색동,4.11131E+18,1,대지,105,11,경기도 수원시 권선구 고색동 105-11,4.11134E+11,경기도 수원시 권선구 고색로78번길,25,null,4.11131E+24,,경기도 수원시 권선구 고색로78번길 25,441805,16649,,1,,126.9859444,37.25011165
MA010120220805432140,제이앤씨스팀카케어,,S2,수리·개인,S203,자동차 수리·세차,S20302,자동차 세차장,S95213,자동차 세차업,41,경기도,41285,고양시 일산동구,41285552,백석2동,4128510600,백석동,4.12851E+18,1,대지,1431,6,경기도 고양시 일산동구 백석동 1431-6,4.12854E+11,경기도 고양시 일산동구 호수로430번길,8,16,4.12851E+24,,경기도 고양시 일산동구 호수로430번길 8-16,410817,10424,,1,,126.780253,37.64272027
MA010120220805432143,씨유오산시티,,G2,소매,G204,종합 소매,G20405,편의점,G47122,체인화 편의점,41,경기도,41370,오산시,41370510,중앙동,4137010200,부산동,4.13701E+18,1,대지,815,null,경기도 오산시 부산동 815,4.13703E+11,경기도 오산시 부산중앙로,42,null,4.13701E+24,오산시티자이2차,경기도 오산시 부산중앙로 42,447050,18148,,1,,127.0925566,37.1522067
MA010120220805432208,세가지소원의원,,Q1,보건의료,Q102,의원,Q10204,피부/비뇨기과 의원,Q86201,일반의원,41,경기도,41135,성남시 분당구,41135680,운중동,4113511500,운중동,4.11351E+18,1,대지,944,null,경기도 성남시 분당구 운중동 944,4.11353E+11,경기도 성남시 분당구 운중로,128,null,4.11351E+24,마크시티그린,경기도 성남시 분당구 운중로 128,463440,13466,,,,127.0773389,37.39130221
MA010120220805432209,주은뷰티,,S2,수리·개인,S207,이용·미용,S20702,피부 관리실,S96113,피부 미용업,41,경기도,41287,고양시 일산서구,41287560,주엽2동,4128710200,주엽동,4.12871E+18,1,대지,18,2,경기도 고양시 일산서구 주엽동 18-2,4.12873E+11,경기도 고양시 일산서구 중앙로,1456,null,4.12871E+24,서현프라자,경기도 고양시 일산서구 중앙로 1456,411838,10387,,4,,126.7589583,37.67154675
MA010120220805432256,포차&닭발,,I2,음식,I201,한식,I20101,백반/한정식,I56111,한식 일반 음식점업,41,경기도,41220,평택시,41220560,송북동,4122011000,지산동,4.12201E+18,1,대지,749,2,경기도 평택시 지산동 749-2,4.12204E+11,경기도 평택시 지산로37번길,75,null,4.12201E+24,,경기도 평택시 지산로37번길 75,459110,17756,,1,,127.0593571,37.08223766
MA010120220805432266,북극해고등어용인신봉점,,I2,음식,I201,한식,I20112,해산물 구이/찜,I56114,한식 해산물 요리 전문점,41,경기도,41465,용인시 수지구,41465530,신봉동,4146510500,신봉동,4.14651E+18,1,대지,580,1,경기도 용인시 수지구 신봉동 580-1,4.14654E+11,경기도 용인시 수지구 신봉1로330번길,10,null,4.14651E+24,석호정,경기도 용인시 수지구 신봉1로330번길 10,448836,16803,,2,,127.0541765,37.3337296
MA010120220805432286,우가온,,I2,음식,I201,한식,I20101,백반/한정식,I56111,한식 일반 음식점업,41,경기도,41220,평택시,41220620,비전1동,4122011800,비전동,4.12201E+18,1,대지,1064,2,경기도 평택시 비전동 1064-2,4.12205E+11,경기도 평택시 비전9길,2,40,4.12201E+24,,경기도 평택시 비전9길 2-40,450151,17855,,,,127.1119504,37.00202812
MA010120220805432411,한국도로기술,,M1,과학·기술,M109,기술 서비스,M10903,건물 및 토목 엔지니어링 서비스업,M72121,건물 및 토목 엔지니어링 서비스업,41,경기도,41590,화성시,41590590,동탄5동,4159013100,영천동,4.15901E+18,1,대지,193,2,경기도 화성시 영천동 193-2,4.15903E+11,경기도 화성시 동탄첨단산업1로,51,9,4.15901E+24,,경기도 화성시 동탄첨단산업1로 51-9,445130,18469,,,,127.0899571,37.21407476
MA010120220805432361,라땅쟈마라탕,,I2,음식,I202,중식,I20202,마라탕/훠궈,I56121,중식 음식점업,41,경기도,41390,시흥시,41390589,정왕본동,4139013200,정왕동,4.13901E+18,1,대지,1526,9,경기도 시흥시 정왕동 1526-9,4.13903E+11,경기도 시흥시 큰솔로,76,1,4.13901E+24,,경기도 시흥시 큰솔로 76-1,429455,15051,,1,,126.7551768,37.34368439
MA010120220805432386,맛마루,,I2,음식,I210,기타 간이,I21006,치킨,I56193,치킨 전문점,41,경기도,41220,평택시,41220320,서탄면,4122032021,서탄면,4.12203E+18,1,대지,597,3,경기도 평택시 서탄면 금암리 597-3,4.12203E+11,경기도 평택시 서탄면 서탄로,292,1,4.12203E+24,,경기도 평택시 서탄면 서탄로 292-1,451852,17704,,,,127.0330707,37.10892456
MA010120220805434089,세라맘,,P1,교육,P106,기타 교육,P10613,기타 예술/스포츠 교육기관,P85629,기타 예술학원,41,경기도,41281,고양시 덕양구,41281621,화정1동,4128112300,화정동,4.12811E+18,1,대지,884,13,경기도 고양시 덕양구 화정동 884-13,4.12814E+11,경기도 고양시 덕양구 은빛로77번길,69,2,4.12811E+24,,경기도 고양시 덕양구 은빛로77번길 69-2,412826,10478,,,,126.8356926,37.64000075
MA010120220805434094,중앙부동산공인중개사사무소,,L1,부동산,L102,부동산 서비스,L10203,부동산 중개/대리업,L68221,부동산 중개 및 대리업,41,경기도,41610,광주시,41610610,능평동,4161011600,능평동,4.16101E+18,1,대지,354,null,경기도 광주시 능평동 354,4.16104E+11,경기도 광주시 대명대길,15,null,4.16103E+24,,경기도 광주시 대명대길 15,464921,12772,,1,,127.1672963,37.35702591
MA010120220805433524,남영철물건재,,G2,소매,G210,철물·건설자재 소매,G21001,철물/공구 소매업,G47511,철물 및 난방용구 소매업,41,경기도,41150,의정부시,41150567,신곡1동,4115010400,신곡동,4.11501E+18,1,대지,397,4,경기도 의정부시 신곡동 397-4,4.11504E+11,경기도 의정부시 동일로522번길,62,null,4.11501E+24,,경기도 의정부시 동일로522번길 62,480830,11735,,1,,127.0619287,37.73483159
MA010120220805433963,럭셔리노래연습장,,R1,예술·스포츠,R104,유원지·오락,R10407,노래방,R91223,노래 연습장 운영업,41,경기도,41271,안산시 상록구,41271515,이동,4127110200,이동,4.12711E+18,1,대지,715,3,경기도 안산시 상록구 이동 715-3,4.12713E+11,경기도 안산시 상록구 광덕1로,375,null,4.12711E+24,강우프라자,경기도 안산시 상록구 광덕1로 375,426863,15494,,,,126.8509675,37.30835863
MA010120220805433791,면부심,,I2,음식,I204,서양식,I20401,경양식,I56123,서양식 음식점업,41,경기도,41220,평택시,41220630,비전2동,4122012400,용이동,4.12201E+18,1,대지,644,null,경기도 평택시 용이동 644,4.12203E+11,경기도 평택시 용죽1로,33,null,4.12201E+24,비전지웰푸르지오,경기도 평택시 용죽1로 33,450152,17870,,1,,127.123723,36.99732157
MA010120220805433839,이집고기,,I2,음식,I201,한식,I20107,돼지고기 구이/찜,I56111,한식 일반 음식점업,41,경기도,41220,평택시,41220250,팽성읍,4122025042,팽성읍,4.12203E+18,1,대지,1,6,경기도 평택시 팽성읍 동창리 1-6,4.12204E+11,경기도 평택시 팽성읍 팽성대교길,111,null,4.12203E+24,,경기도 평택시 팽성읍 팽성대교길 111,451802,17973,,1,,127.0405031,36.97172569
MA010120220805434039,엄마손맛식당,,G2,소매,G205,식료품 소매,G20509,반찬/식료품 소매업,G47218,조리 반찬류 소매업,41,경기도,41610,광주시,41610520,송정동,4161010300,송정동,4.16101E+18,1,대지,129,11,경기도 광주시 송정동 129-11,4.16103E+11,경기도 광주시 송정로,15,null,4.16101E+24,,경기도 광주시 송정로 15,464902,12739,,1,,127.2570501,37.4187173
MA010120220805433460,엘에이당구클럽,,R1,예술·스포츠,R103,스포츠 서비스,R10310,당구장,R91135,당구장 운영업,41,경기도,41117,수원시 영통구,41117570,영통1동,4111710500,영통동,4.11171E+18,1,대지,945,7,경기도 수원시 영통구 영통동 945-7,4.11173E+11,경기도 수원시 영통구 봉영로,1761,null,4.11171E+24,,경기도 수원시 영통구 봉영로 1761,443809,16712,,3,,127.0816511,37.26629233
MA010120220805433903,인생아구찜파주,,I2,음식,I201,한식,I20112,해산물 구이/찜,I56122,일식 음식점업,41,경기도,41480,파주시,41480510,금촌1동,4148010100,금촌동,4.14801E+18,1,대지,104,1,경기도 파주시 금촌동 104-1,4.14803E+11,경기도 파주시 가나무로,115,null,4.14801E+24,조인투프라자,경기도 파주시 가나무로 115,413011,10922,,,,126.7781611,37.75437833
MA010120220805433725,심플리안,,S2,수리·개인,S207,이용·미용,S20701,미용실,S96112,두발 미용업,41,경기도,41630,양주시,41630540,회천2동,4163011600,덕계동,4.16301E+18,1,대지,634,1,경기도 양주시 덕계동 634-1,4.16304E+11,경기도 양주시 평화로1429번길,97,null,4.16301E+24,,경기도 양주시 평화로1429번길 97,482050,11441,,2,,127.0432065,37.82222366
MA010120220805433911,일승푸드,,G2,소매,G205,식료품 소매,G20503,정육점,G47212,육류 소매업,41,경기도,41463,용인시 기흥구,41463535,보라동,4146310600,지곡동,4.14631E+18,1,대지,359,3,경기도 용인시 기흥구 지곡동 359-3,4.14633E+11,경기도 용인시 기흥구 지삼로,116,null,4.14631E+24,,경기도 용인시 기흥구 지삼로 116,446904,17088,,,,127.1305925,37.24681066
MA010120220805434250,리썸노래타운,,I2,음식,I211,주점,I21101,일반 유흥 주점,I56211,일반 유흥 주점업,41,경기도,41115,수원시 팔달구,41115730,인계동,4111514100,인계동,4.11151E+18,1,대지,1038,11,경기도 수원시 팔달구 인계동 1038-11,4.11154E+11,경기도 수원시 팔달구 인계로138번길,45,null,4.11151E+24,,경기도 수원시 팔달구 인계로138번길 45,442834,16489,,4,,127.0321614,37.26497898
MA010120220805433473,이끌림두부,,G2,소매,G205,식료품 소매,G20509,반찬/식료품 소매업,G47219,기타 식료품 소매업,41,경기도,41450,하남시,41450630,미사3동,4145011000,풍산동,4.14501E+18,1,대지,493,null,경기도 하남시 풍산동 493,4.14502E+11,경기도 하남시 조정대로,45,null,4.14501E+24,미사센텀비즈,경기도 하남시 조정대로 45,465170,12918,,3,,127.184454,37.55067766
MA010120220805433624,경신,,I2,음식,I210,기타 간이,I21003,피자,I56192,"피자, 햄버거, 샌드위치 및 유사 음식점업",41,경기도,41480,파주시,41480570,운정3동,4148010800,야당동,4.14801E+18,1,대지,1063,null,경기도 파주시 야당동 1063,4.14804E+11,경기도 파주시 소리천로8번길,46,null,4.14801E+24,,경기도 파주시 소리천로8번길 46,413200,10908,,,,126.7601068,37.71218517
MA010120220805433414,원할머니보쌈동두천송내,,I2,음식,I201,한식,I20103,족발/보쌈,I56111,한식 일반 음식점업,41,경기도,41250,동두천시,41250566,송내동,4125010100,송내동,4.12501E+18,1,대지,685,2,경기도 동두천시 송내동 685-2,4.12504E+11,경기도 동두천시 중앙로33번길,51,8,4.12501E+24,,경기도 동두천시 중앙로33번길 51-8,483010,11354,,1,,127.0510592,37.88308692
MA010120220805433475,남가네설악추어탕,,I2,음식,I201,한식,I20102,국/탕/찌개류,I56113,한식 육류 요리 전문점,41,경기도,41135,성남시 분당구,41135640,야탑3동,4113510700,야탑동,4.11351E+18,1,대지,175,3,경기도 성남시 분당구 야탑동 175-3,4.11353E+11,경기도 성남시 분당구 야탑로,249,null,4.11351E+24,백옥빌딩,경기도 성남시 분당구 야탑로 249,463817,13508,,1,,127.1462403,37.40713807
MA010120220805433670,명진빌딩,,I1,숙박,I102,기타 숙박,I10201,기숙사/고시원,I55901,기숙사 및 고시원 운영업,41,경기도,41370,오산시,41370510,중앙동,4137010100,오산동,4.13701E+18,1,대지,924,3,경기도 오산시 오산동 924-3,4.13703E+11,경기도 오산시 운천로,80,17,4.13701E+24,,경기도 오산시 운천로 80-17,447010,18133,,,,127.0754122,37.14935284
MA010120220805433563,월드크리닝고양일산지사,,S2,수리·개인,S209,세탁,S20901,세탁소,S96912,가정용 세탁업,41,경기도,41285,고양시 일산동구,41285540,풍산동,4128510700,풍동,4.12851E+18,1,대지,633,null,경기도 고양시 일산동구 풍동 633,4.12852E+11,경기도 고양시 일산동구 고양대로,892,null,4.12851E+24,,경기도 고양시 일산동구 고양대로 892,410842,10311,,2,,126.7940155,37.67803731
MA010120220805434256,오스틴스토리,,N1,시설관리·임대,N110,가정용품 대여,N11004,의류 대여업,N76292,의류 임대업,41,경기도,41461,용인시 처인구,41461250,포곡읍,4146125027,포곡읍,4.14613E+18,1,대지,373,12,경기도 용인시 처인구 포곡읍 전대리 373-12,4.14613E+11,경기도 용인시 처인구 포곡읍 전대로,99,null,4.14613E+24,,경기도 용인시 처인구 포곡읍 전대로 99,449815,17023,,1,,127.2152663,37.28587912
MA010120220805434195,노나머그,,M1,과학·기술,M112,전문 디자인,M11203,시각 디자인업,M73203,시각 디자인업,41,경기도,41135,성남시 분당구,41135657,백현동,4113511000,백현동,4.11351E+18,1,대지,529,null,경기도 성남시 분당구 백현동 529,4.11353E+11,경기도 성남시 분당구 판교역로,109,null,4.11351E+24,SKHUB오피스텔,경기도 성남시 분당구 판교역로 109,463420,13531,,,,127.1086149,37.39088432
MA010120220805434263,미유헤어,,S2,수리·개인,S207,이용·미용,S20701,미용실,S96112,두발 미용업,41,경기도,41135,성남시 분당구,41135550,정자1동,4113510300,정자동,4.11351E+18,1,대지,168,1,경기도 성남시 분당구 정자동 168-1,4.11352E+11,경기도 성남시 분당구 성남대로,295,null,4.11351E+24,대림아크로텔,경기도 성남시 분당구 성남대로 295,463826,13559,,1,,127.1075283,37.36250116
MA010120220805433646,만권화밥경기대점,,I2,음식,I201,한식,I20101,백반/한정식,G46103,"섬유, 의복, 신발 및 가죽제품 중개업",41,경기도,41117,수원시 영통구,41117600,광교1동,4111710300,이의동,4.11171E+18,2,산,94,6,경기도 수원시 영통구 이의동 산94-6,4.11173E+11,경기도 수원시 영통구 광교산로,154,42,4.11111E+24,경기대학교,경기도 수원시 영통구 광교산로 154-42,443760,16227,,,,127.0331032,37.29800254
MA010120220805433430,카페우이,,I2,음식,I212,비알코올 ,I21201,카페,I56221,커피 전문점,41,경기도,41630,양주시,41630560,회천4동,4163011400,옥정동,4.16301E+18,1,대지,1073,1,경기도 양주시 옥정동 1073-1,4.16305E+11,경기도 양주시 옥정동로5아길,20,null,4.16301E+24,,경기도 양주시 옥정동로5아길 20,482130,11476,,1,,127.095881,37.81718865
MA010120220805433497,린,,G2,소매,G209,섬유·의복·신발 소매,G20902,여성 의류 소매업,G47412,여자용 겉옷 소매업,41,경기도,41173,안양시 동안구,41173610,범계동,4117310400,호계동,4.11731E+18,1,대지,1039,3,경기도 안양시 동안구 호계동 1039-3,4.11733E+11,경기도 안양시 동안구 동안로,119,null,4.11731E+24,킴스아울렛,경기도 안양시 동안구 동안로 119,431812,14073,,3,,126.9512117,37.38920558
MA010120220805434345,행복드림부동산컨설팅사무소,,L1,부동산,L102,부동산 서비스,L10203,부동산 중개/대리업,L68221,부동산 중개 및 대리업,41,경기도,41115,수원시 팔달구,41115680,화서1동,4111513800,화서동,4.11151E+18,1,대지,184,117,경기도 수원시 팔달구 화서동 184-117,4.11153E+11,경기도 수원시 팔달구 동말로,32,null,4.11151E+24,,경기도 수원시 팔달구 동말로 32,442863,16442,,,,126.9977596,37.27802883
MA010120220805433758,비채리움,,G2,소매,G209,섬유·의복·신발 소매,G20907,액세서리/잡화 소매업,G47422,의복 액세서리 및 모조 장신구 소매업,41,경기도,41650,포천시,41650330,가산면,4165033028,가산면,4.16503E+18,1,대지,208,null,경기도 포천시 가산면 마전리 208,4.16504E+11,경기도 포천시 가산면 마전길,180,89,4.16503E+24,,경기도 포천시 가산면 마전길 180-89,487815,11165,,,,127.2178801,37.84695747
MA010120220805434207,누룽지펜션,,I1,숙박,I101,일반 숙박,I10103,펜션,I55104,민박업,41,경기도,41830,양평군,41830340,옥천면,4183034022,옥천면,4.18303E+18,1,대지,311,4,경기도 양평군 옥천면 용천리 311-4,4.18304E+11,경기도 양평군 옥천면 사나사길,219,16,4.18303E+24,,경기도 양평군 옥천면 사나사길 219-16,476833,12506,,,,127.5008157,37.53129071
MA010120220805432514,임진가스,,G2,소매,G214,연료 소매,G21401,주유소,G47711,운송장비용 주유소 운영업,41,경기도,41800,연천군,41800310,군남면,4180031023,군남면,4.18003E+18,1,대지,549,1,경기도 연천군 군남면 삼거리 549-1,4.18003E+11,경기도 연천군 군남면 군왕로,25,null,4.18003E+24,,경기도 연천군 군남면 군왕로 25,486822,11006,,,,127.0166205,38.08647118
MA010120220805434377,호수주방,,I2,음식,I204,서양식,I20401,경양식,I56123,서양식 음식점업,41,경기도,41285,고양시 일산동구,41285590,장항2동,4128510400,장항동,4.12851E+18,1,대지,869,null,경기도 고양시 일산동구 장항동 869,4.12853E+11,경기도 고양시 일산동구 백마로,195,null,4.12851E+24,엠시티타워&엠시티오피스텔,경기도 고양시 일산동구 백마로 195,410839,10403,,1,,126.7715203,37.65489244
MA010120220805433397,갤럭시노래연습장,,R1,예술·스포츠,R104,유원지·오락,R10407,노래방,R91223,노래 연습장 운영업,41,경기도,41113,수원시 권선구,41113670,권선1동,4111313700,권선동,4.11131E+18,1,대지,1025,null,경기도 수원시 권선구 권선동 1025,4.11133E+11,경기도 수원시 권선구 권광로,116,null,4.11131E+24,,경기도 수원시 권선구 권광로 116,441822,16561,,지,,127.0306396,37.25792
MA010120220805432959,오후네일,,S2,수리·개인,S207,이용·미용,S20703,네일숍,S96119,기타 미용업,41,경기도,41220,평택시,41220590,신평동,4122011300,평택동,4.12201E+18,1,대지,43,4,경기도 평택시 평택동 43-4,4.12203E+11,경기도 평택시 평택2로,18,null,4.12201E+24,,경기도 평택시 평택2로 18,450826,17909,,2,,127.0884774,36.9928028
MA010120220805432836,쌤소롯데중동,,G2,소매,G209,섬유·의복·신발 소매,G20911,가방 소매업,G47440,가방 및 기타 가죽제품 소매업,41,경기도,41190,부천시,41190742,신중동,4119010800,중동,4.11901E+18,1,대지,1140,null,경기도 부천시 중동 1140,4.11903E+11,경기도 부천시 길주로,300,null,4.11951E+24,LOTTE백화점,경기도 부천시 길주로 300,420715,14548,,6,,126.7752992,37.50253263
MA010120220805433152,리얼하게홈케어,,N1,시설관리·임대,N102,청소·방제,N10201,건축물 일반 청소업,N74211,건축물 일반 청소업,41,경기도,41590,화성시,41590262,남양읍,4159026221,남양읍,4.15903E+18,1,대지,631,2,경기도 화성시 남양읍 남양리 631-2,4.15904E+11,경기도 화성시 남양읍 남양시장로25번길,34,7,4.15901E+24,,경기도 화성시 남양읍 남양시장로25번길 34-7,445851,18258,,,,126.8154059,37.21079114
MA010120220805432969,김밥클래스뉴코아아울렛동,,I2,음식,I210,기타 간이,I21007,김밥/만두/분식,I56194,김밥 및 기타 간이 음식점업,41,경기도,41115,수원시 팔달구,41115730,인계동,4111514100,인계동,4.11151E+18,1,대지,1114,1,경기도 수원시 팔달구 인계동 1114-1,4.11153E+11,경기도 수원시 팔달구 인계로,154,null,4.11151E+24,동수원뉴코아아울렛,경기도 수원시 팔달구 인계로 154,442759,16488,,1,,127.0343092,37.2663031
MA010120220805433289,에비뉴골프아카데미,,R1,예술·스포츠,R103,스포츠 서비스,R10311,골프 연습장,R91136,골프 연습장 운영업,41,경기도,41173,안양시 동안구,41173510,비산1동,4117310100,비산동,4.11731E+18,1,대지,550,1,경기도 안양시 동안구 비산동 550-1,4.11732E+11,경기도 안양시 동안구 관악대로,103,null,4.11731E+24,103에비뉴,경기도 안양시 동안구 관악대로 103,431822,13924,,7,,126.9354306,37.39913845
MA010120220805433379,디오메드,,G2,소매,G215,의약·화장품 소매,G21502,의료기기 소매업,G47812,의료용 기구 소매업,41,경기도,41463,용인시 기흥구,41463575,동백2동,4146311600,중동,4.14631E+18,1,대지,842,null,경기도 용인시 기흥구 중동 842,4.14633E+11,경기도 용인시 기흥구 동백중앙로,225,6,4.14631E+24,쥬네브스타월드빌딩,경기도 용인시 기흥구 동백중앙로 225-6,446767,17006,,2,,127.1501591,37.27400369
MA010120220805432536,크리드PC,,R1,예술·스포츠,R104,유원지·오락,R10406,PC방,R91222,컴퓨터 게임방 운영업,41,경기도,41273,안산시 단원구,41273535,호수동,4127310100,고잔동,4.12731E+18,1,대지,769,4,경기도 안산시 단원구 고잔동 769-4,4.12733E+11,경기도 안산시 단원구 광덕동로,61,null,4.12731E+24,중앙프라자,경기도 안산시 단원구 광덕동로 61,425906,15470,,지,,126.8323421,37.30988835
MA010120220805433339,메가커피안산고잔역점,,I2,음식,I212,비알코올 ,I21201,카페,I56221,커피 전문점,41,경기도,41273,안산시 단원구,41273535,호수동,4127310100,고잔동,4.12731E+18,1,대지,683,2,경기도 안산시 단원구 고잔동 683-2,4.12733E+11,경기도 안산시 단원구 다리간로,20,null,4.12731E+24,,경기도 안산시 단원구 다리간로 20,425802,15459,,1,,126.8239637,37.31475223
MA010120220805432796,이천탑항공,,N1,시설관리·임대,N105,여행사·보조,N10501,여행사,N75210,여행사업,41,경기도,41500,이천시,41500510,창전동,4150010100,창전동,4.15001E+18,1,대지,459,18,경기도 이천시 창전동 459-18,4.15003E+11,경기도 이천시 애련정로,120,null,4.15001E+24,,경기도 이천시 애련정로 120,467807,17362,,,,127.4505748,37.28123984
MA010120220805432862,맘마찬일산,,G2,소매,G205,식료품 소매,G20509,반찬/식료품 소매업,G47218,조리 반찬류 소매업,41,경기도,41287,고양시 일산서구,41287560,주엽2동,4128710200,주엽동,4.12871E+18,1,대지,17,null,경기도 고양시 일산서구 주엽동 17,4.12873E+11,경기도 고양시 일산서구 중앙로,1470,null,4.12871E+24,문촌마을10단지아파트,경기도 고양시 일산서구 중앙로 1470,411748,10379,,1,,126.7575498,37.67240589
MA010120220805433106,이모네,,I2,음식,I201,한식,I20101,백반/한정식,I56111,한식 일반 음식점업,41,경기도,41450,하남시,41450520,신장1동,4145010600,신장동,4.14501E+18,1,대지,427,346,경기도 하남시 신장동 427-346,4.14504E+11,경기도 하남시 신장1로21번길,47,null,4.14501E+24,,경기도 하남시 신장1로21번길 47,465820,12958,,1,,127.2075947,37.53922958
MA010120220805433171,1번지통닭,,I2,음식,I210,기타 간이,I21006,치킨,I56193,치킨 전문점,41,경기도,41310,구리시,41310510,갈매동,4131010100,갈매동,4.13101E+18,1,대지,528,null,경기도 구리시 갈매동 528,4.13103E+11,경기도 구리시 갈매순환로,212,null,4.13101E+24,에이원프라자,경기도 구리시 갈매순환로 212,471859,11901,,1,,127.1209897,37.63801127
MA010120220805433307,로이스빈,,M1,과학·기술,M105,광고,M10501,광고 대행업,M71310,광고 대행업,41,경기도,41370,오산시,41370550,세마동,4137011400,지곶동,4.13701E+18,1,대지,577,null,경기도 오산시 지곶동 577,4.13703E+11,경기도 오산시 세마문학로,50,null,4.13701E+24,E편한세상오산세교,경기도 오산시 세마문학로 50,447250,18102,,2,,127.0257717,37.16838304
MA010120220805433342,반지대학범계캠퍼스,,R1,예술·스포츠,R104,유원지·오락,R10499,기타 오락관련 서비스업,R91299,그 외 기타 분류 안된 오락관련 서비스업,41,경기도,41173,안양시 동안구,41173610,범계동,4117310400,호계동,4.11731E+18,1,대지,1046,3,경기도 안양시 동안구 호계동 1046-3,4.11734E+11,경기도 안양시 동안구 평촌대로223번길,59,null,4.11731E+24,서련코아빌딩,경기도 안양시 동안구 평촌대로223번길 59,431812,14072,,,,126.9525197,37.39015428
MA010120220805432421,이에스티,,G2,소매,G216,안경·정밀기기 소매,G21601,사무기기 소매업,G47821,사무용 기기 소매업,41,경기도,41131,성남시 수정구,41131625,위례동,4113110800,창곡동,4.11311E+18,1,대지,559,5,경기도 성남시 수정구 창곡동 559-5,4.11313E+11,경기도 성남시 수정구 위례서일로,22,null,4.11311E+24,이너매스우남,경기도 성남시 수정구 위례서일로 22,461210,13647,,,,127.1382247,37.4649017
MA010120220805433246,하이롤러,,I2,음식,I211,주점,I21104,요리 주점,I56219,기타 주점업,41,경기도,41630,양주시,41630560,회천4동,4163011400,옥정동,4.16301E+18,1,대지,963,10,경기도 양주시 옥정동 963-10,4.16303E+11,경기도 양주시 옥정로,204,null,4.16301E+24,한길프라자,경기도 양주시 옥정로 204,482130,11473,,,,127.0921232,37.81983575
MA010120220805432607,궁인테리어,,M1,과학·기술,M112,전문 디자인,M11201,인테리어 디자인업,F42499,그 외 기타 건축 마무리 공사업,41,경기도,41590,화성시,41590590,동탄5동,4159013100,영천동,4.15901E+18,1,대지,652,5,경기도 화성시 영천동 652-5,4.15905E+11,경기도 화성시 동탄대로21길,10,null,4.15901E+24,,경기도 화성시 동탄대로21길 10,445130,18471,,15,,127.0979987,37.20769339
MA010120220805432489,쎄븐미용실,,S2,수리·개인,S207,이용·미용,S20701,미용실,S96112,두발 미용업,41,경기도,41450,하남시,41450530,신장2동,4145010600,신장동,4.14501E+18,1,대지,105,4,경기도 하남시 신장동 105-4,4.14503E+11,경기도 하남시 더우개로,29,null,4.14501E+24,대명상가(지우제),경기도 하남시 더우개로 29,465809,12945,,5,,127.2209518,37.54096739
MA010120220805432744,속초코다리냉면,,I2,음식,I201,한식,I20105,국수/칼국수,I56112,한식 면 요리 전문점,41,경기도,41173,안양시 동안구,41173560,관양2동,4117310200,관양동,4.11731E+18,1,대지,1459,3,경기도 안양시 동안구 관양동 1459-3,4.11732E+11,경기도 안양시 동안구 관악대로,382,null,4.11731E+24,,경기도 안양시 동안구 관악대로 382,431808,13947,,,,126.9654722,37.40416274
MA010120220805433068,레몬약국,,G2,소매,G215,의약·화장품 소매,G21501,약국,G47811,의약품 및 의료용품 소매업,41,경기도,41173,안양시 동안구,41173510,비산1동,4117310100,비산동,4.11731E+18,1,대지,515,2,경기도 안양시 동안구 비산동 515-2,4.11733E+11,경기도 안양시 동안구 비산로,18,null,4.11731E+24,평촌자이아이파크,경기도 안양시 동안구 비산로 18,431818,13924,,1,,126.9332596,37.40011005
MA010120220805432869,상큼과일,,I2,음식,I201,한식,I20101,백반/한정식,I56111,한식 일반 음식점업,41,경기도,41131,성남시 수정구,41131550,태평2동,4113110200,태평동,4.11311E+18,1,대지,3307,151,경기도 성남시 수정구 태평동 3307-151,4.11314E+11,경기도 성남시 수정구 시민로205번길,32,1,4.11311E+24,,경기도 성남시 수정구 시민로205번길 32-1,461825,13289,,,,127.1380767,37.44530237
MA010120220805432938,힐링노래연습장,,R1,예술·스포츠,R104,유원지·오락,R10407,노래방,R91223,노래 연습장 운영업,41,경기도,41271,안산시 상록구,41271515,이동,4127110200,이동,4.12711E+18,1,대지,715,8,경기도 안산시 상록구 이동 715-8,4.12713E+11,경기도 안산시 상록구 양지편로,32,null,4.12711E+24,조강프라자,경기도 안산시 상록구 양지편로 32,426863,15494,,,,126.8506636,37.30905852
MA010120220805432940,오앤컴퍼니,,M1,과학·기술,M107,본사·경영 컨설팅,M10703,경영 컨설팅업,M71531,경영 컨설팅업,41,경기도,41410,군포시,41410510,군포1동,4141010200,당정동,4.14101E+18,1,대지,181,38,경기도 군포시 당정동 181-38,4.14105E+11,경기도 군포시 공단로140번길,38,null,4.14101E+24,,경기도 군포시 공단로140번길 38,435807,15847,,,,126.9538126,37.35724069
MA010120220805433324,금장원,,S2,수리·개인,S207,이용·미용,S20701,미용실,S96112,두발 미용업,41,경기도,41480,파주시,41480550,운정1동,4148012200,와동동,4.14801E+18,1,대지,1301,null,경기도 파주시 와동동 1301,4.14803E+11,경기도 파주시 가람로,6,null,4.14801E+24,월드타워,경기도 파주시 가람로 6,413190,10895,,,,126.7510085,37.73327164
MA010120220805433258,지선마루,,I2,음식,I211,주점,I21104,요리 주점,I56219,기타 주점업,41,경기도,41281,고양시 덕양구,41281621,화정1동,4128112300,화정동,4.12811E+18,1,대지,967,3,경기도 고양시 덕양구 화정동 967-3,4.12813E+11,경기도 고양시 덕양구 화정로,53,1,4.12811E+24,글로리아빌딩,경기도 고양시 덕양구 화정로 53-1,412734,10497,,,,126.8323642,37.63548078
MA010120220805432557,착한머리,,S2,수리·개인,S207,이용·미용,S20701,미용실,S96112,두발 미용업,41,경기도,41190,부천시,41190800,성곡동,4119012100,고강동,4.11901E+18,1,대지,311,33,경기도 부천시 고강동 311-33,4.11904E+11,경기도 부천시 고강로72번길,25,null,4.11991E+24,,경기도 부천시 고강로72번길 25,421801,14416,,1,,126.8121969,37.52859797
MA010120220805432443,피엔케케어,,M1,과학·기술,M107,본사·경영 컨설팅,M10703,경영 컨설팅업,M71531,경영 컨설팅업,41,경기도,41131,성남시 수정구,41131560,태평3동,4113110200,태평동,4.11311E+18,1,대지,4951,null,경기도 성남시 수정구 태평동 4951,4.11314E+11,경기도 성남시 수정구 탄리로147번길,3,1,4.11311E+24,,경기도 성남시 수정구 탄리로147번길 3-1,461853,13295,,,,127.1328504,37.44867018
MA010120220805432822,다올로지스,,N1,시설관리·임대,N108,기타 사업 서비스,N10805,포장/충전업,N75994,포장 및 충전업,41,경기도,41463,용인시 기흥구,41463535,보라동,4146310600,지곡동,4.14631E+18,1,대지,81,null,경기도 용인시 기흥구 지곡동 81,4.14634E+11,경기도 용인시 기흥구 지삼로250번길,26,1,4.14631E+24,,경기도 용인시 기흥구 지삼로250번길 26-1,446904,17088,,,,127.1358604,37.23461227
MA010120220805432635,뉴스페이스,,I1,숙박,I101,일반 숙박,I10103,펜션,I55109,기타 일반 및 생활 숙박시설 운영업,41,경기도,41830,양평군,41830350,서종면,4183035023,서종면,4.18304E+18,1,대지,294,8,경기도 양평군 서종면 수능리 294-8,4.18303E+11,경기도 양평군 서종면 황순원로,207,null,4.18304E+24,,경기도 양평군 서종면 황순원로 207,476813,12504,,,,127.3813485,37.59246636
MA010120220805433080,준승법무사사무소,,M1,과학·기술,M103,법무관련 ,M10303,법무사,M71103,법무사업,41,경기도,41190,부천시,41190744,상동,4119010900,상동,4.11901E+18,1,대지,537,2,경기도 부천시 상동 537-2,4.11904E+11,경기도 부천시 송내대로265번길,37,null,4.11951E+24,아름다운프라자,경기도 부천시 송내대로265번길 37,420862,14542,,,,126.756609,37.50702273
MA010120220805433022,목감중심공인중개사사무소,,L1,부동산,L102,부동산 서비스,L10203,부동산 중개/대리업,L68221,부동산 중개 및 대리업,41,경기도,41390,시흥시,41390570,목감동,4139012400,조남동,4.13901E+18,1,대지,654,null,경기도 시흥시 조남동 654,4.13903E+11,경기도 시흥시 목감남서로,9,33,4.13901E+24,더클래스투,경기도 시흥시 목감남서로 9-33,429320,14988,,,,126.8533107,37.37833102
MA010120220805433266,약손,,S2,수리·개인,S208,욕탕·신체관리,S20802,마사지/안마,S96122,마사지업,41,경기도,41135,성남시 분당구,41135610,이매2동,4113510600,이매동,4.11351E+18,1,대지,143,null,경기도 성남시 분당구 이매동 143,4.11353E+11,경기도 성남시 분당구 이매로,16,null,4.11351E+24,아름마을효성아파트,경기도 성남시 분당구 이매로 16,463737,13565,,2,,127.1216286,37.39345066
MA010120220805435678,혜민,,M1,과학·기술,M107,본사·경영 컨설팅,M10703,경영 컨설팅업,M71531,경영 컨설팅업,41,경기도,41570,김포시,41570253,고촌읍,4157025324,고촌읍,4.15703E+18,1,대지,1065,null,경기도 김포시 고촌읍 신곡리 1065,4.15704E+11,경기도 김포시 고촌읍 장차로5번길,33,null,4.15703E+24,,경기도 김포시 고촌읍 장차로5번길 33,415819,10126,,,,126.7686095,37.60329697
MA010120220805435854,프레이져케이가든,,I2,음식,I210,기타 간이,I21003,피자,I56192,"피자, 햄버거, 샌드위치 및 유사 음식점업",41,경기도,41287,고양시 일산서구,41287580,송포동,4128710400,대화동,4.12871E+18,1,대지,2600,null,경기도 고양시 일산서구 대화동 2600,4.12873E+11,경기도 고양시 일산서구 킨텍스로,217,60,4.12871E+24,킨텍스,경기도 고양시 일산서구 킨텍스로 217-60,411410,10390,,,,126.7457856,37.66892062
MA010120220805435481,경기건설안전도우미협동조합,,N1,시설관리·임대,N104,고용 알선,N10401,고용 알선업,N75110,고용 알선업,41,경기도,41115,수원시 팔달구,41115740,행궁동,4111512400,영동,4.11151E+18,1,대지,45,null,경기도 수원시 팔달구 영동 45,4.11154E+11,경기도 수원시 팔달구 수원천로255번길,6,null,4.11151E+24,영동시장,경기도 수원시 팔달구 수원천로255번길 6,442010,16262,,3,,127.0186478,37.27680716
MA010120220805436282,이산,,L1,부동산,L102,부동산 서비스,L10203,부동산 중개/대리업,L68221,부동산 중개 및 대리업,41,경기도,41480,파주시,41480560,운정2동,4148011700,목동동,4.14801E+18,1,대지,939,3,경기도 파주시 목동동 939-3,4.14805E+11,경기도 파주시 청암로17번길,55,null,4.14801E+24,,경기도 파주시 청암로17번길 55,413110,10892,,9,,126.7347971,37.72792702
MA010120220805435556,봉수아푸드,,I2,음식,I210,기타 간이,I21003,피자,I56192,"피자, 햄버거, 샌드위치 및 유사 음식점업",41,경기도,41220,평택시,41220253,안중읍,4122025330,안중읍,4.12203E+18,1,대지,31,null,경기도 평택시 안중읍 현화리 31,4.12204E+11,경기도 평택시 안중읍 안현로서6길,10,null,4.12203E+24,대원빌딩,경기도 평택시 안중읍 안현로서6길 10,451885,17936,,,,126.9280927,36.98378529
MA010120220805435738,델리명가수원벤처점,,I2,음식,I207,구내식당·뷔페,I20701,구내식당,I56130,기관 구내식당업,41,경기도,41113,수원시 권선구,41113550,평동,4111312800,고색동,4.11131E+18,1,대지,1152,null,경기도 수원시 권선구 고색동 1152,4.11134E+11,경기도 수원시 권선구 산업로156번길,142,10,4.11131E+24,수원벤처밸리∥,경기도 수원시 권선구 산업로156번길 142-10,441230,16648,,1,,126.9864605,37.23851003
MA010120220805435862,안촌인베스트먼트,,M1,과학·기술,M107,본사·경영 컨설팅,M10703,경영 컨설팅업,M71531,경영 컨설팅업,41,경기도,41273,안산시 단원구,41273570,초지동,4127310600,목내동,4.12731E+18,1,대지,489,null,경기도 안산시 단원구 목내동 489,4.12733E+11,경기도 안산시 단원구 별망로,408,null,4.12731E+24,율촌화학,경기도 안산시 단원구 별망로 408,425080,15609,,,,126.7697458,37.30429828
MA010120220805435787,알케이드코리아,,G2,소매,G209,섬유·의복·신발 소매,G20905,기타 의류 소매업,G47419,기타 의복 소매업,41,경기도,41650,포천시,41650250,소흘읍,4165025022,소흘읍,4.16503E+18,1,대지,366,6,경기도 포천시 소흘읍 이동교리 366-6,4.16503E+11,경기도 포천시 소흘읍 호국로,280,null,4.16503E+24,,경기도 포천시 소흘읍 호국로 280,487826,11184,,,,127.1290709,37.79862552
MA010120220805436112,카스온리,,S2,수리·개인,S203,자동차 수리·세차,S20302,자동차 세차장,S95213,자동차 세차업,41,경기도,41131,성남시 수정구,41131540,태평1동,4113110200,태평동,4.11311E+18,1,대지,6820,null,경기도 성남시 수정구 태평동 6820,4.11314E+11,경기도 성남시 수정구 성남대로1249번길,10,null,4.11311E+24,,경기도 성남시 수정구 성남대로1249번길 10,461855,13110,,1,,127.126336,37.4412875
MA010120220805436054,팀위더스,,M1,과학·기술,M107,본사·경영 컨설팅,M10703,경영 컨설팅업,M71531,경영 컨설팅업,41,경기도,41590,화성시,41590585,동탄1동,4159012700,반송동,4.15901E+18,1,대지,107,7,경기도 화성시 반송동 107-7,4.15903E+11,경기도 화성시 동탄문화센터로,61,null,4.15901E+24,아시아프라자,경기도 화성시 동탄문화센터로 61,445160,18455,,,,127.0720953,37.19967174
MA010120220805435750,가현세무법인수원지점,,M1,과학·기술,M104,회계·세무,M10402,세무사,M71202,세무사업,41,경기도,41117,수원시 영통구,41117585,영통3동,4111710500,영통동,4.11171E+18,1,대지,1009,6,경기도 수원시 영통구 영통동 1009-6,4.11173E+11,경기도 수원시 영통구 반달로,21,null,4.11171E+24,매직프라자,경기도 수원시 영통구 반달로 21,443470,16705,,,,127.0750319,37.25162505
MA010120220805436248,올서비스투어,,N1,시설관리·임대,N105,여행사·보조,N10501,여행사,N75210,여행사업,41,경기도,41310,구리시,41310520,동구동,4131010300,인창동,4.13101E+18,1,대지,29,null,경기도 구리시 인창동 29,4.13104E+11,경기도 구리시 동구릉로238번길,20,null,4.13101E+24,한진아파트,경기도 구리시 동구릉로238번길 20,471754,11908,,2,,127.1416368,37.61904316
MA010120220805436066,리코,,G2,소매,G210,철물·건설자재 소매,G21002,벽지/장판/마루 소매업,G47513,"벽지, 마루덮개 및 장판류 소매업",41,경기도,41820,가평군,41820325,청평면,4182032521,청평면,4.18203E+18,1,대지,82,1,경기도 가평군 청평면 청평리 82-1,4.18203E+11,경기도 가평군 청평면 강변로,45,11,4.18203E+24,,경기도 가평군 청평면 강변로 45-11,477815,12453,,,,127.4169971,37.73434721
MA010120220805435453,커피상자,,I2,음식,I212,비알코올 ,I21201,카페,I56221,커피 전문점,41,경기도,41285,고양시 일산동구,41285530,정발산동,4128510300,정발산동,4.12851E+18,1,대지,1138,1,경기도 고양시 일산동구 정발산동 1138-1,4.12853E+11,경기도 고양시 일산동구 일산로,450,null,4.12851E+24,삼일빌딩,경기도 고양시 일산동구 일산로 450,410828,10357,,1,,126.7772606,37.67388232
MA010120220805435694,고양시토당청소년수련관,,P1,교육,P106,기타 교육,P10607,청소년 수련시설,P85614,청소년 수련시설 운영업,41,경기도,41281,고양시 덕양구,41281630,행주동,4128112000,토당동,4.12811E+18,1,대지,3,39,경기도 고양시 덕양구 토당동 3-39,4.12814E+11,경기도 고양시 덕양구 중앙로633번길,25,null,4.12811E+24,고양시청소년수련관,경기도 고양시 덕양구 중앙로633번길 25,412816,10512,,,,126.82973,37.62572366
MA010120220805435524,이우아이앤씨,,I2,음식,I201,한식,I20101,백반/한정식,I56111,한식 일반 음식점업,41,경기도,41285,고양시 일산동구,41285590,장항2동,4128510400,장항동,4.12851E+18,1,대지,869,null,경기도 고양시 일산동구 장항동 869,4.12853E+11,경기도 고양시 일산동구 백마로,195,null,4.12851E+24,엠시티타워&엠시티오피스텔,경기도 고양시 일산동구 백마로 195,410839,10403,,7,,126.7715203,37.65489244
MA010120220805435897,서울쿠키컴퍼니,,I2,음식,I212,비알코올 ,I21201,카페,I56221,커피 전문점,41,경기도,41630,양주시,41630340,장흥면,4163034025,장흥면,4.16303E+18,1,대지,399,null,경기도 양주시 장흥면 일영리 399,4.16304E+11,경기도 양주시 장흥면 호국로73번길,197,null,4.16303E+24,,경기도 양주시 장흥면 호국로73번길 197,482812,11520,,,,126.931983,37.72600416
MA010120220805435768,한국시험공사,,M1,과학·기술,M109,기술 서비스,M10903,건물 및 토목 엔지니어링 서비스업,M72121,건물 및 토목 엔지니어링 서비스업,41,경기도,41360,남양주시,41360259,진건읍,4136025921,진건읍,4.13603E+18,1,대지,172,29,경기도 남양주시 진건읍 사능리 172-29,4.13603E+11,경기도 남양주시 진건읍 사릉로,163,118,4.13603E+24,,경기도 남양주시 진건읍 사릉로 163-118,472831,12140,,,,127.1945569,37.64345614
MA010120220805435600,쿠스,,G2,소매,G208,가전·통신 소매,G20803,가전제품 소매업,G47320,가전제품 소매업,41,경기도,41570,김포시,41570250,통진읍,4157025022,통진읍,4.15703E+18,1,대지,543,4,경기도 김포시 통진읍 마송리 543-4,4.15704E+11,경기도 김포시 통진읍 율마로384번길,56,null,4.15703E+24,,경기도 김포시 통진읍 율마로384번길 56,415866,10032,,,,126.6021784,37.68376713
MA010120220805436211,몽디자인,,M1,과학·기술,M112,전문 디자인,M11201,인테리어 디자인업,M73201,인테리어 디자인업,41,경기도,41465,용인시 수지구,41465585,상현3동,4146510700,상현동,4.14651E+18,1,대지,1131,2,경기도 용인시 수지구 상현동 1131-2,4.14653E+11,경기도 용인시 수지구 광교중앙로,314,null,4.14651E+24,세현빌딩,경기도 용인시 수지구 광교중앙로 314,448130,16943,,,,127.0697959,37.29790013
MA010120220805435677,홍익로지스,,N1,시설관리·임대,N104,고용 알선,N10402,임시/일용 인력 공급업,N75121,임시 및 일용 인력 공급업,41,경기도,41115,수원시 팔달구,41115660,매산동,4111513400,매산로1가,4.11151E+18,1,대지,115,2,경기도 수원시 팔달구 매산로1가 115-2,4.11154E+11,경기도 수원시 팔달구 덕영대로895번길,37,null,4.11151E+24,,경기도 수원시 팔달구 덕영대로895번길 37,442081,16455,,,,127.0008993,37.26998164
MA010120220805436086,장스튜디오,,M1,과학·기술,M112,전문 디자인,M11203,시각 디자인업,M73203,시각 디자인업,41,경기도,41650,포천시,41650340,신북면,4165034029,신북면,4.16503E+18,1,대지,222,5,경기도 포천시 신북면 삼정리 222-5,4.16504E+11,경기도 포천시 신북면 간자동길,149,25,4.16503E+24,,경기도 포천시 신북면 간자동길 149-25,487912,11137,,,,127.1467842,37.96913516
MA010120220805435474,벌룬,,M1,과학·기술,M105,광고,M10599,기타 광고 관련 서비스업,M71399,그 외 기타 광고 관련 서비스업,41,경기도,41360,남양주시,41360570,별내동,4136011100,별내동,4.13601E+18,1,대지,1542,24,경기도 남양주시 별내동 1542-24,4.13604E+11,경기도 남양주시 송산로339번길,41,49,4.13601E+24,,경기도 남양주시 송산로339번길 41-49,472501,12093,,,,127.1320654,37.67451324
MA010120220805435709,코리아세븐민락메가,,G2,소매,G204,종합 소매,G20405,편의점,G47122,체인화 편의점,41,경기도,41150,의정부시,41150578,송산3동,4115010600,민락동,4.11501E+18,1,대지,813,3,경기도 의정부시 민락동 813-3,4.11504E+11,경기도 의정부시 오목로205번길,55,null,4.11501E+24,메가타워,경기도 의정부시 오목로205번길 55,480090,11813,,1,,127.095911,37.74575623
MA010120220805435910,오석세스데이,,P1,교육,P106,기타 교육,P10629,그 외 기타 교육기관,P85699,그 외 기타 분류 안된 교육기관,41,경기도,41285,고양시 일산동구,41285540,풍산동,4128510700,풍동,4.12851E+18,1,대지,830,2,경기도 고양시 일산동구 풍동 830-2,4.12853E+11,경기도 고양시 일산동구 고일로,132,1,4.12851E+24,,경기도 고양시 일산동구 고일로 132-1,410842,10308,,2,,126.799504,37.66315453
MA010120220805435848,비아젱경기,,N1,시설관리·임대,N105,여행사·보조,N10501,여행사,N75210,여행사업,41,경기도,41480,파주시,41480560,운정2동,4148011700,목동동,4.14801E+18,1,대지,927,null,경기도 파주시 목동동 927,4.14805E+11,경기도 파주시 청암로17번길,17,null,4.14801E+24,홈플러스파주운정점,경기도 파주시 청암로17번길 17,413110,10892,,1,,126.7367432,37.72956068
MA010120220805435962,미라클그룹,,N1,시설관리·임대,N109,운송장비 대여,N10901,자동차 대여업,N76110,자동차 임대업,41,경기도,41281,고양시 덕양구,41281621,화정1동,4128112300,화정동,4.12811E+18,1,대지,968,3,경기도 고양시 덕양구 화정동 968-3,4.12813E+11,경기도 고양시 덕양구 화중로,98,null,4.12811E+24,화정광성프라자,경기도 고양시 덕양구 화중로 98,412733,10497,,,,126.8314081,37.63575964
MA010120220805435283,늘푸른부동산컨설팅,,L1,부동산,L102,부동산 서비스,L10203,부동산 중개/대리업,L68221,부동산 중개 및 대리업,41,경기도,41360,남양주시,41360340,수동면,4136034026,수동면,4.13603E+18,1,대지,465,null,경기도 남양주시 수동면 입석리 465,4.13603E+11,경기도 남양주시 수동면 비룡로,821,null,4.13603E+24,,경기도 남양주시 수동면 비룡로 821,472852,12029,,,,127.3215814,37.7108332
MA010120220805435226,홍희통닭,,I2,음식,I210,기타 간이,I21006,치킨,I56193,치킨 전문점,41,경기도,41390,시흥시,41390520,신천동,4139010200,신천동,4.13901E+18,1,대지,833,2,경기도 시흥시 신천동 833-2,4.13904E+11,경기도 시흥시 신천6길,20,null,4.13901E+24,,경기도 시흥시 신천6길 20,429826,14948,,2,,126.7799642,37.43751682
MA010120220805436375,이편한유통,,G2,소매,G204,종합 소매,G20404,슈퍼마켓,G47121,슈퍼마켓,41,경기도,41360,남양주시,41360256,화도읍,4136025622,화도읍,4.13603E+18,1,대지,479,2,경기도 남양주시 화도읍 묵현리 479-2,4.13604E+11,경기도 남양주시 화도읍 먹갓로28번길,29,null,4.13603E+24,,경기도 남양주시 화도읍 먹갓로28번길 29,472846,12157,,,,127.2781301,37.65712536
MA010120220805434473,이모네,,I2,음식,I201,한식,I20101,백반/한정식,I56111,한식 일반 음식점업,41,경기도,41310,구리시,41310570,수택1동,4131010500,수택동,4.13101E+18,1,대지,377,47,경기도 구리시 수택동 377-47,4.13104E+11,경기도 구리시 안골로63번길,13,null,4.13101E+24,,경기도 구리시 안골로63번길 13,471815,11927,,1,,127.1380727,37.59807687
MA010120220805434717,하나미용실,,S2,수리·개인,S207,이용·미용,S20701,미용실,S96112,두발 미용업,41,경기도,41190,부천시,41190744,상동,4119010900,상동,4.11901E+18,1,대지,545,2,경기도 부천시 상동 545-2,4.11904E+11,경기도 부천시 소향로13번길,28,14,4.11951E+24,맘모스타워,경기도 부천시 소향로13번길 28-14,420864,14544,,,,126.7500854,37.50483646
MA010120220805434595,매머드익스프레스평촌디지털엠파이어점,,I2,음식,I212,비알코올 ,I21201,카페,I56221,커피 전문점,41,경기도,41173,안양시 동안구,41173560,관양2동,4117310200,관양동,4.11731E+18,1,대지,954,1,경기도 안양시 동안구 관양동 954-1,4.11734E+11,경기도 안양시 동안구 흥안대로427번길,16,null,4.11731E+24,평촌디지털엠파이어,경기도 안양시 동안구 흥안대로427번길 16,431804,14059,,1,,126.9737569,37.39299865
MA010120220805434599,우성명품세탁소,,S2,수리·개인,S209,세탁,S20901,세탁소,S96912,가정용 세탁업,41,경기도,41430,의왕시,41430520,부곡동,4143010300,삼동,4.14301E+18,1,대지,146,95,경기도 의왕시 삼동 146-95,4.14304E+11,경기도 의왕시 부곡초등1길,14,null,4.14301E+24,우성5차아파트,경기도 의왕시 부곡초등1길 14,437813,16098,,,,126.9521598,37.31615512
MA010120220805434602,비비큐풍무역점,,I2,음식,I210,기타 간이,I21006,치킨,I56193,치킨 전문점,41,경기도,41570,김포시,41570550,풍무동,4157010700,풍무동,4.15701E+18,1,대지,217,2,경기도 김포시 풍무동 217-2,4.15703E+11,경기도 김포시 풍무2로,35,null,4.15701E+24,,경기도 김포시 풍무2로 35,415808,10113,,,,126.7254335,37.60958715
MA010120220805434659,구피샵,,S2,수리·개인,S207,이용·미용,S20701,미용실,S96112,두발 미용업,41,경기도,41590,화성시,41590520,진안동,4159011600,진안동,4.15901E+18,1,대지,524,1,경기도 화성시 진안동 524-1,4.15903E+11,경기도 화성시 병점로,37,6,4.15901E+24,메트로프라자,경기도 화성시 병점로 37-6,445390,18401,,,,127.03835,37.21093669
MA010120220805434728,원당구장,,R1,예술·스포츠,R103,스포츠 서비스,R10310,당구장,R91135,당구장 운영업,41,경기도,41190,부천시,41190603,심곡동,4119010200,심곡동,4.11901E+18,1,대지,392,1,경기도 부천시 심곡동 392-1,4.11904E+11,경기도 부천시 신흥로26번길,54,null,4.11951E+24,,경기도 부천시 신흥로26번길 54,420827,14636,,2,,126.7795223,37.48557379
MA010120220805435042,마슐랭,,I2,음식,I211,주점,I21104,요리 주점,I56219,기타 주점업,41,경기도,41480,파주시,41480520,금촌2동,4148010100,금촌동,4.14801E+18,1,대지,959,11,경기도 파주시 금촌동 959-11,4.14804E+11,경기도 파주시 한마음1길,40,null,4.14801E+24,대성빌딩,경기도 파주시 한마음1길 40,413826,10925,,,,126.7710432,37.75728661
MA010120220805434920,야들야들한족발,,I2,음식,I201,한식,I20103,족발/보쌈,I56111,한식 일반 음식점업,41,경기도,41273,안산시 단원구,41273565,신길동,4127310300,신길동,4.12731E+18,1,대지,1604,null,경기도 안산시 단원구 신길동 1604,4.12733E+11,경기도 안산시 단원구 신길로,14,4,4.12731E+24,,경기도 안산시 단원구 신길로 14-4,425120,15402,,,,126.7873829,37.33127792
MA010120220805434976,리프폴스튜디오,,P1,교육,P106,기타 교육,P10603,요가/필라테스 학원,P85612,기타 스포츠 교육기관,41,경기도,41463,용인시 기흥구,41463520,구갈동,4146310200,구갈동,4.14631E+18,1,대지,579,2,경기도 용인시 기흥구 구갈동 579-2,4.14633E+11,경기도 용인시 기흥구 강남로,9,null,4.14631E+24,태평양프라자,경기도 용인시 기흥구 강남로 9,446573,16977,,8,,127.1267453,37.2715355
MA010120220805435175,뚱딴지치맥,,I2,음식,I211,주점,I21103,생맥주 전문,I56213,생맥주 전문점,41,경기도,41650,포천시,41650510,포천동,4165010100,신읍동,4.16501E+18,1,대지,316,9,경기도 포천시 신읍동 316-9,4.16504E+11,경기도 포천시 왕방로130번길,13,null,4.16501E+24,무궁화빌라,경기도 포천시 왕방로130번길 13,487805,11148,,,,127.1937047,37.89456596
MA010120220805434548,신흥개발컨설팅,,L1,부동산,L102,부동산 서비스,L10203,부동산 중개/대리업,L68221,부동산 중개 및 대리업,41,경기도,41590,화성시,41590259,향남읍,4159025925,향남읍,4.15903E+18,1,대지,924,8,경기도 화성시 향남읍 구문천리 924-8,4.15903E+11,경기도 화성시 향남읍 발안공단로,98,null,4.15903E+24,상신프라자,경기도 화성시 향남읍 발안공단로 98,445922,18623,,,,126.9084898,37.08680233
MA010120220805434864,1988청춘낙지행신점,,I2,음식,I201,한식,I20112,해산물 구이/찜,I56114,한식 해산물 요리 전문점,41,경기도,41281,고양시 덕양구,41281640,행신1동,4128112800,행신동,4.12811E+18,1,대지,993,null,경기도 고양시 덕양구 행신동 993,4.12814E+11,경기도 고양시 덕양구 중앙로557번길,7,23,4.12811E+24,,경기도 고양시 덕양구 중앙로557번길 7-23,412835,10518,,1,,126.8360568,37.62246147
MA010120220805435247,레저스,,N1,시설관리·임대,N105,여행사·보조,N10599,기타 여행 보조/예약 서비스업,N75290,기타 여행 보조 및 예약 서비스업,41,경기도,41820,가평군,41820250,가평읍,4182025021,가평읍,4.18203E+18,1,대지,492,21,경기도 가평군 가평읍 읍내리 492-21,4.18203E+11,경기도 가평군 가평읍 석봉로,172,null,4.18203E+24,제일속셈학원,경기도 가평군 가평읍 석봉로 172,477805,12418,,3,,127.5108375,37.83045508
MA010120220805434621,오남곱창나라,,I2,음식,I201,한식,I20109,곱창 전골/구이,I56113,한식 육류 요리 전문점,41,경기도,41360,남양주시,41360262,오남읍,4136026223,오남읍,4.13603E+18,1,대지,480,null,경기도 남양주시 오남읍 오남리 480,4.13604E+11,경기도 남양주시 오남읍 진건오남로536번길,10,null,4.13603E+24,,경기도 남양주시 오남읍 진건오남로536번길 10,472883,12039,,2,,127.2105032,37.6806328
MA010120220805434440,승리자동판매기,,G2,소매,G222,중고 상품 소매,G22201,중고 상품 소매업,G47862,중고 가전제품 및 통신장비 소매업,41,경기도,41131,성남시 수정구,41131620,복정동,4113110700,복정동,4.11311E+18,1,대지,640,7,경기도 성남시 수정구 복정동 640-7,4.11314E+11,경기도 성남시 수정구 복정로158번길,10,null,4.11311E+24,,경기도 성남시 수정구 복정로158번길 10,461830,13113,,,,127.1279723,37.46679081
MA010120220805434822,올가뷰티,,G2,소매,G215,의약·화장품 소매,G21503,화장품 소매업,G47813,"화장품, 비누 및 방향제 소매업",41,경기도,41360,남양주시,41360256,화도읍,4136025628,화도읍,4.13603E+18,1,대지,749,null,경기도 남양주시 화도읍 창현리 749,4.13603E+11,경기도 남양주시 화도읍 창현로,60,null,4.13603E+24,신명아파트,경기도 남양주시 화도읍 창현로 60,472777,12185,,2,,127.3046126,37.64661603
MA010120220805434635,포트캔커피의정부역점,,I2,음식,I212,비알코올 ,I21201,카페,I56221,커피 전문점,41,경기도,41150,의정부시,41150510,의정부1동,4115010100,의정부동,4.11501E+18,1,대지,98,4,경기도 의정부시 의정부동 98-4,4.11503E+11,경기도 의정부시 태평로,12,null,4.11501E+24,공간라움,경기도 의정부시 태평로 12,480011,11698,,1,,127.0490728,37.73407985
MA010120220805435006,워시테리아,,S2,수리·개인,S209,세탁,S20901,세탁소,S96912,가정용 세탁업,41,경기도,41133,성남시 중원구,41133590,상대원3동,4113310500,상대원동,4.11331E+18,1,대지,853,10,경기도 성남시 중원구 상대원동 853-10,4.11333E+11,경기도 성남시 중원구 박석로,82,1,4.11331E+24,,경기도 성남시 중원구 박석로 82-1,462809,13235,,1,,127.1651111,37.44008999
MA010120220805434890,총각,,I2,음식,I201,한식,I20111,횟집,I56114,한식 해산물 요리 전문점,41,경기도,41570,김포시,41570550,풍무동,4157010700,풍무동,4.15701E+18,1,대지,66,2,경기도 김포시 풍무동 66-2,4.15704E+11,경기도 김포시 풍무로131번길,14,null,4.15701E+24,,경기도 김포시 풍무로131번길 14,415808,10117,,,,126.7223265,37.60781459
MA010120220805434943,국제무역,,G2,소매,G209,섬유·의복·신발 소매,G20905,기타 의류 소매업,G47414,셔츠 및 블라우스 소매업,41,경기도,41190,부천시,41190603,심곡동,4119010200,심곡동,4.11901E+18,1,대지,445,16,경기도 부천시 심곡동 445-16,4.11904E+11,경기도 부천시 신흥로100번길,16,null,4.11951E+24,,경기도 부천시 신흥로100번길 16,420828,14631,,1,,126.77905,37.49236273
MA010120220805435330,와이미즈산부인과의원,,Q1,보건의료,Q102,의원,Q10207,산부인과 의원,Q86201,일반의원,41,경기도,41173,안양시 동안구,41173540,부흥동,4117310100,비산동,4.11731E+18,1,대지,1108,1,경기도 안양시 동안구 비산동 1108-1,4.11732E+11,경기도 안양시 동안구 시민대로,175,null,4.11731E+24,동안프라자빌딩,경기도 안양시 동안구 시민대로 175,431817,14048,,,,126.9504139,37.39134303
MA010120220805435200,오케이노래연습장,,R1,예술·스포츠,R104,유원지·오락,R10407,노래방,R91223,노래 연습장 운영업,41,경기도,41113,수원시 권선구,41113650,구운동,4111313200,구운동,4.11131E+18,1,대지,942,3,경기도 수원시 권선구 구운동 942-3,4.11133E+11,경기도 수원시 권선구 구운로,69,null,4.11131E+24,,경기도 수원시 권선구 구운로 69,441819,16406,,2,,126.9724765,37.27982149
MA010120220805435206,드림축산,,G2,소매,G205,식료품 소매,G20503,정육점,G47212,육류 소매업,41,경기도,41190,부천시,41190603,심곡동,4119010200,심곡동,4.11901E+18,1,대지,432,15,경기도 부천시 심곡동 432-15,4.11904E+11,경기도 부천시 신흥로100번길,46,null,4.11951E+24,,경기도 부천시 신흥로100번길 46,420824,14631,,1,,126.7805804,37.49212624
MA010120220805435271,써니노래장,,I2,음식,I211,주점,I21104,요리 주점,I56219,기타 주점업,41,경기도,41250,동두천시,41250535,중앙동,4125010300,생연동,4.12501E+18,1,대지,586,55,경기도 동두천시 생연동 586-55,4.12503E+11,경기도 동두천시 동광로,46,5,4.12501E+24,,경기도 동두천시 동광로 46-5,483800,11328,,,,127.0532831,37.90826968
MA010120220805434458,사인톡,,M1,과학·기술,M105,광고,M10504,광고물 설계/제작업,M71393,"광고물 문안, 도안, 설계 등 작성업",41,경기도,41281,고양시 덕양구,41281650,행신2동,4128112800,행신동,4.12811E+18,1,대지,741,15,경기도 고양시 덕양구 행신동 741-15,4.12814E+11,경기도 고양시 덕양구 용현로53번길,16,3,4.12811E+24,,경기도 고양시 덕양구 용현로53번길 16-3,412825,10525,,,,126.8347472,37.6178263
MA010120220805434462,아이즈온유,,S2,수리·개인,S207,이용·미용,S20702,피부 관리실,S96113,피부 미용업,41,경기도,41135,성남시 분당구,41135665,구미1동,4113511400,구미동,4.11351E+18,1,대지,30,null,경기도 성남시 분당구 구미동 30,4.11354E+11,경기도 성남시 분당구 미금일로90번길,32,null,4.11351E+24,웰파크빌딩,경기도 성남시 분당구 미금일로90번길 32,463808,13627,,,,127.1104542,37.34893488
MA010120220805434514,현대펜션,,I1,숙박,I101,일반 숙박,I10103,펜션,I55109,기타 일반 및 생활 숙박시설 운영업,41,경기도,41590,화성시,41590256,우정읍,4159025633,우정읍,4.15903E+18,1,대지,90,2,경기도 화성시 우정읍 국화리 90-2,4.15904E+11,경기도 화성시 우정읍 국화길,37,27,4.15903E+24,,경기도 화성시 우정읍 국화길 37-27,445957,18557,,,,126.5554078,37.06006746
MA010120220805434522,트리우므브,,M1,과학·기술,M113,사진 촬영,M11301,사진촬영업,M73301,인물 사진 및 행사용 영상 촬영업,41,경기도,41271,안산시 상록구,41271515,이동,4127110200,이동,4.12711E+18,1,대지,633,6,경기도 안산시 상록구 이동 633-6,4.12714E+11,경기도 안산시 상록구 조구나리1길,45,null,4.12711E+24,,경기도 안산시 상록구 조구나리1길 45,426862,15486,,,,126.84433,37.3123398
MA010120220805434652,설레임분식,,I2,음식,I210,기타 간이,I21007,김밥/만두/분식,I56194,김밥 및 기타 간이 음식점업,41,경기도,41171,안양시 만안구,41171570,안양7동,4117110100,안양동,4.11711E+18,1,대지,155,2,경기도 안양시 만안구 안양동 155-2,4.11714E+11,경기도 안양시 만안구 태평로60번길,16,null,4.11711E+24,한승미메이드아파트,경기도 안양시 만안구 태평로60번길 16,430816,14037,,1,,126.9299011,37.39562845
MA010120220805434708,모닝마트,,G2,소매,G204,종합 소매,G20404,슈퍼마켓,G47121,슈퍼마켓,41,경기도,41220,평택시,41220560,송북동,4122011000,지산동,4.12201E+18,1,대지,758,28,경기도 평택시 지산동 758-28,4.12203E+11,경기도 평택시 송탄로,418,null,4.12201E+24,그랜드빌딩,경기도 평택시 송탄로 418,459110,17756,,1,,127.0581029,37.08088504
MA010120220805434777,싸게싸게,,G2,소매,G204,종합 소매,G20404,슈퍼마켓,G47121,슈퍼마켓,41,경기도,41190,부천시,41190610,중동,4119010800,중동,4.11901E+18,1,대지,756,4,경기도 부천시 중동 756-4,4.11904E+11,경기도 부천시 중동로155번길,43,null,4.11951E+24,,경기도 부천시 중동로155번길 43,420844,14608,,1,,126.7646078,37.49383444
MA010120220805434900,서림부동산공인중개사사무소,,L1,부동산,L102,부동산 서비스,L10203,부동산 중개/대리업,L68221,부동산 중개 및 대리업,41,경기도,41190,부천시,41190606,부천동,4119010300,춘의동,4.11901E+18,1,대지,165,1,경기도 부천시 춘의동 165-1,4.11904E+11,경기도 부천시 부천로198번길,27,null,4.11951E+24,서림테크노파크I,경기도 부천시 부천로198번길 27,420838,14555,,1,,126.7880485,37.50233075
MA010120220805434966,에어리어,,M1,과학·기술,M105,광고,M10501,광고 대행업,M71310,광고 대행업,41,경기도,41273,안산시 단원구,41273570,초지동,4127310500,원시동,4.12731E+18,1,대지,781,3,경기도 안산시 단원구 원시동 781-3,4.12733E+11,경기도 안산시 단원구 산단로,112,15,4.12731E+24,논산특수섬유,경기도 안산시 단원구 산단로 112-15,425852,15434,,,,126.7902008,37.30542825
MA010120220805437495,모터리페어,,S2,수리·개인,S203,자동차 수리·세차,S20301,자동차 정비소,S95212,자동차 전문 수리업,41,경기도,41590,화성시,41590540,병점2동,4159011700,병점동,4.15901E+18,1,대지,203,35,경기도 화성시 병점동 203-35,4.15904E+11,경기도 화성시 효행로1156번길,9,null,4.15901E+24,,경기도 화성시 효행로1156번길 9,445360,18421,,,,127.0521508,37.21367013
MA010120220805438118,스토리카페앤스튜디오,,I2,음식,I212,비알코올 ,I21201,카페,I56221,커피 전문점,41,경기도,41570,김포시,41570350,월곶면,4157035022,월곶면,4.15704E+18,1,대지,31,null,경기도 김포시 월곶면 고막리 31,4.15703E+11,경기도 김포시 월곶면 애기봉로,124,46,4.15704E+24,,경기도 김포시 월곶면 애기봉로 124-46,415873,10022,,,,126.5635795,37.72295563
MA010120220805437745,몽킹몽킹,,M1,과학·기술,M105,광고,M10501,광고 대행업,M71310,광고 대행업,41,경기도,41480,파주시,41480540,교하동,4148012000,신촌동,4.14801E+18,1,대지,88,5,경기도 파주시 신촌동 88-5,4.14803E+11,경기도 파주시 지목로,89,39,4.14801E+24,,경기도 파주시 지목로 89-39,413070,10880,,,,126.7000526,37.728477
MA010120220805438386,포토이즘박스,,M1,과학·기술,M113,사진 촬영,M11301,사진촬영업,S96999,그 외 기타 달리 분류되지 않은 개인 서비스업,41,경기도,41461,용인시 처인구,41461525,역북동,4146110200,역북동,4.14611E+18,1,대지,750,2,경기도 용인시 처인구 역북동 750-2,4.14613E+11,경기도 용인시 처인구 명지로40번길,4,null,4.14611E+24,,경기도 용인시 처인구 명지로40번길 4,449933,17055,,1,,127.1880944,37.23270209
MA010120220805438388,도면가,,I2,음식,I201,한식,I20101,백반/한정식,I56111,한식 일반 음식점업,41,경기도,41500,이천시,41500350,대월면,4150035028,대월면,4.15004E+18,1,대지,1,5,경기도 이천시 대월면 대흥리 1-5,4.15004E+11,경기도 이천시 대월면 대산로288번길,72,null,4.15004E+24,아미가든쇼핑센타,경기도 이천시 대월면 대산로288번길 72,467852,17336,,,,127.4753571,37.24939874
MA010120220805437989,이레철물전기,,G2,소매,G210,철물·건설자재 소매,G21001,철물/공구 소매업,G47511,철물 및 난방용구 소매업,41,경기도,41111,수원시 장안구,41111573,정자3동,4111113300,천천동,4.11111E+18,1,대지,475,6,경기도 수원시 장안구 천천동 475-6,4.11114E+11,경기도 수원시 장안구 하률로25번길,6,12,4.11111E+24,,경기도 수원시 장안구 하률로25번길 6-12,440303,16322,,1,,126.9768542,37.30296315
MA010120220805438004,예원,,G2,소매,G209,섬유·의복·신발 소매,G20905,기타 의류 소매업,G47414,셔츠 및 블라우스 소매업,41,경기도,41273,안산시 단원구,41273535,호수동,4127310100,고잔동,4.12731E+18,1,대지,768,4,경기도 안산시 단원구 고잔동 768-4,4.12733E+11,경기도 안산시 단원구 광덕2로,193,19,4.12731E+24,썬라이즈,경기도 안산시 단원구 광덕2로 193-19,425906,15470,,,,126.8319532,37.31169565
MA010120220805438067,작당당구장,,R1,예술·스포츠,R103,스포츠 서비스,R10310,당구장,R91135,당구장 운영업,41,경기도,41461,용인시 처인구,41461510,중앙동,4146110100,김량장동,4.14611E+18,1,대지,301,3,경기도 용인시 처인구 김량장동 301-3,4.14613E+11,경기도 용인시 처인구 금령로,86,null,4.14611E+24,,경기도 용인시 처인구 금령로 86,449925,17051,,,,127.2058078,37.23508398
MA010120220805437884,이차돌,,I2,음식,I201,한식,I20108,소고기 구이/찜,I56113,한식 육류 요리 전문점,41,경기도,41171,안양시 만안구,41171510,안양1동,4117110100,안양동,4.11711E+18,1,대지,674,99,경기도 안양시 만안구 안양동 674-99,4.11713E+11,경기도 안양시 만안구 만안로,211,null,4.11711E+24,,경기도 안양시 만안구 만안로 211,430831,13992,,1,,126.9235655,37.39956265
MA010120220805437891,고봉삼계탕,,I2,음식,I201,한식,I20102,국/탕/찌개류,I56111,한식 일반 음식점업,41,경기도,41463,용인시 기흥구,41463575,동백2동,4146311600,중동,4.14631E+18,1,대지,844,4,경기도 용인시 기흥구 중동 844-4,4.14634E+11,경기도 용인시 기흥구 동백3로11번길,47,null,4.14631E+24,,경기도 용인시 기흥구 동백3로11번길 47,446529,17006,,1,,127.1502099,37.27249021
MA010120220805437497,아이눈,,P1,교육,P106,기타 교육,P10603,요가/필라테스 학원,P85612,기타 스포츠 교육기관,41,경기도,41463,용인시 기흥구,41463575,동백2동,4146311600,중동,4.14631E+18,1,대지,849,2,경기도 용인시 기흥구 중동 849-2,4.14633E+11,경기도 용인시 기흥구 동백중앙로,191,null,4.14631E+24,씨티프라자,경기도 용인시 기흥구 동백중앙로 191,446529,17006,,8,,127.1529455,37.27086982
MA010120220805437507,케이앤지,,M1,과학·기술,M107,본사·경영 컨설팅,M10703,경영 컨설팅업,M71531,경영 컨설팅업,41,경기도,41117,수원시 영통구,41117580,영통2동,4111710600,신동,4.11171E+18,1,대지,478,6,경기도 수원시 영통구 신동 478-6,4.11173E+11,경기도 수원시 영통구 신원로,55,null,4.11171E+24,테크트리영통지식산업센터,경기도 수원시 영통구 신원로 55,443472,16677,,7,,127.0478454,37.24874232
MA010120220805438078,토종한우도축장직영식당,,I2,음식,I201,한식,I20108,소고기 구이/찜,I56111,한식 일반 음식점업,41,경기도,41590,화성시,41590262,남양읍,4159026221,남양읍,4.15903E+18,1,대지,1148,10,경기도 화성시 남양읍 남양리 1148-10,4.15904E+11,경기도 화성시 남양읍 남양시장로25번길,58,34,4.15901E+24,,경기도 화성시 남양읍 남양시장로25번길 58-34,445851,18258,,,,126.8178154,37.21377075
MA010120220805437903,어뮤즈필라테스,,P1,교육,P106,기타 교육,P10603,요가/필라테스 학원,P85612,기타 스포츠 교육기관,41,경기도,41590,화성시,41590586,동탄2동,4159012700,반송동,4.15901E+18,1,대지,212,null,경기도 화성시 반송동 212,4.15903E+11,경기도 화성시 동탄나루로,55,null,4.15901E+24,동탄나루마을동탄역UBORA여울숲20,경기도 화성시 동탄나루로 55,445754,18442,,2,,127.0794555,37.19188956
MA010120220805437943,지에스25운정,,G2,소매,G204,종합 소매,G20405,편의점,G47122,체인화 편의점,41,경기도,41480,파주시,41480550,운정1동,4148012200,와동동,4.14801E+18,1,대지,1652,9,경기도 파주시 와동동 1652-9,4.14804E+11,경기도 파주시 가람로21번길,26,9,4.14801E+24,,경기도 파주시 가람로21번길 26-9,413190,10870,,,,126.7527551,37.73532639
MA010120220805437576,명인가전설치,,S2,수리·개인,S205,가전제품 수리,S20501,가전제품 수리업,S95310,가전제품 수리업,41,경기도,41281,고양시 덕양구,41281530,흥도동,4128110400,원흥동,4.12811E+18,1,대지,659,8,경기도 고양시 덕양구 원흥동 659-8,4.12814E+11,경기도 고양시 덕양구 서삼릉1길,7,null,4.12811E+24,,경기도 고양시 덕양구 서삼릉1길 7,412040,10559,,1,,126.8765018,37.65453348
MA010120220805437584,씨유영통으뜸점,,G2,소매,G204,종합 소매,G20405,편의점,G47122,체인화 편의점,41,경기도,41117,수원시 영통구,41117585,영통3동,4111710500,영통동,4.11171E+18,1,대지,1010,13,경기도 수원시 영통구 영통동 1010-13,4.11173E+11,경기도 수원시 영통구 청명남로,30,null,4.11171E+24,거성빌딩,경기도 수원시 영통구 청명남로 30,443470,16705,,1,,127.0754195,37.25219577
MA010120220805438280,용신,,N1,시설관리·임대,N102,청소·방제,N10201,건축물 일반 청소업,N74211,건축물 일반 청소업,41,경기도,41281,고양시 덕양구,41281600,관산동,4128111900,내유동,4.12811E+18,1,대지,307,9,경기도 고양시 덕양구 내유동 307-9,4.12814E+11,경기도 고양시 덕양구 통일로1267번길,8,2,4.12811E+24,,경기도 고양시 덕양구 통일로1267번길 8-2,412803,10262,,,,126.8424354,37.72528499
MA010120220805438284,테라스비어,,I2,음식,I211,주점,I21103,생맥주 전문,I56213,생맥주 전문점,41,경기도,41111,수원시 장안구,41111566,율천동,4111113200,율전동,4.11111E+18,1,대지,288,19,경기도 수원시 장안구 율전동 288-19,4.11114E+11,경기도 수원시 장안구 서부로2136번길,11,null,4.11111E+24,,경기도 수원시 장안구 서부로2136번길 11,440825,16417,,,,126.9729179,37.29878409
MA010120220805437464,추억의냉동삼겹살,,I2,음식,I201,한식,I20107,돼지고기 구이/찜,I56111,한식 일반 음식점업,41,경기도,41285,고양시 일산동구,41285600,고봉동,4128510900,사리현동,4.12851E+18,1,대지,465,2,경기도 고양시 일산동구 사리현동 465-2,4.12853E+11,경기도 고양시 일산동구 성현로,510,null,4.12851E+24,,경기도 고양시 일산동구 성현로 510,410530,10259,,1,,126.8384534,37.69697215
MA010120220805438086,삼송토탈관리,,N1,시설관리·임대,N102,청소·방제,N10201,건축물 일반 청소업,N74211,건축물 일반 청소업,41,경기도,41281,고양시 덕양구,41281530,흥도동,4128110400,원흥동,4.12811E+18,1,대지,663,10,경기도 고양시 덕양구 원흥동 663-10,4.12814E+11,경기도 고양시 덕양구 서삼릉길,359,null,4.12811E+24,,경기도 고양시 덕양구 서삼릉길 359,412040,10559,,,,126.8782389,37.65282006
MA010120220805438090,엠헤어,,S2,수리·개인,S207,이용·미용,S20701,미용실,S96112,두발 미용업,41,경기도,41461,용인시 처인구,41461250,포곡읍,4146125023,포곡읍,4.14613E+18,1,대지,126,1,경기도 용인시 처인구 포곡읍 둔전리 126-1,4.14614E+11,경기도 용인시 처인구 포곡읍 포곡로118번길,30,null,4.14613E+24,J&B빌딩,경기도 용인시 처인구 포곡읍 포곡로118번길 30,449812,17027,,1,,127.2210723,37.26856227
MA010120220805438095,롱브레드,,I2,음식,I210,기타 간이,I21003,피자,I56192,"피자, 햄버거, 샌드위치 및 유사 음식점업",41,경기도,41210,광명시,41210655,일직동,4121010600,일직동,4.12101E+18,1,대지,513,null,경기도 광명시 일직동 513,4.12103E+11,경기도 광명시 양지로,16,null,4.12101E+24,광명역써밋플레이스,경기도 광명시 양지로 16,423090,14346,,2,,126.8808046,37.41706062
MA010120220805438356,호식이두마리치킨,,I2,음식,I210,기타 간이,I21006,치킨,I56193,치킨 전문점,41,경기도,41210,광명시,41210650,소하2동,4121010400,소하동,4.12101E+18,1,대지,1236,9,경기도 광명시 소하동 1236-9,4.12103E+11,경기도 광명시 기아로,23,null,4.12101E+24,,경기도 광명시 기아로 23,423826,14326,,1,,126.8822551,37.43651911
MA010120220805438021,국민생삼겹살,,I2,음식,I201,한식,I20107,돼지고기 구이/찜,I56113,한식 육류 요리 전문점,41,경기도,41390,시흥시,41390582,월곶동,4139013100,월곶동,4.13901E+18,1,대지,1011,15,경기도 시흥시 월곶동 1011-15,4.13903E+11,경기도 시흥시 월곶중앙로,71,null,4.13901E+24,센타프라자,경기도 시흥시 월곶중앙로 71,429834,14963,,,,126.7372865,37.3889528
MA010120220805438179,의정부역공인중개사사무소,,L1,부동산,L102,부동산 서비스,L10203,부동산 중개/대리업,L68221,부동산 중개 및 대리업,41,경기도,41150,의정부시,41150520,의정부2동,4115010100,의정부동,4.11501E+18,1,대지,494,null,경기도 의정부시 의정부동 494,4.11503E+11,경기도 의정부시 시민로,80,null,4.11501E+24,센트럴타워,경기도 의정부시 시민로 80,480941,11651,,,,127.0440763,37.73796788
MA010120220805437601,갈매유앤아이안경,,G2,소매,G216,안경·정밀기기 소매,G21602,안경렌즈 소매업,G47822,안경 및 렌즈 소매업,41,경기도,41310,구리시,41310510,갈매동,4131010100,갈매동,4.13101E+18,1,대지,601,null,경기도 구리시 갈매동 601,4.13103E+11,경기도 구리시 갈매중앙로,89,10,4.13101E+24,,경기도 구리시 갈매중앙로 89-10,471080,11901,,,,127.1169701,37.63298949
MA010120220805437467,남해멸치집,,I2,음식,I201,한식,I20101,백반/한정식,I56111,한식 일반 음식점업,41,경기도,41450,하남시,41450620,미사2동,4145010900,망월동,4.14501E+18,1,대지,859,3,경기도 하남시 망월동 859-3,4.14505E+11,경기도 하남시 미사강변한강로158번길,144,null,4.14501E+24,,경기도 하남시 미사강변한강로158번길 144,465150,12903,,1,,127.191946,37.5758416
MA010120220805437469,상록수공인중개사사무소,,L1,부동산,L102,부동산 서비스,L10203,부동산 중개/대리업,L68221,부동산 중개 및 대리업,41,경기도,41271,안산시 상록구,41271525,사동,4127110300,사동,4.12711E+18,1,대지,1304,3,경기도 안산시 상록구 사동 1304-3,4.12713E+11,경기도 안산시 상록구 석호로,179,null,4.12711E+24,,경기도 안산시 상록구 석호로 179,426823,15582,,1,,126.8516096,37.29655183
MA010120220805437480,법률사무소준성,,M1,과학·기술,M103,법무관련 ,M10301,변호사,M71101,변호사업,41,경기도,41190,부천시,41190610,중동,4119010900,상동,4.11901E+18,1,대지,448,1,경기도 부천시 상동 448-1,4.11903E+11,경기도 부천시 상일로,126,null,4.11951E+24,뉴법조타운,경기도 부천시 상일로 126,420816,14623,,,,126.756411,37.49100028
MA010120220805437671,오케이파머,,G2,소매,G212,기타 생활용품 소매,G21202,주방/가정용품 소매업,G47592,"주방용품 및 가정용 유리, 요업제품 소매업",41,경기도,41550,안성시,41550350,대덕면,4155035023,대덕면,4.15504E+18,1,대지,361,null,경기도 안성시 대덕면 모산리 361,4.15504E+11,경기도 안성시 대덕면 배꽃길,61,null,4.15504E+24,,경기도 안성시 대덕면 배꽃길 61,456833,17543,,,,127.2405316,37.03003582
MA010120220805438100,은하수분식,,I2,음식,I210,기타 간이,I21007,김밥/만두/분식,I56194,김밥 및 기타 간이 음식점업,41,경기도,41273,안산시 단원구,41273535,호수동,4127310100,고잔동,4.12731E+18,1,대지,742,2,경기도 안산시 단원구 고잔동 742-2,4.12733E+11,경기도 안산시 단원구 광덕3로,227,null,4.12731E+24,,경기도 안산시 단원구 광덕3로 227,425809,15466,,,,126.8381158,37.31222488
MA010120220805437718,대광,,N1,시설관리·임대,N104,고용 알선,N10402,임시/일용 인력 공급업,N75121,임시 및 일용 인력 공급업,41,경기도,41273,안산시 단원구,41273545,원곡동,4127310800,원곡동,4.12731E+18,1,대지,809,3,경기도 안산시 단원구 원곡동 809-3,4.12733E+11,경기도 안산시 단원구 원곡1로,5,null,4.12731E+24,,경기도 안산시 단원구 원곡1로 5,425846,15392,,,,126.7928555,37.32705385
MA010120220805438383,꼼서방전부인,,I2,음식,I201,한식,I20111,횟집,I56114,한식 해산물 요리 전문점,41,경기도,41190,부천시,41190742,신중동,4119010500,약대동,4.11901E+18,1,대지,106,null,경기도 부천시 약대동 106,4.11903E+11,경기도 부천시 중동로,379,null,4.11951E+24,,경기도 부천시 중동로 379,420830,14513,,1,,126.7698578,37.5136489
MA010120220805437988,내폼스타일,,S2,수리·개인,S206,기타 가정용품 수리,S20601,의류/이불 수선업,S95391,의복 및 기타 가정용 직물제품 수리업,41,경기도,41461,용인시 처인구,41461540,동부동,4146110700,마평동,4.14611E+18,1,대지,634,1,경기도 용인시 처인구 마평동 634-1,4.14613E+11,경기도 용인시 처인구 금령로,172,null,4.14611E+24,,경기도 용인시 처인구 금령로 172,449929,17154,,,,127.2150697,37.23419957
MA010120220805438200,퀴즈노스분당,,I2,음식,I210,기타 간이,I21099,그 외 기타 간이 음식점,I56199,간이 음식 포장 판매 전문점,41,경기도,41135,성남시 분당구,41135670,구미동,4113511400,구미동,4.11351E+18,1,대지,179,null,경기도 성남시 분당구 구미동 179,4.11354E+11,경기도 성남시 분당구 구미로9번길,17,null,4.11351E+24,광림빌딩,경기도 성남시 분당구 구미로9번길 17,463870,13637,,1,,127.1099401,37.33990216
MA010120220805436527,비이씨,,M1,과학·기술,M107,본사·경영 컨설팅,M10703,경영 컨설팅업,M71531,경영 컨설팅업,41,경기도,41463,용인시 기흥구,41463540,기흥동,4146310700,공세동,4.14631E+18,1,대지,734,3,경기도 용인시 기흥구 공세동 734-3,4.14633E+11,경기도 용인시 기흥구 탑실로,32,null,4.14631E+24,,경기도 용인시 기흥구 탑실로 32,446902,17084,,,,127.1101706,37.23893654
MA010120220805438160,농부네마트,,G2,소매,G204,종합 소매,G20404,슈퍼마켓,G47129,기타 음ㆍ식료품 위주 종합 소매업,41,경기도,41131,성남시 수정구,41131625,위례동,4113110800,창곡동,4.11311E+18,1,대지,510,null,경기도 성남시 수정구 창곡동 510,4.11313E+11,경기도 성남시 수정구 위례광장로,311,null,4.11311E+24,위례35단지,경기도 성남시 수정구 위례광장로 311,461210,13641,,1,,127.1437144,37.47122204
MA010120220805437252,아시아행정사사무소정왕,,M1,과학·기술,M103,법무관련 ,M10306,행정사,M71109,기타 법무관련 서비스업,41,경기도,41390,시흥시,41390589,정왕본동,4139013200,정왕동,4.13901E+18,1,대지,1200,8,경기도 시흥시 정왕동 1200-8,4.13904E+11,경기도 시흥시 군서로18번길,1,null,4.13901E+24,,경기도 시흥시 군서로18번길 1,429455,15052,,1,,126.7495513,37.34467929
MA010120220805437637,해은통신,,G2,소매,G208,가전·통신 소매,G20802,핸드폰 소매업,G47312,통신기기 소매업,41,경기도,41171,안양시 만안구,41171590,석수1동,4117110200,석수동,4.11711E+18,1,대지,825,1,경기도 안양시 만안구 석수동 825-1,4.11713E+11,경기도 안양시 만안구 예술공원로,153,32,4.11711E+24,패미리월드G7,경기도 안양시 만안구 예술공원로 153-32,430041,13911,,,,126.9238764,37.41967716
MA010120220805436798,조아라청과,,G2,소매,G205,식료품 소매,G20506,채소/과일 소매업,G47215,"채소, 과실 및 뿌리작물 소매업",41,경기도,41190,부천시,41190606,부천동,4119010700,역곡동,4.11901E+18,1,대지,18,21,경기도 부천시 역곡동 18-21,4.11903E+11,경기도 부천시 부일로,621,null,4.11951E+24,,경기도 부천시 부일로 621,420832,14661,,,,126.7992881,37.48410941
MA010120220805437082,이마트에스티코,,G2,소매,G209,섬유·의복·신발 소매,G20905,기타 의류 소매업,G47414,셔츠 및 블라우스 소매업,41,경기도,41590,화성시,41590585,동탄1동,4159012800,석우동,4.15901E+18,1,대지,44,null,경기도 화성시 석우동 44,4.15903E+11,경기도 화성시 동탄중앙로,376,null,4.15901E+24,화성동탄이마트,경기도 화성시 동탄중앙로 376,445170,18451,,2,,127.0797121,37.21436506
MA010120220805437137,여기서헤어,,S2,수리·개인,S207,이용·미용,S20701,미용실,S96112,두발 미용업,41,경기도,41190,부천시,41190800,성곡동,4119012100,고강동,4.11901E+18,1,대지,469,4,경기도 부천시 고강동 469-4,4.11904E+11,경기도 부천시 역곡로471번가길,33,null,4.11991E+24,,경기도 부천시 역곡로471번가길 33,421801,14416,,1,,126.8147076,37.52794742
MA010120220805437274,해오름,,G2,소매,G215,의약·화장품 소매,G21503,화장품 소매업,G47813,"화장품, 비누 및 방향제 소매업",41,경기도,41173,안양시 동안구,41173620,신촌동,4117310400,호계동,4.11731E+18,1,대지,1073,null,경기도 안양시 동안구 호계동 1073,4.11732E+11,경기도 안양시 동안구 평촌대로,107,null,4.11731E+24,흥일빌딩,경기도 안양시 동안구 평촌대로 107,431827,14099,,1,,126.960408,37.38155563
MA010120220805436553,대륙할인마트,,G2,소매,G204,종합 소매,G20404,슈퍼마켓,G47121,슈퍼마켓,41,경기도,41463,용인시 기흥구,41463572,동백1동,4146311500,동백동,4.14631E+18,1,대지,598,5,경기도 용인시 기흥구 동백동 598-5,4.14633E+11,경기도 용인시 기흥구 동백7로,83,null,4.14631E+24,중앙프라자,경기도 용인시 기흥구 동백7로 83,446911,17003,,1,,127.1603799,37.28168188
MA010120220805436557,더맛나,,I2,음식,I212,비알코올 ,I21201,카페,I56229,기타 비알코올 음료점업,41,경기도,41590,화성시,41590590,동탄5동,4159013100,영천동,4.15901E+18,1,대지,99,2,경기도 화성시 영천동 99-2,4.15902E+11,경기도 화성시 동탄대로,677,10,4.15901E+24,,경기도 화성시 동탄대로 677-10,445130,18468,,,,127.0998782,37.21449299
MA010120220805437383,베이비파크구리남양주점,,G2,소매,G213,오락용품 소매,G21305,자전거 소매업,G47632,자전거 및 기타 운송장비 소매업,41,경기도,41310,구리시,41310510,갈매동,4131010100,갈매동,4.13101E+18,1,대지,146,1,경기도 구리시 갈매동 146-1,4.13103E+11,경기도 구리시 금강로,71,null,4.13101E+24,,경기도 구리시 금강로 71,471858,11900,,,,127.1191661,37.64275516
MA010120220805436494,천민,,G2,소매,G208,가전·통신 소매,G20802,핸드폰 소매업,G47312,통신기기 소매업,41,경기도,41360,남양주시,41360253,진접읍,4136025328,진접읍,4.13603E+18,1,대지,1096,null,경기도 남양주시 진접읍 금곡리 1096,4.13603E+11,경기도 남양주시 진접읍 해밀예당3로,52,null,4.13603E+24,으뜸빌딩,경기도 남양주시 진접읍 해밀예당3로 52,472861,12069,,,,127.1985411,37.71448513
MA010120220805436826,김성진1관학원,,P1,교육,P105,일반 교육,P10501,입시·교과학원,P85501,일반 교과학원,41,경기도,41287,고양시 일산서구,41287530,일산3동,4128710100,일산동,4.12871E+18,1,대지,1083,1,경기도 고양시 일산서구 일산동 1083-1,4.12873E+11,경기도 고양시 일산서구 일산로,529,null,4.12871E+24,대화프라자,경기도 고양시 일산서구 일산로 529,411827,10375,,,,126.768799,37.67693881
MA010120220805436758,이화스타피아노음악교습소,,P1,교육,P106,기타 교육,P10609,음악학원,P85501,일반 교과학원,41,경기도,41360,남양주시,41360570,별내동,4136011100,별내동,4.13601E+18,1,대지,975,3,경기도 남양주시 별내동 975-3,4.13603E+11,경기도 남양주시 순화궁로,249,null,4.13601E+24,별내역파라곤스퀘어,경기도 남양주시 순화궁로 249,472501,12106,,2,,127.1281018,37.65187698
MA010120220805436759,러닝플레이수학교습소,,P1,교육,P105,일반 교육,P10501,입시·교과학원,P85501,일반 교과학원,41,경기도,41133,성남시 중원구,41133670,도촌동,4113310600,여수동,4.11331E+18,1,대지,426,null,경기도 성남시 중원구 여수동 426,4.11334E+11,경기도 성남시 중원구 여수울로15번길,4,16,4.11331E+24,,경기도 성남시 중원구 여수울로15번길 4-16,462080,13435,,4,,127.1322443,37.41894839
MA010120220805436898,내이름은다육이,,G2,소매,G219,식물 소매,G21901,꽃집,G47851,화초 및 식물 소매업,41,경기도,41461,용인시 처인구,41461540,동부동,4146110800,운학동,4.14611E+18,1,대지,337,10,경기도 용인시 처인구 운학동 337-10,4.14614E+11,경기도 용인시 처인구 동부로403번길,15,null,4.14611E+24,,경기도 용인시 처인구 동부로403번길 15,449050,17141,,,,127.2408626,37.20535195
MA010120220805436899,햇살같이웃는아이들,,Q1,보건의료,Q104,기타 보건,Q10402,유사 의료업,Q86902,유사 의료업,41,경기도,41290,과천시,41290510,중앙동,4129010700,중앙동,4.12901E+18,1,대지,40,8,경기도 과천시 중앙동 40-8,4.12904E+11,경기도 과천시 새술막길,10,15,4.12901E+24,명문빌딩,경기도 과천시 새술막길 10-15,427806,13807,,6,,126.9908598,37.42886408
MA010120220805437345,금빛공인중개사사무소,,L1,부동산,L102,부동산 서비스,L10203,부동산 중개/대리업,L68221,부동산 중개 및 대리업,41,경기도,41133,성남시 중원구,41133510,성남동,4113310100,성남동,4.11331E+18,1,대지,3329,null,경기도 성남시 중원구 성남동 3329,4.11334E+11,경기도 성남시 중원구 광명로42번길,13,null,4.11331E+24,,경기도 성남시 중원구 광명로42번길 13,462827,13367,,1,,127.1341648,37.43268581
MA010120220805437158,세븐일레븐오산위드,,G2,소매,G204,종합 소매,G20405,편의점,G47122,체인화 편의점,41,경기도,41370,오산시,41370540,신장동,4137010800,수청동,4.13701E+18,1,대지,608,11,경기도 오산시 수청동 608-11,4.13703E+11,경기도 오산시 청학로,266,22,4.13701E+24,,경기도 오산시 청학로 266-22,447290,18110,,1,,127.0618496,37.17103505
MA010120220805437161,윌공인중개사사무소,,L1,부동산,L102,부동산 서비스,L10203,부동산 중개/대리업,L68221,부동산 중개 및 대리업,41,경기도,41610,광주시,41610253,초월읍,4161025321,초월읍,4.16103E+18,1,대지,91,3,경기도 광주시 초월읍 대쌍령리 91-3,4.16103E+11,경기도 광주시 초월읍 무들로,86,null,4.16103E+24,동원빌딩,경기도 광주시 초월읍 무들로 86,464862,12735,,1,,127.298008,37.3867718
MA010120220805437281,미미해장국,,I2,음식,I201,한식,I20102,국/탕/찌개류,I56111,한식 일반 음식점업,41,경기도,41590,화성시,41590259,향남읍,4159025924,향남읍,4.15903E+18,1,대지,1300,6,경기도 화성시 향남읍 상신리 1300-6,4.15905E+11,경기도 화성시 향남읍 상신하길로144번길,32,1,4.15903E+24,,경기도 화성시 향남읍 상신하길로144번길 32-1,445937,18617,,,,126.8988032,37.10328411
MA010120220805437283,소담푸드,,I2,음식,I201,한식,I20101,백반/한정식,I56111,한식 일반 음식점업,41,경기도,41410,군포시,41410540,산본1동,4141010400,산본동,4.14101E+18,1,대지,18,39,경기도 군포시 산본동 18-39,4.14104E+11,경기도 군포시 엘에스로182번길,18,null,4.14101E+24,,경기도 군포시 엘에스로182번길 18,435837,15807,,,,126.9436209,37.37727097
MA010120220805437395,코코호도동백역점,,I2,음식,I210,기타 간이,I21001,빵/도넛,I56191,제과점업,41,경기도,41463,용인시 기흥구,41463575,동백2동,4146311600,중동,4.14631E+18,1,대지,853,1,경기도 용인시 기흥구 중동 853-1,4.14633E+11,경기도 용인시 기흥구 동백중앙로,175,null,4.14631E+24,우함빌딩,경기도 용인시 기흥구 동백중앙로 175,446529,17006,,,,127.1541508,37.26995932
MA010120220805437396,스파더엘,,S2,수리·개인,S207,이용·미용,S20702,피부 관리실,S96113,피부 미용업,41,경기도,41117,수원시 영통구,41117600,광교1동,4111710300,이의동,4.11171E+18,1,대지,1336,1,경기도 수원시 영통구 이의동 1336-1,4.11173E+11,경기도 수원시 영통구 광교중앙로,145,null,4.11171E+24,광교엘포트아이파크,경기도 수원시 영통구 광교중앙로 145,443270,16508,,3,,127.0577718,37.28708207
MA010120220805436834,피아노블리음악학원,,P1,교육,P106,기타 교육,P10609,음악학원,P85621,음악학원,41,경기도,41465,용인시 수지구,41465555,죽전3동,4146510200,죽전동,4.14651E+18,1,대지,1329,null,경기도 용인시 수지구 죽전동 1329,4.14653E+11,경기도 용인시 수지구 죽전로,143,null,4.14651E+24,성현마을우미이노스빌,경기도 용인시 수지구 죽전로 143,448950,16889,,,,127.1239505,37.32489551
MA010120220805436983,통진이곡상회,,G2,소매,G205,식료품 소매,G20501,곡물/곡분 소매업,G47211,"곡물, 곡분 및 가축 사료 소매업",41,경기도,41570,김포시,41570250,통진읍,4157025023,통진읍,4.15703E+18,1,대지,726,7,경기도 김포시 통진읍 서암리 726-7,4.15704E+11,경기도 김포시 통진읍 서암로84번길,17,null,4.15703E+24,,경기도 김포시 통진읍 서암로84번길 17,415867,10018,,,,126.5994997,37.69177219
MA010120220805437053,스마트푸르넷팽성점학원,,P1,교육,P105,일반 교육,P10501,입시·교과학원,P85501,일반 교과학원,41,경기도,41220,평택시,41220250,팽성읍,4122025045,팽성읍,4.12203E+18,1,대지,779,1,경기도 평택시 팽성읍 송화리 779-1,4.12203E+11,경기도 평택시 팽성읍 부용로,27,null,4.12203E+24,,경기도 평택시 팽성읍 부용로 27,451803,17989,,4,,127.0587232,36.96322963
MA010120220805437233,코베아브로스캠핑,,G2,소매,G213,오락용품 소매,G21304,운동용품 소매업,G47631,운동 및 경기용품 소매업,41,경기도,41450,하남시,41450582,감일동,4145011400,감일동,4.14501E+18,1,대지,370,10,경기도 하남시 감일동 370-10,4.14503E+11,경기도 하남시 감일남로,16,null,4.14501E+24,삼현PF1차,경기도 하남시 감일남로 16,465190,12993,,2,,127.141425,37.50630187
MA010120220805437234,청하시스템,,N1,시설관리·임대,N102,청소·방제,N10201,건축물 일반 청소업,N74211,건축물 일반 청소업,41,경기도,41113,수원시 권선구,41113530,세류2동,4111312600,세류동,4.11131E+18,1,대지,1159,2,경기도 수원시 권선구 세류동 1159-2,4.11133E+11,경기도 수원시 권선구 정조로,384,null,4.11131E+24,,경기도 수원시 권선구 정조로 384,441881,16660,,1,,127.0148827,37.24383204
MA010120220805437242,수스·르피타,,G2,소매,G209,섬유·의복·신발 소매,G20902,여성 의류 소매업,G47412,여자용 겉옷 소매업,41,경기도,41630,양주시,41630540,회천2동,4163011700,회정동,4.16301E+18,1,대지,453,19,경기도 양주시 회정동 453-19,4.16303E+11,경기도 양주시 평화로,1593,null,4.16301E+24,LF스퀘어양주점,경기도 양주시 평화로 1593,482170,11439,,2,,127.052267,37.83138808
MA010120220805437245,레인보우썬팅,,G2,소매,G202,자동차 부품 소매,G20202,자동차 부품 소매업,G45219,기타 자동차 신품 부품 및 내장품 판매업,41,경기도,41550,안성시,41550250,공도읍,4155025025,공도읍,4.15503E+18,1,대지,275,81,경기도 안성시 공도읍 용두리 275-81,4.15504E+11,경기도 안성시 공도읍 용머리길,5,null,4.15503E+24,,경기도 안성시 공도읍 용머리길 5,456821,17551,,,,127.1633118,36.99960775
MA010120220805436660,아토즈영어학원,,P1,교육,P105,일반 교육,P10501,입시·교과학원,P85501,일반 교과학원,41,경기도,41590,화성시,41590262,남양읍,4159026221,남양읍,4.15903E+18,1,대지,2294,8,경기도 화성시 남양읍 남양리 2294-8,4.15903E+11,경기도 화성시 남양읍 시청로,64,null,4.15903E+24,,경기도 화성시 남양읍 시청로 64,445851,18268,,3,,126.8219784,37.20399044
MA010120220805436722,아산신경외과,,Q1,보건의료,Q102,의원,Q10202,외과 의원,Q86201,일반의원,41,경기도,41570,김포시,41570525,장기본동,4157010400,장기동,4.15701E+18,1,대지,1608,null,경기도 김포시 장기동 1608,4.15703E+11,경기도 김포시 김포한강4로,117,null,4.15701E+24,홍우프라자,경기도 김포시 김포한강4로 117,415060,10083,,,,126.6679491,37.64419061
MA010120220805437127,택이네조개전골,,I2,음식,I201,한식,I20112,해산물 구이/찜,I56113,한식 육류 요리 전문점,41,경기도,41150,의정부시,41150573,송산1동,4115011200,고산동,4.11501E+18,1,대지,963,8,경기도 의정부시 고산동 963-8,4.11505E+11,경기도 의정부시 물내음길,12,null,4.11501E+24,,경기도 의정부시 물내음길 12,480060,11801,,1,,127.1110432,37.73380661
MA010120220805437129,종로불닭,,I2,음식,I201,한식,I20110,닭/오리고기 구이/찜,I56113,한식 육류 요리 전문점,41,경기도,41190,부천시,41190744,상동,4119010900,상동,4.11901E+18,1,대지,545,7,경기도 부천시 상동 545-7,4.11904E+11,경기도 부천시 소향로37번길,31,21,4.11951E+24,라라플러스,경기도 부천시 소향로37번길 31-21,420864,14544,,,,126.7507422,37.50478934
MA010120220805437132,느티나무언덕,,I2,음식,I212,비알코올 ,I21201,카페,I56221,커피 전문점,41,경기도,41450,하남시,41450510,천현동,4145010200,하산곡동,4.14501E+18,1,대지,72,6,경기도 하남시 하산곡동 72-6,4.14503E+11,경기도 하남시 검단로,22,null,4.14501E+24,,경기도 하남시 검단로 22,465816,13024,,2,,127.2238389,37.52225332
MA010120220805436926,야채랑,,G2,소매,G205,식료품 소매,G20506,채소/과일 소매업,G47215,"채소, 과실 및 뿌리작물 소매업",41,경기도,41570,김포시,41570515,김포본동,4157010100,북변동,4.15701E+18,1,대지,289,4,경기도 김포시 북변동 289-4,4.15703E+11,경기도 김포시 북변중로,70,null,4.15701E+24,,경기도 김포시 북변중로 70,415831,10098,,1,,126.7095352,37.62709221
MA010120220805437058,스타일텔레콤,,G2,소매,G208,가전·통신 소매,G20802,핸드폰 소매업,G47312,통신기기 소매업,41,경기도,41250,동두천시,41250565,불현동,4125010200,지행동,4.12501E+18,1,대지,285,1,경기도 동두천시 지행동 285-1,4.12503E+11,경기도 동두천시 지행로,100,null,4.12501E+24,,경기도 동두천시 지행로 100,483020,11363,,,,127.0583187,37.89237144
MA010120220805439483,시코르스타필드,,G2,소매,G215,의약·화장품 소매,G21503,화장품 소매업,G47813,"화장품, 비누 및 방향제 소매업",41,경기도,41281,고양시 덕양구,41281580,창릉동,4128111200,동산동,4.12811E+18,1,대지,370,null,경기도 고양시 덕양구 동산동 370,4.12812E+11,경기도 고양시 덕양구 고양대로,1955,null,4.12811E+24,스타필드고양,경기도 고양시 덕양구 고양대로 1955,412090,10595,,2,,126.8947932,37.6468764
MA010120220805439486,뒤풀이노래연습장,,R1,예술·스포츠,R104,유원지·오락,R10407,노래방,R91223,노래 연습장 운영업,41,경기도,41590,화성시,41590253,봉담읍,4159025324,봉담읍,4.15903E+18,1,대지,599,3,경기도 화성시 봉담읍 동화리 599-3,4.15904E+11,경기도 화성시 봉담읍 동화길,89,null,4.15903E+24,,경기도 화성시 봉담읍 동화길 89,445893,18302,,,,126.9586747,37.21670586
MA010120220805439491,웰빙마트,,G2,소매,G204,종합 소매,G20404,슈퍼마켓,G47121,슈퍼마켓,41,경기도,41190,부천시,41190610,중동,4119010800,중동,4.11901E+18,1,대지,772,null,경기도 부천시 중동 772,4.11903E+11,경기도 부천시 중동로,148,null,4.11951E+24,,경기도 부천시 중동로 148,420845,14609,,1,,126.767111,37.49290549
MA010120220805440310,할머니밥상,,I2,음식,I201,한식,I20101,백반/한정식,I56111,한식 일반 음식점업,41,경기도,41590,화성시,41590340,송산면,4159034021,송산면,4.15903E+18,1,대지,670,3,경기도 화성시 송산면 사강리 670-3,4.15904E+11,경기도 화성시 송산면 사강시장길43번길,2,null,4.15903E+24,,경기도 화성시 송산면 사강시장길43번길 2,445874,18550,,,,126.7345715,37.21354139
MA010120220805439684,떡볶이의대부,,I2,음식,I210,기타 간이,I21007,김밥/만두/분식,I56194,김밥 및 기타 간이 음식점업,41,경기도,41461,용인시 처인구,41461510,중앙동,4146110100,김량장동,4.14611E+18,1,대지,254,138,경기도 용인시 처인구 김량장동 254-138,4.14613E+11,경기도 용인시 처인구 금령로,59,null,4.14611E+24,,경기도 용인시 처인구 금령로 59,449925,17052,,1,,127.2029795,37.23504696
MA010120220805439735,승텔레콤,,G2,소매,G208,가전·통신 소매,G20802,핸드폰 소매업,G47312,통신기기 소매업,41,경기도,41210,광명시,41210633,하안3동,4121010300,하안동,4.12101E+18,1,대지,38,null,경기도 광명시 하안동 38,4.12104E+11,경기도 광명시 하안로287번길,8,null,4.12101E+24,뉴코아아울렛,경기도 광명시 하안로287번길 8,423063,14305,,1,,126.8798757,37.46120341
MA010120220805440323,판교하늘공인중개사사무소,,L1,부동산,L102,부동산 서비스,L10203,부동산 중개/대리업,L68221,부동산 중개 및 대리업,41,경기도,41135,성남시 분당구,41135650,판교동,4113510800,판교동,4.11351E+18,1,대지,586,6,경기도 성남시 분당구 판교동 586-6,4.11355E+11,경기도 성남시 분당구 판교공원로2길,36,2,4.11351E+24,,경기도 성남시 분당구 판교공원로2길 36-2,463410,13477,,,,127.0938313,37.38906893
MA010120220805440326,빛나는네일,,S2,수리·개인,S207,이용·미용,S20703,네일숍,S96119,기타 미용업,41,경기도,41220,평택시,41220590,신평동,4122011300,평택동,4.12201E+18,1,대지,72,1,경기도 평택시 평택동 72-1,4.12204E+11,경기도 평택시 평택로75번길,2,null,4.12201E+24,,경기도 평택시 평택로75번길 2,450827,17918,,1,,127.0847494,36.99359414
MA010120220805439622,한국천기권의료기,,G2,소매,G215,의약·화장품 소매,G21502,의료기기 소매업,G47812,의료용 기구 소매업,41,경기도,41670,여주시,41670520,중앙동,4167010700,하동,4.16701E+18,1,대지,272,null,경기도 여주시 하동 272,4.16704E+11,경기도 여주시 청심로132번길,16,null,4.17303E+24,,경기도 여주시 청심로132번길 16,469107,12622,,2,,127.6341564,37.29714235
MA010120220805439997,한상,,I2,음식,I201,한식,I20101,백반/한정식,I56111,한식 일반 음식점업,41,경기도,41113,수원시 권선구,41113664,호매실동,4111313500,호매실동,4.11131E+18,1,대지,666,2,경기도 수원시 권선구 호매실동 666-2,4.11134E+11,경기도 수원시 권선구 칠보로88번길,50,null,4.11131E+24,,경기도 수원시 권선구 칠보로88번길 50,441884,16386,,1,,126.9471444,37.2648031
MA010120220805440046,고봉민김밥인의왕서해그랑블점,,I2,음식,I210,기타 간이,I21007,김밥/만두/분식,I56194,김밥 및 기타 간이 음식점업,41,경기도,41430,의왕시,41430530,오전동,4143010500,오전동,4.14301E+18,1,대지,892,null,경기도 의왕시 오전동 892,4.14302E+11,경기도 의왕시 경수대로,262,null,4.14301E+24,의왕서해그랑블(블루스퀘어),경기도 의왕시 경수대로 262,437070,16058,,1,,126.9731708,37.3506703
MA010120220805439566,애견카페하루,,I2,음식,I212,비알코올 ,I21201,카페,I56221,커피 전문점,41,경기도,41480,파주시,41480560,운정2동,4148011700,목동동,4.14801E+18,1,대지,941,1,경기도 파주시 목동동 941-1,4.14803E+11,경기도 파주시 교하로,87,null,4.14801E+24,,경기도 파주시 교하로 87,413110,10892,,2,,126.7339061,37.72762013
MA010120220805439808,오목천삼겹살,,I2,음식,I201,한식,I20107,돼지고기 구이/찜,I56113,한식 육류 요리 전문점,41,경기도,41113,수원시 권선구,41113550,평동,4111312900,오목천동,4.11131E+18,1,대지,314,17,경기도 수원시 권선구 오목천동 314-17,4.11134E+11,경기도 수원시 권선구 삼천병마로1598번길,40,null,4.11131E+24,,경기도 수원시 권선구 삼천병마로1598번길 40,441849,16635,,1,,126.9656443,37.24592621
MA010120220805439626,맥주생각,,I2,음식,I211,주점,I21103,생맥주 전문,I56213,생맥주 전문점,41,경기도,41273,안산시 단원구,41273600,선부3동,4127310900,선부동,4.12731E+18,1,대지,1076,15,경기도 안산시 단원구 선부동 1076-15,4.12733E+11,경기도 안산시 단원구 선부광장로,37,null,4.12731E+24,진주프라자,경기도 안산시 단원구 선부광장로 37,425831,15239,,,,126.8112914,37.33571951
MA010120220805439628,대덕건어물,,G2,소매,G205,식료품 소매,G20504,건어물/젓갈 소매업,G47213,건어물 및 젓갈류 소매업,41,경기도,41390,시흥시,41390593,정왕3동,4139013200,정왕동,4.13901E+18,1,대지,1977,3,경기도 시흥시 정왕동 1977-3,4.13903E+11,경기도 시흥시 오이도중앙로,8,1,4.13901E+24,,경기도 시흥시 오이도중앙로 8-1,429867,15015,,2,,126.6904448,37.34740064
MA010120220805439629,현대153공인중개사사무소,,L1,부동산,L102,부동산 서비스,L10203,부동산 중개/대리업,L68221,부동산 중개 및 대리업,41,경기도,41463,용인시 기흥구,41463570,마북동,4146311300,마북동,4.14631E+18,1,대지,550,4,경기도 용인시 기흥구 마북동 550-4,4.14633E+11,경기도 용인시 기흥구 연원로,60,null,4.14631E+24,연원마을현대아이파크,경기도 용인시 기흥구 연원로 60,446937,16908,,1,,127.1120932,37.30270343
MA010120220805439871,한강서울치과,,Q1,보건의료,Q102,의원,Q10210,치과의원,Q86202,치과의원,41,경기도,41570,김포시,41570525,장기본동,4157010400,장기동,4.15701E+18,1,대지,1886,7,경기도 김포시 장기동 1886-7,4.15703E+11,경기도 김포시 김포한강2로,220,null,4.15701E+24,그린프라자,경기도 김포시 김포한강2로 220,415060,10083,,4,,126.6612795,37.64520533
MA010120220805440059,핵스테이크LF스퀘어양주점,,I2,음식,I204,서양식,I20403,패밀리레스토랑,I56123,서양식 음식점업,41,경기도,41630,양주시,41630540,회천2동,4163011700,회정동,4.16301E+18,1,대지,453,19,경기도 양주시 회정동 453-19,4.16303E+11,경기도 양주시 평화로,1593,null,4.16301E+24,LF스퀘어양주점,경기도 양주시 평화로 1593,482170,11439,,4,,127.052267,37.83138808
MA010120220805439821,하하세탁소,,S2,수리·개인,S209,세탁,S20901,세탁소,S96912,가정용 세탁업,41,경기도,41590,화성시,41590520,진안동,4159011600,진안동,4.15901E+18,1,대지,922,1,경기도 화성시 진안동 922-1,4.15904E+11,경기도 화성시 병점중앙로242번길,15,16,4.15901E+24,,경기도 화성시 병점중앙로242번길 15-16,445390,18389,,1,,127.0365735,37.21951873
MA010120220805440129,공인회계사세무사노광섭사무소,,M1,과학·기술,M104,회계·세무,M10401,공인회계사,M71201,공인회계사업,41,경기도,41500,이천시,41500515,증포동,4150010700,안흥동,4.15001E+18,1,대지,119,2,경기도 이천시 안흥동 119-2,4.15003E+11,경기도 이천시 구만리로,303,null,4.15001E+24,,경기도 이천시 구만리로 303,467802,17350,,3,,127.4645455,37.27987109
MA010120220805439504,릴리제이,,M1,과학·기술,M112,전문 디자인,M11203,시각 디자인업,M73203,시각 디자인업,41,경기도,41171,안양시 만안구,41171570,안양7동,4117110100,안양동,4.11711E+18,1,대지,1432,null,경기도 안양시 만안구 안양동 1432,4.11714E+11,경기도 안양시 만안구 덕천로152번길,25,null,4.11711E+24,안양아이에스BIZ타워센트럴,경기도 안양시 만안구 덕천로152번길 25,430017,14084,,,,126.9382973,37.39288381
MA010120220805440337,굿타임인테리어,,M1,과학·기술,M112,전문 디자인,M11201,인테리어 디자인업,F42412,"도배, 실내 장식 및 내장 목공사업",41,경기도,41360,남양주시,41360250,와부읍,4136025022,와부읍,4.13603E+18,1,대지,1054,11,경기도 남양주시 와부읍 도곡리 1054-11,4.13605E+11,경기도 남양주시 와부읍 도곡길,45,7,4.13603E+24,,경기도 남양주시 와부읍 도곡길 45-7,472908,12269,,,,127.2262286,37.57892763
MA010120220805440011,오리총재,,I2,음식,I205,동남아시아,I20501,베트남식 전문,I56129,기타 외국식 음식점업,41,경기도,41131,성남시 수정구,41131580,수진2동,4113110300,수진동,4.11311E+18,1,대지,2955,null,경기도 성남시 수정구 수진동 2955,4.11313E+11,경기도 성남시 수정구 수정남로,27,null,4.11311E+24,,경기도 성남시 수정구 수정남로 27,461872,13316,,1,,127.130985,37.43992511
MA010120220805440160,그린푸드,,I2,음식,I201,한식,I20107,돼지고기 구이/찜,I56113,한식 육류 요리 전문점,41,경기도,41463,용인시 기흥구,41463590,보정동,4146311800,보정동,4.14631E+18,1,대지,1181,1,경기도 용인시 기흥구 보정동 1181-1,4.14634E+11,경기도 용인시 기흥구 죽전로15번길,19,11,4.14631E+24,,경기도 용인시 기흥구 죽전로15번길 19-11,446857,16897,,1,,127.1094267,37.32220998
MA010120220805440163,안중승부공인중개사사무소,,L1,부동산,L102,부동산 서비스,L10203,부동산 중개/대리업,L68221,부동산 중개 및 대리업,41,경기도,41220,평택시,41220253,안중읍,4122025329,안중읍,4.12203E+18,1,대지,135,null,경기도 평택시 안중읍 송담리 135,4.12203E+11,경기도 평택시 안중읍 현덕로,32,null,4.12203E+24,,경기도 평택시 안중읍 현덕로 32,451881,17942,,,,126.9389513,36.97916996
MA010120220805439581,뉴발리노래주점,,I2,음식,I211,주점,I21101,일반 유흥 주점,I56211,일반 유흥 주점업,41,경기도,41220,평택시,41220250,팽성읍,4122025041,팽성읍,4.12203E+18,1,대지,169,31,경기도 평택시 팽성읍 안정리 169-31,4.12204E+11,경기도 평택시 팽성읍 안정로29번길,10,null,4.12203E+24,,경기도 평택시 팽성읍 안정로29번길 10,451807,17983,,1,,127.0471877,36.95983947
MA010120220805440207,응응스크르수지,,G2,소매,G204,종합 소매,G20405,편의점,G47216,"빵류, 과자류 및 당류 소매업",41,경기도,41465,용인시 수지구,41465560,동천동,4146510300,동천동,4.14651E+18,1,대지,282,7,경기도 용인시 수지구 동천동 282-7,4.14653E+11,경기도 용인시 수지구 수풍로,95,null,4.14651E+24,정원빌딩,경기도 용인시 수지구 수풍로 95,448500,16821,,1,,127.0933066,37.33226982
MA010120220805440273,신성애드컴,,M1,과학·기술,M105,광고,M10504,광고물 설계/제작업,M71393,"광고물 문안, 도안, 설계 등 작성업",41,경기도,41210,광명시,41210655,일직동,4121010600,일직동,4.12101E+18,1,대지,501,4,경기도 광명시 일직동 501-4,4.12105E+11,경기도 광명시 덕안로104번길,17,null,4.12101E+24,,경기도 광명시 덕안로104번길 17,423090,14353,,16,,126.8870478,37.42420186
MA010120220805439513,킹노래방,,I2,음식,I211,주점,I21104,요리 주점,I56219,기타 주점업,41,경기도,41570,김포시,41570250,통진읍,4157025022,통진읍,4.15703E+18,1,대지,110,5,경기도 김포시 통진읍 마송리 110-5,4.15704E+11,경기도 김포시 통진읍 김포대로2244번길,42,null,4.15703E+24,,경기도 김포시 통진읍 김포대로2244번길 42,415866,10019,,,,126.597934,37.69182566
MA010120220805439451,말랑테이블,,P1,교육,P106,기타 교육,P10629,그 외 기타 교육기관,P85699,그 외 기타 분류 안된 교육기관,41,경기도,41463,용인시 기흥구,41463535,보라동,4146310500,보라동,4.14631E+18,1,대지,167,null,경기도 용인시 기흥구 보라동 167,4.14634E+11,경기도 용인시 기흥구 사은로126번길,29,1,4.14631E+24,"이지골프연습장,만도자동차공업사",경기도 용인시 기흥구 사은로126번길 29-1,446904,17079,,1,,127.1213076,37.25432036
MA010120220805439517,레바아이카페,,I2,음식,I212,비알코올 ,I21201,카페,I56221,커피 전문점,41,경기도,41590,화성시,41590585,동탄1동,4159012700,반송동,4.15901E+18,1,대지,86,4,경기도 화성시 반송동 86-4,4.15903E+11,경기도 화성시 동탄원천로,163,null,4.15901E+24,위너스타,경기도 화성시 동탄원천로 163,445160,18453,,,,127.0736685,37.20736145
MA010120220805439518,스캔들노래클럽,,I2,음식,I211,주점,I21101,일반 유흥 주점,I56211,일반 유흥 주점업,41,경기도,41190,부천시,41190830,오정동,4119012000,원종동,4.11901E+18,1,대지,277,10,경기도 부천시 원종동 277-10,4.11903E+11,경기도 부천시 원종로,51,null,4.11991E+24,원종동277-10제2종근린생활시설,경기도 부천시 원종로 51,421819,14420,,2,,126.8055234,37.52424173
MA010120220805439664,루아담,,S2,수리·개인,S207,이용·미용,S20701,미용실,S96112,두발 미용업,41,경기도,41135,성남시 분당구,41135550,정자1동,4113510300,정자동,4.11351E+18,1,대지,155,2,경기도 성남시 분당구 정자동 155-2,4.11353E+11,경기도 성남시 분당구 정자로,13,null,4.11351E+24,월드비터,경기도 성남시 분당구 정자로 13,463834,13558,,2,,127.106306,37.3637174
MA010120220805440348,에스피씨방,,R1,예술·스포츠,R104,유원지·오락,R10406,PC방,R91222,컴퓨터 게임방 운영업,41,경기도,41173,안양시 동안구,41173560,관양2동,4117310200,관양동,4.11731E+18,1,대지,1473,5,경기도 안양시 동안구 관양동 1473-5,4.11732E+11,경기도 안양시 동안구 관악대로,430,null,4.11731E+24,,경기도 안양시 동안구 관악대로 430,431808,13948,,2,,126.9706407,37.4045052
MA010120220805439711,궁채고양,,I2,음식,I201,한식,I20101,백반/한정식,I56111,한식 일반 음식점업,41,경기도,41285,고양시 일산동구,41285551,백석1동,4128510600,백석동,4.12851E+18,1,대지,1242,null,경기도 고양시 일산동구 백석동 1242,4.12853E+11,경기도 고양시 일산동구 중앙로,1036,null,4.12851E+24,베스트고양터미널,경기도 고양시 일산동구 중앙로 1036,410816,10450,,1,,126.7896391,37.64316834
MA010120220805439916,도깨비공인중개사,,L1,부동산,L102,부동산 서비스,L10203,부동산 중개/대리업,L68221,부동산 중개 및 대리업,41,경기도,41610,광주시,41610510,경안동,4161010100,경안동,4.16101E+18,1,대지,193,18,경기도 광주시 경안동 193-18,4.16103E+11,경기도 광주시 경안로,116,null,4.16101E+24,,경기도 광주시 경안로 116,464803,12763,,,,127.2490778,37.40702496
MA010120220805440288,이지,,G2,소매,G209,섬유·의복·신발 소매,G20905,기타 의류 소매업,G47414,셔츠 및 블라우스 소매업,41,경기도,41190,부천시,41190606,부천동,4119010100,원미동,4.11901E+18,1,대지,96,10,경기도 부천시 원미동 96-10,4.11904E+11,경기도 부천시 조종로49번길,20,1,4.11951E+24,,경기도 부천시 조종로49번길 20-1,420803,14568,,1,,126.7906885,37.49361775
MA010120220805440230,스터닝개러지분당,,S2,수리·개인,S203,자동차 수리·세차,S20302,자동차 세차장,S95213,자동차 세차업,41,경기도,41135,성남시 분당구,41135580,서현1동,4113510500,서현동,4.11351E+18,1,대지,79,6,경기도 성남시 분당구 서현동 79-6,4.11354E+11,경기도 성남시 분당구 서현로237번길,28,null,4.11351E+24,,경기도 성남시 분당구 서현로237번길 28,463820,13572,,,,127.1301374,37.38522364
MA010120220805439529,마운틴칼라,,M1,과학·기술,M113,사진 촬영,M11301,사진촬영업,M73301,인물 사진 및 행사용 영상 촬영업,41,경기도,41830,양평군,41830310,강상면,4183031026,강상면,4.18303E+18,1,대지,410,15,경기도 양평군 강상면 세월리 410-15,4.18304E+11,경기도 양평군 강상면 반딧불이길,8,4,4.18303E+24,,경기도 양평군 강상면 반딧불이길 8-4,476912,12573,,,,127.4900227,37.43462157
MA010120220805439470,케이엠아트,,M1,과학·기술,M107,본사·경영 컨설팅,M10703,경영 컨설팅업,M71531,경영 컨설팅업,41,경기도,41450,하남시,41450620,미사2동,4145010900,망월동,4.14501E+18,1,대지,834,null,경기도 하남시 망월동 834,4.14503E+11,경기도 하남시 미사강변한강로,135,null,4.14501E+24,,경기도 하남시 미사강변한강로 135,465150,12902,,,,127.1917675,37.57664232
MA010120220805439715,이안건축사사무소,,M1,과학·기술,M109,기술 서비스,M10901,건축 설계 및 관련 서비스업,M72111,건축 설계 및 관련 서비스업,41,경기도,41590,화성시,41590520,진안동,4159011600,진안동,4.15901E+18,1,대지,885,1,경기도 화성시 진안동 885-1,4.15903E+11,경기도 화성시 병점로,47,2,4.15901E+24,,경기도 화성시 병점로 47-2,445390,18404,,3,,127.0395857,37.21122606
MA010120220805439537,커피컬쳐,,I2,음식,I212,비알코올 ,I21201,카페,I56221,커피 전문점,41,경기도,41550,안성시,41550510,안성1동,4155010800,옥천동,4.15501E+18,1,대지,1,13,경기도 안성시 옥천동 1-13,4.15503E+11,경기도 안성시 강변로,137,1,4.15501E+24,,경기도 안성시 강변로 137-1,456100,17594,,2,,127.2772532,37.00377155
MA010120220805439539,에이씨블루,,I2,음식,I211,주점,I21104,요리 주점,I56219,기타 주점업,41,경기도,41285,고양시 일산동구,41285590,장항2동,4128510400,장항동,4.12851E+18,1,대지,753,null,경기도 고양시 일산동구 장항동 753,4.12853E+11,경기도 고양시 일산동구 호수로,640,null,4.12851E+24,청원레이크빌,경기도 고양시 일산동구 호수로 640,410837,10401,,2,,126.7673235,37.65922757
MA010120220805439779,영성네트웍크,,N1,시설관리·임대,N107,사무 지원,N10799,기타 사무 지원 서비스업,N75919,기타 사무 지원 서비스업,41,경기도,41115,수원시 팔달구,41115660,매산동,4111513600,매산로3가,4.11151E+18,1,대지,16,5,경기도 수원시 팔달구 매산로3가 16-5,4.11153E+11,경기도 수원시 팔달구 효원로,29,null,4.11151E+24,,경기도 수원시 팔달구 효원로 29,442849,16457,,,,127.0091976,37.27085335
MA010120220805440363,쿨아트,,G2,소매,G208,가전·통신 소매,G20803,가전제품 소매업,G47320,가전제품 소매업,41,경기도,41650,포천시,41650310,군내면,4165031026,군내면,4.16503E+18,1,대지,561,5,경기도 포천시 군내면 직두리 561-5,4.16503E+11,경기도 포천시 군내면 청군로,3099,null,4.16503E+24,,경기도 포천시 군내면 청군로 3099,487877,11155,,,,127.2298712,37.87500394
MA010120220805439970,호텔마리,,I1,숙박,I101,일반 숙박,I10102,여관/모텔,I55102,여관업,41,경기도,41461,용인시 처인구,41461360,양지면,4146136021,양지면,4.14614E+18,1,대지,138,42,경기도 용인시 처인구 양지면 양지리 138-42,4.14613E+11,경기도 용인시 처인구 양지면 남평로,73,5,4.14614E+24,모텔황태자,경기도 용인시 처인구 양지면 남평로 73-5,449825,17161,,,,127.2919912,37.2289173
MA010120220805439787,명인만두,,I2,음식,I210,기타 간이,I21007,김밥/만두/분식,I56194,김밥 및 기타 간이 음식점업,41,경기도,41131,성남시 수정구,41131510,신흥1동,4113110100,신흥동,4.11311E+18,1,대지,5493,1,경기도 성남시 수정구 신흥동 5493-1,4.11313E+11,경기도 성남시 수정구 수정로,202,null,4.11311E+24,한영빌딩,경기도 성남시 수정구 수정로 202,461864,13338,,1,,127.1422637,37.44382804
MA010120220805440032,지에스25고산,,G2,소매,G204,종합 소매,G20405,편의점,G47122,체인화 편의점,41,경기도,41150,의정부시,41150573,송산1동,4115011300,산곡동,4.11501E+18,1,대지,676,null,경기도 의정부시 산곡동 676,4.11503E+11,경기도 의정부시 서광로,169,null,4.11501E+24,대광로제비앙더퍼스트,경기도 의정부시 서광로 169,480040,11800,,1,,127.110431,37.7318738
MA010120220805440371,스피드메이트목련점,,S2,수리·개인,S203,자동차 수리·세차,S20301,자동차 정비소,S95212,자동차 전문 수리업,41,경기도,41171,안양시 만안구,41171600,석수2동,4117110200,석수동,4.11711E+18,1,대지,319,3,경기도 안양시 만안구 석수동 319-3,4.11713E+11,경기도 안양시 만안구 안양로,479,null,4.11711E+24,,경기도 안양시 만안구 안양로 479,430805,13969,,,,126.9098171,37.41225877
MA010120220805439977,전곱둔전점,,I2,음식,I201,한식,I20107,돼지고기 구이/찜,I56113,한식 육류 요리 전문점,41,경기도,41461,용인시 처인구,41461250,포곡읍,4146125023,포곡읍,4.14613E+18,1,대지,151,10,경기도 용인시 처인구 포곡읍 둔전리 151-10,4.14614E+11,경기도 용인시 처인구 포곡읍 포곡로108번길,5,null,4.14613E+24,,경기도 용인시 처인구 포곡읍 포곡로108번길 5,449812,17027,,,,127.2180474,37.26886673
MA010120220805440305,이원에스피,,M1,과학·기술,M114,인쇄·제품제작,M11401,명함/간판/광고물 제작,C33910,간판 및 광고물 제조업,41,경기도,41285,고양시 일산동구,41285590,장항2동,4128510400,장항동,4.12851E+18,1,대지,746,1,경기도 고양시 일산동구 장항동 746-1,4.12853E+11,경기도 고양시 일산동구 무궁화로,7,45,4.12851E+24,양우로데오시티플러스,경기도 고양시 일산동구 무궁화로 7-45,410837,10364,,8,,126.7641594,37.66345624
MA010120220805439610,월드컵,,G2,소매,G209,섬유·의복·신발 소매,G20910,신발 소매업,G47430,신발 소매업,41,경기도,41250,동두천시,41250535,중앙동,4125010300,생연동,4.12501E+18,1,대지,593,9,경기도 동두천시 생연동 593-9,4.12503E+11,경기도 동두천시 중앙로,269,2,4.12501E+24,파리바게뜨,경기도 동두천시 중앙로 269-2,483801,11328,,,,127.0537714,37.90566072
MA010120220805440244,다크,,G2,소매,G212,기타 생활용품 소매,G21202,주방/가정용품 소매업,G47599,그 외 기타 분류 안된 가정용품 소매업,41,경기도,41171,안양시 만안구,41171560,안양6동,4117110100,안양동,4.11711E+18,1,대지,532,3,경기도 안양시 만안구 안양동 532-3,4.11713E+11,경기도 안양시 만안구 문예로,50,null,4.11711E+24,한림시티빌아파트,경기도 안양시 만안구 문예로 50,430824,14035,,2,,126.9331545,37.38601646
MA010120220805440154,에스더,,G2,소매,G209,섬유·의복·신발 소매,G20905,기타 의류 소매업,G47416,가죽 및 모피 의복 소매업,41,경기도,41590,화성시,41590520,진안동,4159011900,기산동,4.15901E+18,1,대지,467,null,경기도 화성시 기산동 467,4.15903E+11,경기도 화성시 동탄지성로,295,null,4.15901E+24,행복마을참누리에듀파크,경기도 화성시 동탄지성로 295,445390,18394,,3,,127.0493718,37.21964918
MA010120220805439249,로던트클럽&달콤하니냥,,G2,소매,G220,애완동물·용품 소매,G22001,애완동물/애완용품 소매업,G47852,애완용 동물 및 관련용품 소매업,41,경기도,41570,김포시,41570560,장기동,4157010400,장기동,4.15701E+18,1,대지,1446,null,경기도 김포시 장기동 1446,4.15704E+11,경기도 김포시 김포한강1로78번길,62,26,4.15701E+24,,경기도 김포시 김포한강1로78번길 62-26,415060,10079,,1,,126.6718796,37.64299155
MA010120220805438566,곱분이곱창광명사거리역점,,I2,음식,I201,한식,I20109,곱창 전골/구이,I56113,한식 육류 요리 전문점,41,경기도,41210,광명시,41210580,광명7동,4121010100,광명동,4.12101E+18,1,대지,295,4,경기도 광명시 광명동 295-4,4.12103E+11,경기도 광명시 광명로,864,null,4.12101E+24,,경기도 광명시 광명로 864,423813,14268,,1,,126.8531058,37.47620134
MA010120220805438571,하이스페이서,,M1,과학·기술,M112,전문 디자인,M11201,인테리어 디자인업,J59112,애니메이션 영화 및 비디오물 제작업,41,경기도,41115,수원시 팔달구,41115730,인계동,4111514100,인계동,4.11151E+18,1,대지,1035,5,경기도 수원시 팔달구 인계동 1035-5,4.11153E+11,경기도 수원시 팔달구 인계로,120,null,4.11151E+24,스마트타워,경기도 수원시 팔달구 인계로 120,442834,16489,,15,,127.0306782,37.26722858
MA010120220805440404,소담비빔국수,,I2,음식,I201,한식,I20105,국수/칼국수,I56112,한식 면 요리 전문점,41,경기도,41590,화성시,41590259,향남읍,4159025925,향남읍,4.15903E+18,1,대지,924,7,경기도 화성시 향남읍 구문천리 924-7,4.15903E+11,경기도 화성시 향남읍 발안공단로,96,null,4.15903E+24,,경기도 화성시 향남읍 발안공단로 96,445922,18623,,1,,126.9088157,37.08682335
MA010120220805438512,한신목욕탕,,S2,수리·개인,S208,욕탕·신체관리,S20801,목욕탕/사우나,S96121,욕탕업,41,경기도,41131,성남시 수정구,41131530,신흥3동,4113110100,신흥동,4.11311E+18,1,대지,2542,null,경기도 성남시 수정구 신흥동 2542,4.11314E+11,경기도 성남시 수정구 공원로333번길,10,null,4.11311E+24,,경기도 성남시 수정구 공원로333번길 10,461811,13354,,,,127.1501757,37.44273182
MA010120220805438514,이쁘지오스킨앤바디,,S2,수리·개인,S207,이용·미용,S20702,피부 관리실,S96113,피부 미용업,41,경기도,41630,양주시,41630540,회천2동,4163011600,덕계동,4.16301E+18,1,대지,475,1,경기도 양주시 덕계동 475-1,4.16304E+11,경기도 양주시 평화로1475번길,7,null,4.16301E+24,,경기도 양주시 평화로1475번길 7,482050,11443,,2,,127.0483793,37.82186011
