상가업소번호,상호명,지점명,상권업종대분류코드,상권업종대분류명,상권업종중분류코드,상권업종중분류명,상권업종소분류코드,상권업종소분류명,표준산업분류코드,표준산업분류명,시도코드,시도명,시군구코드,시군구명,행정동코드,행정동명,법정동코드,법정동명,지번코드,대지구분코드,대지구분명,지번본번지,지번부번지,지번주소,도로명코드,도로명,건물본번지,건물부번지,건물관리번호,건물명,도로명주소,구우편번호,신우편번호,동정보,층정보,호정보,경도,위도
MA0101202210A0067829,오버랩,,M1,과학·기술,M105,광고,M10599,기타 광고 관련 서비스업,M71399,그 외 기타 광고 관련 서비스업,46,전라남도,46110,목포시,46110757,하당동,4611015800,상동,4.61102E+18,1,대지,823,9,전라남도 목포시 상동 823-9,4.61103E+11,전라남도 목포시 교육로,97,null,4.61102E+24,영동오피스텔,전라남도 목포시 교육로 97,530822,58667,,null,,126.418084,34.80530211
MA010120220805430921,귀농귀촌체험민박,,I1,숙박,I101,일반 숙박,I10103,펜션,I55104,민박업,46,전라남도,46800,장흥군,46800253,관산읍,4680025326,관산읍,4.68003E+18,1,대지,817,1,전라남도 장흥군 관산읍 옥당리 817-1,4.68005E+11,전라남도 장흥군 관산읍 옥당신촌길,27,15,4.68003E+24,,전라남도 장흥군 관산읍 옥당신촌길 27-15,529875,59346,,null,,126.9268005,34.56547528
MA010120220805431025,피오나킴헤어,,S2,수리·개인,S207,이용·미용,S20701,미용실,S96112,두발 미용업,46,전라남도,46110,목포시,46110558,원산동,4611010300,연산동,4.61101E+18,1,대지,1269,6,전라남도 목포시 연산동 1269-6,4.61105E+11,전라남도 목포시 원산로145번길,8,null,4.61101E+24,,전라남도 목포시 원산로145번길 8,530460,58633,,1,,126.3817996,34.81106245
MA010120220805431454,고기목장,,I2,음식,I201,한식,I20107,돼지고기 구이/찜,I56113,한식 육류 요리 전문점,46,전라남도,46110,목포시,46110510,용당1동,4611010100,용당동,4.61101E+18,1,대지,1088,4,전라남도 목포시 용당동 1088-4,4.61103E+11,전라남도 목포시 영산로,321,null,4.61101E+24,,전라남도 목포시 영산로 321,530836,58651,,1,,126.4006614,34.80603882
MA010120220805431729,순천만예랑펜션,,I1,숙박,I101,일반 숙박,I10103,펜션,I55109,기타 일반 및 생활 숙박시설 운영업,46,전라남도,46150,순천시,46150310,해룡면,4615031035,해룡면,4.61503E+18,1,대지,504,null,전라남도 순천시 해룡면 선학리 504,4.61503E+11,전라남도 순천시 해룡면 해룡로,684,13,4.61503E+24,예랑찻집,전라남도 순천시 해룡면 해룡로 684-13,540854,58025,,null,,127.5287801,34.88259891
MA010120220805431781,일성이용원,,S2,수리·개인,S207,이용·미용,S20701,미용실,S96111,이용업,46,전라남도,46720,곡성군,46720330,석곡면,4672033021,석곡면,4.67203E+18,1,대지,169,5,전라남도 곡성군 석곡면 석곡리 169-5,4.67203E+11,전라남도 곡성군 석곡면 강변로,18,null,4.67203E+24,,전라남도 곡성군 석곡면 강변로 18,516851,57559,,null,,127.2552881,35.13084037
MA010120220805431912,카페달빛여수,,I2,음식,I212,비알코올 ,I21201,카페,I56221,커피 전문점,46,전라남도,46130,여수시,46130570,중앙동,4613010500,고소동,4.61301E+18,1,대지,571,null,전라남도 여수시 고소동 571,4.61305E+11,전라남도 여수시 고소3길,22,1,4.61301E+24,,전라남도 여수시 고소3길 22-1,550060,59738,,3,,127.738125,34.73986559
MA010120220805431921,헤어공감,,S2,수리·개인,S207,이용·미용,S20701,미용실,S96112,두발 미용업,46,전라남도,46870,영광군,46870256,홍농읍,4687025621,홍농읍,4.68703E+18,1,대지,171,3,전라남도 영광군 홍농읍 상하리 171-3,4.68703E+11,전라남도 영광군 홍농읍 홍농로,457,11,4.68703E+24,,전라남도 영광군 홍농읍 홍농로 457-11,513884,57004,,1,,126.4459805,35.39542628
MA010120220805432073,목포다찌,,I2,음식,I201,한식,I20101,백반/한정식,I56111,한식 일반 음식점업,46,전라남도,46110,목포시,46110558,원산동,4611010200,산정동,4.61101E+18,1,대지,1779,11,전라남도 목포시 산정동 1779-11,4.61103E+11,전라남도 목포시 원산로,68,null,4.61101E+24,,전라남도 목포시 원산로 68,530820,58640,,1,,126.3763282,34.8052929
MA010120220805432228,예울,,I2,음식,I201,한식,I20101,백반/한정식,I56111,한식 일반 음식점업,46,전라남도,46130,여수시,46130790,시전동,4613013300,신기동,4.61301E+18,1,대지,73,12,전라남도 여수시 신기동 73-12,4.61305E+11,전라남도 여수시 시전6길,20,null,4.61301E+24,,전라남도 여수시 시전6길 20,555803,59685,,null,,127.6734902,34.76062429
MA010120220805434429,빨강머리앤종합화장품,,G2,소매,G215,의약·화장품 소매,G21503,화장품 소매업,G47813,"화장품, 비누 및 방향제 소매업",46,전라남도,46830,영암군,46830253,삼호읍,4683025326,삼호읍,4.68303E+18,1,대지,285,3,전라남도 영암군 삼호읍 용앙리 285-3,4.68305E+11,전라남도 영암군 삼호읍 중앙촌길,22,null,4.68303E+24,,전라남도 영암군 삼호읍 중앙촌길 22,526897,58458,,1,,126.4689455,34.74665039
MA010120220805434220,아리랑민박,,I1,숙박,I101,일반 숙박,I10103,펜션,I55104,민박업,46,전라남도,46900,진도군,46900310,군내면,4690031024,군내면,4.69003E+18,1,대지,1,34,전라남도 진도군 군내면 둔전리 1-34,4.69003E+11,전라남도 진도군 군내면 명량대첩로,121,null,4.69003E+24,,전라남도 진도군 군내면 명량대첩로 121,539822,58900,,null,,126.3086694,34.56138729
MA010120220805434299,정원고시텔,,I1,숙박,I102,기타 숙박,I10201,기숙사/고시원,I55901,기숙사 및 고시원 운영업,46,전라남도,46150,순천시,46150635,도사동,4615012700,덕월동,4.61501E+18,1,대지,483,null,전라남도 순천시 덕월동 483,4.61503E+11,전라남도 순천시 우석로,75,null,4.61501E+24,,전라남도 순천시 우석로 75,540944,57997,,null,,127.4887531,34.9353895
MA010120220805434035,아름다운방,,G2,소매,G209,섬유·의복·신발 소매,G20906,침구류/커튼 소매업,G47421,가정용 직물제품 소매업,46,전라남도,46830,영암군,46830253,삼호읍,4683025326,삼호읍,4.68303E+18,1,대지,1681,1,전라남도 영암군 삼호읍 용앙리 1681-1,4.68303E+11,전라남도 영암군 삼호읍 대불주거5로,5,null,4.68303E+24,,전라남도 영암군 삼호읍 대불주거5로 5,526897,58456,,1,,126.4563752,34.75432477
MA010120220805434245,팔영산편백치유의숲매점,,G2,소매,G204,종합 소매,G20404,슈퍼마켓,G47129,기타 음ㆍ식료품 위주 종합 소매업,46,전라남도,46770,고흥군,46770440,영남면,4677044022,영남면,4.67704E+18,2,산,37,60,전라남도 고흥군 영남면 금사리 산37-60,4.67703E+11,전라남도 고흥군 영남면 천사로,529,191,4.67704E+24,,전라남도 고흥군 영남면 천사로 529-191,548821,59520,,null,,127.4099162,34.61920606
MA010120220805433672,제이브루,,I2,음식,I212,비알코올 ,I21201,카페,I56221,커피 전문점,46,전라남도,46230,광양시,46230250,광양읍,4623025023,광양읍,4.62303E+18,1,대지,898,9,전라남도 광양시 광양읍 칠성리 898-9,4.62305E+11,전라남도 광양시 광양읍 호북길,3,16,4.62303E+24,,전라남도 광양시 광양읍 호북길 3-16,545808,57741,,1,,127.583172,34.97997604
MA010120220805433985,큰손슈퍼,,G2,소매,G204,종합 소매,G20404,슈퍼마켓,G47129,기타 음ㆍ식료품 위주 종합 소매업,46,전라남도,46800,장흥군,46800250,장흥읍,4680025021,장흥읍,4.68003E+18,1,대지,279,null,전라남도 장흥군 장흥읍 동동리 279,4.68003E+11,전라남도 장흥군 장흥읍 읍성로,125,null,4.68003E+24,,전라남도 장흥군 장흥읍 읍성로 125,529804,59330,,null,,126.8984858,34.67878964
MA010120220805434159,어울림당구장,,R1,예술·스포츠,R103,스포츠 서비스,R10310,당구장,R91135,당구장 운영업,46,전라남도,46110,목포시,46110756,상동,4611015800,상동,4.61102E+18,1,대지,251,5,전라남도 목포시 상동 251-5,4.61105E+11,전라남도 목포시 텃골로13번길,70,null,4.61102E+24,,전라남도 목포시 텃골로13번길 70,530822,58616,,3,,126.418641,34.81675682
MA010120220805434410,아시아마트,,G2,소매,G204,종합 소매,G20404,슈퍼마켓,G47129,기타 음ㆍ식료품 위주 종합 소매업,46,전라남도,46870,영광군,46870250,영광읍,4687025023,영광읍,4.68703E+18,1,대지,325,null,전라남도 영광군 영광읍 남천리 325,4.68705E+11,전라남도 영광군 영광읍 신남로4길,7,null,4.68703E+24,,전라남도 영광군 영광읍 신남로4길 7,513803,57043,,null,,126.5040382,35.27518475
MA010120220805433641,센소리엘,,P1,교육,P107,교육 지원,P10799,기타 교육지원 서비스업,P85709,기타 교육지원 서비스업,46,전라남도,46130,여수시,46130790,시전동,4613013400,웅천동,4.61301E+18,1,대지,1880,5,전라남도 여수시 웅천동 1880-5,4.61303E+11,전라남도 여수시 웅천로,108,null,4.61301E+24,,전라남도 여수시 웅천로 108,555030,59792,,null,,127.6754004,34.74142744
MA010120220805433576,영화루,,I2,음식,I202,중식,I20201,중국집,I56121,중식 음식점업,46,전라남도,46710,담양군,46710250,담양읍,4671025022,담양읍,4.67103E+18,1,대지,4,null,전라남도 담양군 담양읍 천변리 4,4.67103E+11,전라남도 담양군 담양읍 추성로,1312,null,4.67103E+24,,전라남도 담양군 담양읍 추성로 1312,517805,57343,,null,,126.9815946,35.3197002
MA010120220805432462,"안나제이의,네일",,S2,수리·개인,S207,이용·미용,S20703,네일숍,S96119,기타 미용업,46,전라남도,46150,순천시,46150570,덕연동,4615011400,연향동,4.61501E+18,1,대지,1050,54,전라남도 순천시 연향동 1050-54,4.61503E+11,전라남도 순천시 팔마로,269,null,4.61501E+24,"이안웨딩갤러리,꿈동산어린이집,순광테크",전라남도 순천시 팔마로 269,540951,57992,,1,,127.5133391,34.93725734
MA010120220805432831,더나인PT,,R1,예술·스포츠,R103,스포츠 서비스,R10307,헬스장,R91132,체력 단련시설 운영업,46,전라남도,46110,목포시,46110757,하당동,4611016000,석현동,4.61102E+18,1,대지,1168,19,전라남도 목포시 석현동 1168-19,4.61103E+11,전라남도 목포시 옥암로,187,null,4.61102E+24,,전라남도 목포시 옥암로 187,530830,58658,,null,,126.4213466,34.81472781
MA010120220805433222,배스킨라빈스목포석현점,,I2,음식,I210,기타 간이,I21008,아이스크림/빙수,I56194,김밥 및 기타 간이 음식점업,46,전라남도,46110,목포시,46110756,상동,4611016000,석현동,4.61102E+18,1,대지,815,1,전라남도 목포시 석현동 815-1,4.61103E+11,전라남도 목포시 영산로,635,null,4.61102E+24,석현빌딩,전라남도 목포시 영산로 635,530823,58615,,1,,126.4220017,34.82220871
MA010120220805432541,공지안,,P1,교육,P106,기타 교육,P10625,기타 기술/직업 훈련학원,P85669,기타 기술 및 직업 훈련학원,46,전라남도,46110,목포시,46110554,연산동,4611010300,연산동,4.61101E+18,1,대지,1980,9,전라남도 목포시 연산동 1980-9,4.61105E+11,전라남도 목포시 연산백련로1번길,16,7,4.61101E+24,,전라남도 목포시 연산백련로1번길 16-7,530370,58763,,1,,126.3919831,34.81566827
MA010120220805432745,차차차,,R1,예술·스포츠,R104,유원지·오락,R10407,노래방,R91223,노래 연습장 운영업,46,전라남도,46910,신안군,46910250,지도읍,4691025025,지도읍,4.69103E+18,1,대지,274,11,전라남도 신안군 지도읍 읍내리 274-11,4.69105E+11,전라남도 신안군 지도읍 동촌길,73,null,4.69103E+24,,전라남도 신안군 지도읍 동촌길 73,535802,58813,,null,,126.2105904,35.06004446
MA010120220805435626,숲속의자연관광농원,,G2,소매,G204,종합 소매,G20404,슈퍼마켓,G47129,기타 음ㆍ식료품 위주 종합 소매업,46,전라남도,46130,여수시,46130570,중앙동,4613010800,교동,4.61301E+18,1,대지,539,null,전라남도 여수시 교동 539,4.61305E+11,전라남도 여수시 교동남1길,6,1,4.61301E+24,,전라남도 여수시 교동남1길 6-1,550803,59735,,1,,127.7334844,34.73964818
MA010120220805435872,문더스애드목포,,M1,과학·기술,M105,광고,M10501,광고 대행업,M71310,광고 대행업,46,전라남도,46110,목포시,46110595,목원동,4611011200,죽동,4.61101E+18,1,대지,220,null,전라남도 목포시 죽동 220,4.61105E+11,전라남도 목포시 마인계터로40번길,4,null,4.61101E+24,,전라남도 목포시 마인계터로40번길 4,530260,58727,,null,,126.3829691,34.79035546
MA010120220805436108,평림참샘물협동조합,,N1,시설관리·임대,N102,청소·방제,N10202,"산업설비, 운송장비 및 공공장소 청소업",N74212,"산업설비, 운송장비 및 공공장소 청소업",46,전라남도,46880,장성군,46880350,삼계면,4688035031,삼계면,4.68804E+18,1,대지,261,1,전라남도 장성군 삼계면 생촌리 261-1,4.68805E+11,전라남도 장성군 삼계면 생촌길,41,7,4.68804E+24,,전라남도 장성군 삼계면 생촌길 41-7,515871,57233,,1,,126.6588601,35.32312192
MA010120220805435691,새림의료재단압해생태요양병원,,Q1,보건의료,Q101,병원,Q10105,요양병원,Q86105,요양병원,46,전라남도,46910,신안군,46910253,압해읍,4691025328,압해읍,4.69103E+18,1,대지,253,1,전라남도 신안군 압해읍 대천리 253-1,4.69105E+11,전라남도 신안군 압해읍 추섬길,50,null,4.69103E+24,의료법인새림압해생태요양병원,전라남도 신안군 압해읍 추섬길 50,535814,58821,,null,,126.2874015,34.86523945
MA010120220805436158,고흥해창만바닷깨비,,I2,음식,I201,한식,I20101,백반/한정식,I56111,한식 일반 음식점업,46,전라남도,46770,고흥군,46770350,포두면,4677035032,포두면,4.67704E+18,1,대지,1161,1,전라남도 고흥군 포두면 오취리 1161-1,4.67703E+11,전라남도 고흥군 포두면 팔영로,385,null,4.67704E+24,주민복합문화센터,전라남도 고흥군 포두면 팔영로 385,548884,59523,,null,,127.393422,34.58103637
MA010120220805434785,큐브,,I2,음식,I211,주점,I21104,요리 주점,I56219,기타 주점업,46,전라남도,46150,순천시,46150661,왕조1동,4615013300,조례동,4.61501E+18,1,대지,1685,2,전라남도 순천시 조례동 1685-2,4.61503E+11,전라남도 순천시 봉화로,274,null,4.61501E+24,송스비어,전라남도 순천시 봉화로 274,540978,57949,,2,,127.5198206,34.95776442
MA010120220805435295,육회랑족발이랑,,I2,음식,I201,한식,I20103,족발/보쌈,I56111,한식 일반 음식점업,46,전라남도,46110,목포시,46110545,산정동,4611010200,산정동,4.61101E+18,1,대지,994,4,전라남도 목포시 산정동 994-4,4.61105E+11,전라남도 목포시 양을로41번길,40,null,4.61101E+24,중앙하이츠,전라남도 목포시 양을로41번길 40,530753,58640,,null,,126.3789899,34.80385915
MA010120220805435178,공간플라워,,R1,예술·스포츠,R103,스포츠 서비스,R10314,기타 스포츠시설 운영업,R91139,그 외 기타 스포츠시설 운영업,46,전라남도,46770,고흥군,46770250,고흥읍,4677025028,고흥읍,4.67703E+18,1,대지,218,34,전라남도 고흥군 고흥읍 서문리 218-34,4.67705E+11,전라남도 고흥군 고흥읍 터미널길,35,null,4.67703E+24,휴게음식점,전라남도 고흥군 고흥읍 터미널길 35,548805,59540,,1,,127.2812775,34.60843726
MA010120220805434670,커피앤스윔,,I2,음식,I212,비알코올 ,I21201,카페,I56221,커피 전문점,46,전라남도,46780,보성군,46780250,보성읍,4678025030,보성읍,4.67803E+18,1,대지,174,null,전라남도 보성군 보성읍 용문리 174,4.67805E+11,전라남도 보성군 보성읍 용문길,36,16,4.67803E+24,,전라남도 보성군 보성읍 용문길 36-16,546804,59451,,null,,127.0958564,34.77504966
MA010120220805435130,금호각,,I1,숙박,I101,일반 숙박,I10102,여관/모텔,I55102,여관업,46,전라남도,46890,완도군,46890250,완도읍,4689025021,완도읍,4.68903E+18,1,대지,1241,16,전라남도 완도군 완도읍 군내리 1241-16,4.68905E+11,전라남도 완도군 완도읍 개포로62번길,17,3,4.68903E+24,,전라남도 완도군 완도읍 개포로62번길 17-3,537800,59119,,null,,126.7464685,34.31734801
MA010120220805434814,네일트리,,S2,수리·개인,S207,이용·미용,S20703,네일숍,S96119,기타 미용업,46,전라남도,46170,나주시,46170620,빛가람동,4617013400,빛가람동,4.61701E+18,1,대지,600,null,전라남도 나주시 빛가람동 600,4.61703E+11,전라남도 나주시 그린로,153,null,4.61701E+24,대광로제비앙,전라남도 나주시 그린로 153,520350,58328,,1,,126.7832109,35.01081328
MA010120220805435366,마리네민박,,I1,숙박,I101,일반 숙박,I10103,펜션,I55104,민박업,46,전라남도,46810,강진군,46810250,강진읍,4681025021,강진읍,4.68103E+18,1,대지,599,null,전라남도 강진군 강진읍 동성리 599,4.68105E+11,전라남도 강진군 강진읍 목화길,13,5,4.68103E+24,,전라남도 강진군 강진읍 목화길 13-5,527803,59226,,null,,126.7712077,34.64698697
MA010120220805435272,원조하당먹거리,,I2,음식,I211,주점,I21104,요리 주점,I56219,기타 주점업,46,전라남도,46110,목포시,46110800,부흥동,4611016400,옥암동,4.61102E+18,1,대지,1004,null,전라남도 목포시 옥암동 1004,4.61103E+11,전라남도 목포시 신흥로,98,null,4.61102E+24,,전라남도 목포시 신흥로 98,530847,58685,,null,,126.4307146,34.80542059
MA010120220805434894,바닷길가든,,I2,음식,I201,한식,I20107,돼지고기 구이/찜,I56113,한식 육류 요리 전문점,46,전라남도,46900,진도군,46900320,고군면,4690032031,고군면,4.69003E+18,1,대지,114,8,전라남도 진도군 고군면 금계리 114-8,4.69002E+11,전라남도 진도군 고군면 진도대로,1297,null,4.69003E+24,,전라남도 진도군 고군면 진도대로 1297,539813,58911,,null,,126.3541317,34.43984092
MA010120220805437546,수스,,G2,소매,G209,섬유·의복·신발 소매,G20905,기타 의류 소매업,G47414,셔츠 및 블라우스 소매업,46,전라남도,46230,광양시,46230530,중마동,4623010600,중동,4.62301E+18,1,대지,1811,1,전라남도 광양시 중동 1811-1,4.62303E+11,전라남도 광양시 항만11로,70,null,4.62301E+24,홈플러스광양점,전라남도 광양시 항만11로 70,545827,57793,,1,,127.6941708,34.92850781
MA010120220805438259,다옴옷수선,,S2,수리·개인,S206,기타 가정용품 수리,S20601,의류/이불 수선업,S95391,의복 및 기타 가정용 직물제품 수리업,46,전라남도,46230,광양시,46230515,골약동,4623010200,황길동,4.62301E+18,1,대지,955,null,전라남도 광양시 황길동 955,4.62303E+11,전라남도 광양시 제철로,997,8,4.62301E+24,,전라남도 광양시 제철로 997-8,545030,57769,,null,,127.6529664,34.91135926
MA010120220805437498,족뱅이족발,,I2,음식,I201,한식,I20103,족발/보쌈,I56111,한식 일반 음식점업,46,전라남도,46110,목포시,46110745,용해동,4611015900,용해동,4.61102E+18,1,대지,921,15,전라남도 목포시 용해동 921-15,4.61103E+11,전라남도 목포시 용당로,274,null,4.61102E+24,로뎀입시학원,전라남도 목포시 용당로 274,530842,58646,,null,,126.3995217,34.81128785
MA010120220805437641,주니어1234,,R1,예술·스포츠,R104,유원지·오락,R10405,기타 오락장,R91229,기타 오락장 운영업,46,전라남도,46130,여수시,46130790,시전동,4613013400,웅천동,4.61301E+18,1,대지,1884,5,전라남도 여수시 웅천동 1884-5,4.61303E+11,전라남도 여수시 웅천남6로,21,null,4.61301E+24,,전라남도 여수시 웅천남6로 21,555030,59792,,4,,127.6764569,34.7393568
MA010120220805438010,산수식당,,I2,음식,I201,한식,I20101,백반/한정식,I56111,한식 일반 음식점업,46,전라남도,46130,여수시,46130310,소라면,4613031027,소라면,4.61303E+18,1,대지,1345,null,전라남도 여수시 소라면 봉두리 1345,4.61305E+11,전라남도 여수시 소라면 의곡길,477,null,4.61303E+24,,전라남도 여수시 소라면 의곡길 477,556812,59608,,null,,127.579499,34.83048097
MA010120220805438221,나루터가든,,I2,음식,I201,한식,I20101,백반/한정식,I56111,한식 일반 음식점업,46,전라남도,46230,광양시,46230570,태인동,4623010900,태인동,4.62301E+18,1,대지,1320,7,전라남도 광양시 태인동 1320-7,4.62305E+11,전라남도 광양시 도촌안2길,28,null,4.62301E+24,,전라남도 광양시 도촌안2길 28,545884,57813,,1,,127.7410253,34.94386064
MA010120220805438222,차밍팜,,G2,소매,G205,식료품 소매,G20508,건강보조식품 소매업,G47217,건강 보조식품 소매업,46,전라남도,46170,나주시,46170250,남평읍,4617025036,남평읍,4.61703E+18,1,대지,778,null,전라남도 나주시 남평읍 평산리 778,4.61705E+11,전라남도 나주시 남평읍 평산새터길,92,null,4.61703E+24,,전라남도 나주시 남평읍 평산새터길 92,520841,58223,,1,,126.8290768,35.06199512
MA010120220805437918,지에스25덕례수시아점,,G2,소매,G204,종합 소매,G20405,편의점,G47122,체인화 편의점,46,전라남도,46230,광양시,46230250,광양읍,4623025035,광양읍,4.62303E+18,1,대지,1761,1,전라남도 광양시 광양읍 덕례리 1761-1,4.62303E+11,전라남도 광양시 광양읍 갈티로,54,null,4.62303E+24,,전라남도 광양시 광양읍 갈티로 54,545802,57761,,null,,127.5672065,34.96894037
MA010120220805437600,남해안참숯장어전문,,I2,음식,I201,한식,I20112,해산물 구이/찜,I56114,한식 해산물 요리 전문점,46,전라남도,46130,여수시,46130800,여천동,4613013700,화장동,4.61301E+18,1,대지,770,6,전라남도 여수시 화장동 770-6,4.61305E+11,전라남도 여수시 성산6길,53,1,4.61301E+24,,전라남도 여수시 성산6길 53-1,555090,59642,,1,,127.6440502,34.77357744
MA010120220805438101,통뼈감자탕포미,,I2,음식,I201,한식,I20102,국/탕/찌개류,I56111,한식 일반 음식점업,46,전라남도,46110,목포시,46110554,연산동,4611010300,연산동,4.61101E+18,1,대지,1959,5,전라남도 목포시 연산동 1959-5,4.61105E+11,전라남도 목포시 연산백련로21번길,6,null,4.61101E+24,,전라남도 목포시 연산백련로21번길 6,530370,58763,,1,,126.3911557,34.81718966
MA010120220805437933,은지네,,I2,음식,I201,한식,I20107,돼지고기 구이/찜,I56113,한식 육류 요리 전문점,46,전라남도,46890,완도군,46890320,신지면,4689032025,신지면,4.68903E+18,1,대지,38,null,전라남도 완도군 신지면 신리 38,4.68903E+11,전라남도 완도군 신지면 신지로,516,null,4.68903E+24,,전라남도 완도군 신지면 신지로 516,537863,59146,,null,,126.8230477,34.33427172
MA010120220805438379,엘시실내,,R1,예술·스포츠,R103,스포츠 서비스,R10311,골프 연습장,G47631,운동 및 경기용품 소매업,46,전라남도,46810,강진군,46810250,강진읍,4681025023,강진읍,4.68103E+18,1,대지,85,1,전라남도 강진군 강진읍 서성리 85-1,4.68103E+11,전라남도 강진군 강진읍 탐진로,51,11,4.68103E+24,,전라남도 강진군 강진읍 탐진로 51-11,527805,59227,,2,,126.76268,34.63876068
MA010120220805437013,강동유통,,G2,소매,G205,식료품 소매,G20506,채소/과일 소매업,G47215,"채소, 과실 및 뿌리작물 소매업",46,전라남도,46820,해남군,46820340,송지면,4682034028,송지면,4.68203E+18,1,대지,1036,9,전라남도 해남군 송지면 어란리 1036-9,4.68205E+11,전라남도 해남군 송지면 동현길,51,2,4.68203E+24,,전라남도 해남군 송지면 동현길 51-2,536925,59063,,null,,126.4867524,34.36303868
MA010120220805436545,논곡산업,,G2,소매,G222,중고 상품 소매,G22201,중고 상품 소매업,G47869,기타 중고 상품 소매업,46,전라남도,46230,광양시,46230330,옥곡면,4623033024,옥곡면,4.62303E+18,1,대지,1410,18,전라남도 광양시 옥곡면 신금리 1410-18,4.62305E+11,전라남도 광양시 옥곡면 큰골1길,31,null,4.62303E+24,,전라남도 광양시 옥곡면 큰골1길 31,545833,57726,,null,,127.7010429,34.98630917
MA010120220805436487,아트관광여행사,,N1,시설관리·임대,N105,여행사·보조,N10501,여행사,N75210,여행사업,46,전라남도,46130,여수시,46130250,돌산읍,4613025030,돌산읍,4.61303E+18,1,대지,806,null,전라남도 여수시 돌산읍 우두리 806,4.61305E+11,전라남도 여수시 돌산읍 우두1길,12,13,4.61303E+24,,전라남도 여수시 돌산읍 우두1길 12-13,550833,59768,,null,,127.7417127,34.72753165
MA010120220805437100,心수봉공인중개사사무소,,L1,부동산,L102,부동산 서비스,L10203,부동산 중개/대리업,L68221,부동산 중개 및 대리업,46,전라남도,46840,무안군,46840253,일로읍,4684025335,일로읍,4.68403E+18,1,대지,1,null,전라남도 무안군 일로읍 오룡리 1,4.68403E+11,전라남도 무안군 일로읍 오룡번영로,131,null,4.68403E+24,호반써밋남악오룡1차,전라남도 무안군 일로읍 오룡번영로 131,534900,58580,,1,,126.4834917,34.80812695
MA010120220805437157,솜사탕,,I2,음식,I212,비알코올 ,I21201,카페,I56221,커피 전문점,46,전라남도,46790,화순군,46790250,화순읍,4679025024,화순읍,4.67903E+18,1,대지,242,8,전라남도 화순군 화순읍 신기리 242-8,4.67903E+11,전라남도 화순군 화순읍 진각로,148,null,4.67903E+24,,전라남도 화순군 화순읍 진각로 148,519950,58113,,1,,126.9872659,35.06426636
MA010120220805436775,고풍화랑,,G2,소매,G221,기타 상품 소매,G22199,그 외 기타 상품 전문 소매업,G47859,그 외 기타 분류 안된 상품 전문 소매업,46,전라남도,46150,순천시,46150515,향동,4615010500,행동,4.61501E+18,1,대지,61,1,전라남도 순천시 행동 61-1,4.61505E+11,전라남도 순천시 행금길,12,null,4.61501E+24,,전라남도 순천시 행금길 12,540060,57941,,null,,127.4828566,34.95572861
MA010120220805437175,동수네빵집,,I2,음식,I210,기타 간이,I21001,빵/도넛,I56191,제과점업,46,전라남도,46710,담양군,46710250,담양읍,4671025022,담양읍,4.67103E+18,1,대지,46,6,전라남도 담양군 담양읍 천변리 46-6,4.67103E+11,전라남도 담양군 담양읍 중앙로,59,null,4.67103E+24,신협,전라남도 담양군 담양읍 중앙로 59,517805,57343,,1,,126.9826669,35.3183842
MA010120220805437176,보광카센터,,S2,수리·개인,S203,자동차 수리·세차,S20301,자동차 정비소,S95212,자동차 전문 수리업,46,전라남도,46810,강진군,46810250,강진읍,4681025026,강진읍,4.68103E+18,1,대지,276,2,전라남도 강진군 강진읍 평동리 276-2,4.68103E+11,전라남도 강진군 강진읍 중앙로,10,null,4.68103E+24,,전라남도 강진군 강진읍 중앙로 10,527805,59237,,null,,126.7616119,34.63284535
MA010120220805437179,원진식당,,I2,음식,I201,한식,I20107,돼지고기 구이/찜,I56113,한식 육류 요리 전문점,46,전라남도,46130,여수시,46130800,여천동,4613013500,선원동,4.61301E+18,1,대지,1246,5,전라남도 여수시 선원동 1246-5,4.61305E+11,전라남도 여수시 무선5길,27,null,4.61301E+24,,전라남도 여수시 무선5길 27,555801,59640,,1,,127.6513727,34.77295857
MA010120220805436586,케이원엔지니어링,,M1,과학·기술,M109,기술 서비스,M10999,기타 엔지니어링 서비스업,M72129,기타 엔지니어링 서비스업,46,전라남도,46170,나주시,46170600,이창동,4617013100,동수동,4.61701E+18,1,대지,323,null,전라남도 나주시 동수동 323,4.61705E+11,전라남도 나주시 동수농공단지길,138,10,4.61701E+24,서원,전라남도 나주시 동수농공단지길 138-10,520952,58277,,1,,126.6797732,34.98715248
MA010120220805439686,가곡탁구장,,R1,예술·스포츠,R103,스포츠 서비스,R10313,탁구장,R91139,그 외 기타 스포츠시설 운영업,46,전라남도,46150,순천시,46150550,삼산동,4615010900,가곡동,4.61501E+18,1,대지,994,15,전라남도 순천시 가곡동 994-15,4.61503E+11,전라남도 순천시 중앙로,325,null,4.61501E+24,가곡탁구장,전라남도 순천시 중앙로 325,540080,57923,,1,,127.4817189,34.9746905
MA010120220805439630,128티카페,,I2,음식,I212,비알코올 ,I21201,카페,I56221,커피 전문점,46,전라남도,46790,화순군,46790250,화순읍,4679025030,화순읍,4.67903E+18,1,대지,182,null,전라남도 화순군 화순읍 광덕리 182,4.67903E+11,전라남도 화순군 화순읍 충의로,128,null,4.67903E+24,,전라남도 화순군 화순읍 충의로 128,519803,58135,,null,,126.9917146,35.05555072
MA010120220805440063,족발야시장전남,,I2,음식,I201,한식,I20103,족발/보쌈,I56111,한식 일반 음식점업,46,전라남도,46810,강진군,46810250,강진읍,4681025022,강진읍,4.68103E+18,1,대지,5,20,전라남도 강진군 강진읍 남성리 5-20,4.68105E+11,전라남도 강진군 강진읍 보은로1길,25,null,4.68103E+24,,전라남도 강진군 강진읍 보은로1길 25,527802,59233,,1,,126.7694166,34.63827895
MA010120220805439645,몽타이,,S2,수리·개인,S207,이용·미용,S20702,피부 관리실,S96113,피부 미용업,46,전라남도,46230,광양시,46230530,중마동,4623010600,중동,4.62301E+18,1,대지,1764,1,전라남도 광양시 중동 1764-1,4.62305E+11,전라남도 광양시 발섬6길,38,null,4.62301E+24,,전라남도 광양시 발섬6길 38,545888,57796,,null,,127.7001883,34.93527485
MA010120220805440095,다모아쇼핑,,G2,소매,G209,섬유·의복·신발 소매,G20905,기타 의류 소매업,G47414,셔츠 및 블라우스 소매업,46,전라남도,46110,목포시,46110510,용당1동,4611010100,용당동,4.61101E+18,1,대지,1051,10,전라남도 목포시 용당동 1051-10,4.61105E+11,전라남도 목포시 영산로245번길,19,null,4.61101E+24,,전라남도 목포시 영산로245번길 19,530361,58652,,null,,126.3920814,34.80442045
MA010120220805439532,우리측량설계공사,,M1,과학·기술,M109,기술 서비스,M10903,건물 및 토목 엔지니어링 서비스업,M72121,건물 및 토목 엔지니어링 서비스업,46,전라남도,46150,순천시,46150580,풍덕동,4615011500,풍덕동,4.61501E+18,1,대지,1757,1,전라남도 순천시 풍덕동 1757-1,4.61503E+11,전라남도 순천시 순천만정원로,86,null,4.61501E+24,,전라남도 순천시 순천만정원로 86,540972,57995,,6,,127.4956394,34.93704092
MA010120220805440372,루페컴,,S2,수리·개인,S201,컴퓨터 수리,S20101,컴퓨터/노트북/프린터 수리업,S95110,컴퓨터 및 주변 기기 수리업,46,전라남도,46730,구례군,46730250,구례읍,4673025021,구례읍,4.67303E+18,1,대지,415,3,전라남도 구례군 구례읍 봉동리 415-3,4.67303E+11,전라남도 구례군 구례읍 봉성로,96,null,4.67303E+24,정화미용실,전라남도 구례군 구례읍 봉성로 96,542804,57643,,null,,127.4646922,35.21083021
MA010120220805438576,오투피부손질,,G2,소매,G215,의약·화장품 소매,G21503,화장품 소매업,G47813,"화장품, 비누 및 방향제 소매업",46,전라남도,46150,순천시,46150570,덕연동,4615011400,연향동,4.61501E+18,1,대지,1361,12,전라남도 순천시 연향동 1361-12,4.61505E+11,전라남도 순천시 연향번영6길,4,null,4.61501E+24,우리는,전라남도 순천시 연향번영6길 4,540953,57978,,null,,127.5176022,34.94765923
MA010120220805438828,부자마트,,G2,소매,G204,종합 소매,G20404,슈퍼마켓,G47216,"빵류, 과자류 및 당류 소매업",46,전라남도,46150,순천시,46150550,삼산동,4615010900,가곡동,4.61501E+18,1,대지,37,38,전라남도 순천시 가곡동 37-38,4.61503E+11,전라남도 순천시 중앙로,479,null,4.61501E+24,순천카바사,전라남도 순천시 중앙로 479,540080,57924,,1,,127.4883527,34.98751032
MA010120220805438845,좋은날,,P1,교육,P106,기타 교육,P10605,레크리에이션 교육기관,P85613,레크리에이션 교육기관,46,전라남도,46230,광양시,46230250,광양읍,4623025031,광양읍,4.62303E+18,1,대지,414,7,전라남도 광양시 광양읍 인동리 414-7,4.62303E+11,전라남도 광양시 광양읍 순광로,683,null,4.62303E+24,,전라남도 광양시 광양읍 순광로 683,545808,57756,,null,,127.5893139,34.96950393
MA010120220805439046,호박유흥주점,,I2,음식,I211,주점,I21101,일반 유흥 주점,I56211,일반 유흥 주점업,46,전라남도,46820,해남군,46820250,해남읍,4682025023,해남읍,4.68203E+18,1,대지,31,2,전라남도 해남군 해남읍 읍내리 31-2,4.68205E+11,전라남도 해남군 해남읍 읍내길,20,null,4.68203E+24,수노래홀,전라남도 해남군 해남읍 읍내길 20,536805,59036,,3,,126.5992822,34.57095454
MA010120220805439355,여수가마솥국밥,,I2,음식,I201,한식,I20102,국/탕/찌개류,I56111,한식 일반 음식점업,46,전라남도,46130,여수시,46130655,대교동,4613011500,봉산동,4.61301E+18,1,대지,244,10,전라남도 여수시 봉산동 244-10,4.61303E+11,전라남도 여수시 대교로,35,null,4.61301E+24,,전라남도 여수시 대교로 35,550818,59754,,null,,127.7250566,34.73541041
MA010120220805439400,사천푸드미평점,,I2,음식,I211,주점,I21104,요리 주점,I56219,기타 주점업,46,전라남도,46130,여수시,46130730,미평동,4613012200,미평동,4.61301E+18,1,대지,282,8,전라남도 여수시 미평동 282-8,4.61303E+11,전라남도 여수시 미평로,76,null,4.61301E+24,,전라남도 여수시 미평로 76,550240,59630,,null,,127.7093424,34.76969407
MA010120220805438994,가성봉민박3,,I1,숙박,I101,일반 숙박,I10103,펜션,I55104,민박업,46,전라남도,46870,영광군,46870256,홍농읍,4687025623,홍농읍,4.68703E+18,1,대지,826,2,전라남도 영광군 홍농읍 계마리 826-2,4.68703E+11,전라남도 영광군 홍농읍 가마미로,354,10,4.68703E+24,,전라남도 영광군 홍농읍 가마미로 354-10,513882,57000,,null,,126.4094508,35.39751044
MA010120220805442246,대동식당,,I2,음식,I201,한식,I20101,백반/한정식,I56111,한식 일반 음식점업,46,전라남도,46810,강진군,46810320,칠량면,4681032023,칠량면,4.68103E+18,1,대지,1137,87,전라남도 강진군 칠량면 영동리 1137-87,4.68103E+11,전라남도 강진군 칠량면 칠량로,80,4,4.68103E+24,,전라남도 강진군 칠량면 칠량로 80-4,527862,59261,,null,,126.7988532,34.5716934
MA010120220805442304,루페스빅풋디테일링센터,,S2,수리·개인,S203,자동차 수리·세차,S20302,자동차 세차장,S95213,자동차 세차업,46,전라남도,46130,여수시,46130800,여천동,4613013700,화장동,4.61301E+18,1,대지,856,6,전라남도 여수시 화장동 856-6,4.61303E+11,전라남도 여수시 성산로,51,1,4.61301E+24,,전라남도 여수시 성산로 51-1,555090,59637,,null,,127.643203,34.77495425
MA010120220805442087,이모네칼국수,,I2,음식,I201,한식,I20105,국수/칼국수,I56111,한식 일반 음식점업,46,전라남도,46840,무안군,46840330,청계면,4684033023,청계면,4.68403E+18,1,대지,311,14,전라남도 무안군 청계면 도림리 311-14,4.68405E+11,전라남도 무안군 청계면 승달산길,41,null,4.68403E+24,,전라남도 무안군 청계면 승달산길 41,534834,58553,,null,,126.4339161,34.91043559
MA010120220805440806,플로렌스,,I2,음식,I212,비알코올 ,I21201,카페,I56229,기타 비알코올 음료점업,46,전라남도,46110,목포시,46110565,대성동,4611010400,대성동,4.61101E+18,1,대지,69,6,전라남도 목포시 대성동 69-6,4.61103E+11,전라남도 목포시 삼일로,52,4,4.61101E+24,,전라남도 목포시 삼일로 52-4,530802,58722,,1,,126.3843511,34.7968006
MA010120220805441635,건축사사무소소망,,M1,과학·기술,M109,기술 서비스,M10901,건축 설계 및 관련 서비스업,M72111,건축 설계 및 관련 서비스업,46,전라남도,46110,목포시,46110510,용당1동,4611010100,용당동,4.61101E+18,1,대지,1193,6,전라남도 목포시 용당동 1193-6,4.61103E+11,전라남도 목포시 양을로,206,null,4.61101E+24,,전라남도 목포시 양을로 206,530838,58647,,2,,126.3925317,34.81106049
MA010120220805440753,삼복이네뼈해장국그리고떡볶이,,I2,음식,I210,기타 간이,I21007,김밥/만두/분식,I56111,한식 일반 음식점업,46,전라남도,46790,화순군,46790350,능주면,4679035024,능주면,4.67904E+18,1,대지,253,2,전라남도 화순군 능주면 잠정리 253-2,4.67905E+11,전라남도 화순군 능주면 정암길,62,null,4.67904E+24,,전라남도 화순군 능주면 정암길 62,519813,58153,,null,,126.9554752,34.99081108
MA010120220805440767,치킨나주혁신,,I2,음식,I210,기타 간이,I21006,치킨,I56193,치킨 전문점,46,전라남도,46170,나주시,46170620,빛가람동,4617013400,빛가람동,4.61701E+18,1,대지,447,1,전라남도 나주시 빛가람동 447-1,4.61705E+11,전라남도 나주시 황동2길,3,15,4.61701E+24,,전라남도 나주시 황동2길 3-15,520350,58327,,null,,126.7730157,35.01416299
MA010120220805441103,세븐일레븐여수문수주공점,,G2,소매,G204,종합 소매,G20405,편의점,G47122,체인화 편의점,46,전라남도,46130,여수시,46130710,문수동,4613012000,문수동,4.61301E+18,1,대지,715,3,전라남도 여수시 문수동 715-3,4.61303E+11,전라남도 여수시 여문2로,6,3,4.61301E+24,,전라남도 여수시 여문2로 6-3,550817,59704,,null,,127.6942545,34.74914801
MA010120220805440730,동하당,,I2,음식,I201,한식,I20101,백반/한정식,I56111,한식 일반 음식점업,46,전라남도,46710,담양군,46710320,고서면,4671032029,고서면,4.67103E+18,1,대지,1618,null,전라남도 담양군 고서면 동운리 1618,4.67103E+11,전라남도 담양군 고서면 가사문학로,324,6,4.67103E+24,,전라남도 담양군 고서면 가사문학로 324-6,517862,57385,,1,,126.9725426,35.22315805
MA010120220805440866,쿠킹라이프,,S2,수리·개인,S205,가전제품 수리,S20501,가전제품 수리업,S95310,가전제품 수리업,46,전라남도,46230,광양시,46230530,중마동,4623010600,중동,4.62301E+18,1,대지,1619,1,전라남도 광양시 중동 1619-1,4.62305E+11,전라남도 광양시 중촌길,28,null,4.62301E+24,,전라남도 광양시 중촌길 28,545881,57789,,1,,127.6915288,34.93835424
MA010120220805443688,미르카페,,I2,음식,I201,한식,I20101,백반/한정식,I56111,한식 일반 음식점업,46,전라남도,46130,여수시,46130570,중앙동,4613010800,교동,4.61301E+18,1,대지,541,null,전라남도 여수시 교동 541,4.61305E+11,전라남도 여수시 교동남1길,8,null,4.61301E+24,,전라남도 여수시 교동남1길 8,550803,59735,,null,,127.7335174,34.7395581
MA010120220805444115,디디카페,,I2,음식,I212,비알코올 ,I21201,카페,I56221,커피 전문점,46,전라남도,46110,목포시,46110695,죽교동,4611015700,죽교동,4.61102E+18,1,대지,581,6,전라남도 목포시 죽교동 581-6,4.61103E+11,전라남도 목포시 북항로,124,null,4.61102E+24,,전라남도 목포시 북항로 124,530846,58717,,1,,126.3713228,34.80142222
MA010120220805443490,랑만,,G2,소매,G204,종합 소매,G20404,슈퍼마켓,G47129,기타 음ㆍ식료품 위주 종합 소매업,46,전라남도,46230,광양시,46230250,광양읍,4623025022,광양읍,4.62303E+18,1,대지,516,5,전라남도 광양시 광양읍 구산리 516-5,4.62303E+11,전라남도 광양시 광양읍 서천변로,189,null,4.62303E+24,국립수의과학검역원출장소,전라남도 광양시 광양읍 서천변로 189,545808,57737,,null,,127.5741381,34.97959312
MA010120220805443495,알비티체형교정&FIT,,S2,수리·개인,S208,욕탕·신체관리,S20802,마사지/안마,S96129,체형 등 기타 신체 관리 서비스업,46,전라남도,46110,목포시,46110745,용해동,4611015900,용해동,4.61102E+18,1,대지,995,5,전라남도 목포시 용해동 995-5,4.61105E+11,전라남도 목포시 포미로9번길,4,null,4.61102E+24,,전라남도 목포시 포미로9번길 4,530842,58613,,2,,126.397423,34.81694789
MA010120220805444411,모찌속눈썹,,S2,수리·개인,S207,이용·미용,S20702,피부 관리실,S96113,피부 미용업,46,전라남도,46840,무안군,46840256,삼향읍,4684025622,삼향읍,4.68403E+18,1,대지,2349,null,전라남도 무안군 삼향읍 남악리 2349,4.68405E+11,전라남도 무안군 삼향읍 남악5로48번길,24,null,4.68403E+24,,전라남도 무안군 삼향읍 남악5로48번길 24,534821,58578,,1,,126.4735474,34.80927356
MA010120220805444423,즐거운생활,,I2,음식,I210,기타 간이,I21007,김밥/만두/분식,I56194,김밥 및 기타 간이 음식점업,46,전라남도,46130,여수시,46130535,한려동,4613010300,공화동,4.61301E+18,1,대지,1292,null,전라남도 여수시 공화동 1292,4.61303E+11,전라남도 여수시 충민로,273,null,4.61301E+24,,전라남도 여수시 충민로 273,550020,59724,,1,,127.7426351,34.74699708
MA010120220805443662,"금손골드테라피,진심을다하다",,S2,수리·개인,S207,이용·미용,S20702,피부 관리실,S96113,피부 미용업,46,전라남도,46130,여수시,46130790,시전동,4613013300,신기동,4.61301E+18,1,대지,60,9,전라남도 여수시 신기동 60-9,4.61305E+11,전라남도 여수시 신기남3길,34,null,4.61301E+24,,전라남도 여수시 신기남3길 34,555803,59687,,2,,127.6691635,34.760847
MA010120220805443844,이지나힐링뮤직,,P1,교육,P106,기타 교육,P10609,음악학원,P85621,음악학원,46,전라남도,46800,장흥군,46800250,장흥읍,4680025037,장흥읍,4.68003E+18,1,대지,720,122,전라남도 장흥군 장흥읍 건산리 720-122,4.68003E+11,전라남도 장흥군 장흥읍 중앙로,45,3,4.68003E+24,,전라남도 장흥군 장흥읍 중앙로 45-3,529801,59327,,null,,126.9073524,34.68000528
MA010120220805443594,우리농기계,,S2,수리·개인,S206,기타 가정용품 수리,S20699,그 외 기타 개인/가정용품 수리업,S95399,그 외 기타 개인 및 가정용품 수리업,46,전라남도,46720,곡성군,46720370,옥과면,4672037025,옥과면,4.67204E+18,1,대지,291,16,전라남도 곡성군 옥과면 율사리 291-16,4.67203E+11,전라남도 곡성군 옥과면 천변로,99,5,4.67204E+24,,전라남도 곡성군 옥과면 천변로 99-5,516913,57505,,null,,127.1334156,35.27053199
MA010120220805444198,가거도맛집,,I2,음식,I201,한식,I20101,백반/한정식,I56111,한식 일반 음식점업,46,전라남도,46110,목포시,46110510,용당1동,4611010100,용당동,4.61101E+18,1,대지,1082,38,전라남도 목포시 용당동 1082-38,4.61105E+11,전라남도 목포시 용당로216번길,3,1,4.61101E+24,,전라남도 목포시 용당로216번길 3-1,530836,58651,,null,,126.3989421,34.80622352
MA010120220805443436,라임,,G2,소매,G209,섬유·의복·신발 소매,G20905,기타 의류 소매업,G47414,셔츠 및 블라우스 소매업,46,전라남도,46790,화순군,46790250,화순읍,4679025029,화순읍,4.67903E+18,1,대지,635,1,전라남도 화순군 화순읍 다지리 635-1,4.67903E+11,전라남도 화순군 화순읍 광덕로,43,null,4.67903E+24,,전라남도 화순군 화순읍 광덕로 43,519801,58140,,null,,126.9921711,35.04873082
MA010120220805442513,파리바게뜨남평강변도시점,,I2,음식,I210,기타 간이,I21001,빵/도넛,I56191,제과점업,46,전라남도,46170,나주시,46170250,남평읍,4617025023,남평읍,4.61703E+18,1,대지,363,1,전라남도 나주시 남평읍 동사리 363-1,4.61705E+11,전라남도 나주시 남평읍 강변2길,5,11,4.61703E+24,,전라남도 나주시 남평읍 강변2길 5-11,520844,58227,,1,,126.8501954,35.04058162
MA010120220805442594,광주식당,,I2,음식,I201,한식,I20107,돼지고기 구이/찜,I56113,한식 육류 요리 전문점,46,전라남도,46790,화순군,46790395,백아면,4679039522,백아면,4.67904E+18,1,대지,583,4,전라남도 화순군 백아면 옥리 583-4,4.67905E+11,전라남도 화순군 백아면 옥리길,32,null,4.67904E+24,,전라남도 화순군 백아면 옥리길 32,519922,58101,,null,,127.0831479,35.16254374
MA010120220805442836,노을명가,,I2,음식,I201,한식,I20111,횟집,I56114,한식 해산물 요리 전문점,46,전라남도,46110,목포시,46110705,북항동,4611010200,산정동,4.61101E+18,1,대지,1150,3,전라남도 목포시 산정동 1150-3,4.61103E+11,전라남도 목포시 청호로,225,null,4.61101E+24,,전라남도 목포시 청호로 225,530809,58624,,2,,126.3693521,34.80938195
MA010120220805442782,한샘키친순천,,G2,소매,G211,가구 소매,G21101,가구 소매업,G47520,가구 소매업,46,전라남도,46150,순천시,46150570,덕연동,4615011400,연향동,4.61501E+18,1,대지,1684,4,전라남도 순천시 연향동 1684-4,4.61503E+11,전라남도 순천시 팔마로,326,null,4.61501E+24,하이모빌딩,전라남도 순천시 팔마로 326,540976,58002,,null,,127.5184231,34.93460024
MA010120220805442613,제이제이,,G2,소매,G209,섬유·의복·신발 소매,G20902,여성 의류 소매업,G47412,여자용 겉옷 소매업,46,전라남도,46110,목포시,46110750,이로동,4611015900,용해동,4.61102E+18,1,대지,143,85,전라남도 목포시 용해동 143-85,4.61105E+11,전라남도 목포시 삼학로343번길,7,1,4.61102E+24,,전라남도 목포시 삼학로343번길 7-1,530840,58703,,null,,126.4079029,34.80169001
MA010120220805442862,하이타이,,S2,수리·개인,S208,욕탕·신체관리,S20803,체형/비만 관리,S96129,체형 등 기타 신체 관리 서비스업,46,전라남도,46110,목포시,46110758,신흥동,4611015800,상동,4.61102E+18,1,대지,1132,6,전라남도 목포시 상동 1132-6,4.61105E+11,전라남도 목포시 평화로73번길,25,null,4.61102E+24,,전라남도 목포시 평화로73번길 25,530826,58748,,2,,126.4312298,34.79841451
MA010120220805446328,핸디,,N1,시설관리·임대,N104,고용 알선,N10402,임시/일용 인력 공급업,N75121,임시 및 일용 인력 공급업,46,전라남도,46130,여수시,46130250,돌산읍,4613025030,돌산읍,4.61303E+18,1,대지,686,28,전라남도 여수시 돌산읍 우두리 686-28,4.61303E+11,전라남도 여수시 돌산읍 돌산로,3482,null,4.61303E+24,,전라남도 여수시 돌산읍 돌산로 3482,550833,59769,,2,,127.7500766,34.72397011
MA010120220805445967,현우금화주유소,,G2,소매,G214,연료 소매,G21401,주유소,G47711,운송장비용 주유소 운영업,46,전라남도,46230,광양시,46230250,광양읍,4623025035,광양읍,4.62303E+18,1,대지,1365,3,전라남도 광양시 광양읍 덕례리 1365-3,4.62303E+11,전라남도 광양시 광양읍 순광로,333,null,4.62303E+24,SK주유소,전라남도 광양시 광양읍 순광로 333,545802,57760,,null,,127.5546209,34.9654062
MA010120220805445513,케이비자동화시스템,,N1,시설관리·임대,N101,시설관리,N10101,사업시설 유지·관리 서비스업,N74100,사업시설 유지ㆍ관리 서비스업,46,전라남도,46130,여수시,46130810,주삼동,4613014000,해산동,4.61301E+18,1,대지,297,34,전라남도 여수시 해산동 297-34,4.61305E+11,전라남도 여수시 대평길,133,29,4.61301E+24,,전라남도 여수시 대평길 133-29,555130,59609,,2,,127.6384363,34.80072291
MA010120220805444743,위드커피,,I2,음식,I212,비알코올 ,I21201,카페,I56221,커피 전문점,46,전라남도,46110,목포시,46110595,목원동,4611015700,죽교동,4.61102E+18,1,대지,399,36,전라남도 목포시 죽교동 399-36,4.61105E+11,전라남도 목포시 마인계터로26번길,21,null,4.61102E+24,,전라남도 목포시 마인계터로26번길 21,530844,58727,,null,,126.3800218,34.78965826
MA010120220805448418,산삼약초&전통차,,I2,음식,I212,비알코올 ,I21201,카페,I56221,커피 전문점,46,전라남도,46730,구례군,46730250,구례읍,4673025021,구례읍,4.67303E+18,1,대지,189,45,전라남도 구례군 구례읍 봉동리 189-45,4.67305E+11,전라남도 구례군 구례읍 봉동길,27,null,4.67303E+24,,전라남도 구례군 구례읍 봉동길 27,542804,57637,,null,,127.4705316,35.20971107
MA010120220805447595,조이피싱,,R1,예술·스포츠,R104,유원지·오락,R10409,수상/해양 레저업,R91239,기타 수상오락 서비스업,46,전라남도,46130,여수시,46130790,시전동,4613013300,신기동,4.61301E+18,1,대지,97,4,전라남도 여수시 신기동 97-4,4.61305E+11,전라남도 여수시 시전6길,11,null,4.61301E+24,,전라남도 여수시 시전6길 11,555803,59685,,null,,127.6742354,34.75999524
MA010120220805447849,좋은날,,I2,음식,I211,주점,I21101,일반 유흥 주점,I56211,일반 유흥 주점업,46,전라남도,46130,여수시,46130710,문수동,4613012000,문수동,4.61301E+18,1,대지,116,3,전라남도 여수시 문수동 116-3,4.61303E+11,전라남도 여수시 문수로,92,null,4.61301E+24,,전라남도 여수시 문수로 92,550817,59713,,null,,127.704983,34.75443923
MA010120220805448197,장흥상회,,G2,소매,G204,종합 소매,G20404,슈퍼마켓,G47216,"빵류, 과자류 및 당류 소매업",46,전라남도,46860,함평군,46860250,함평읍,4686025022,함평읍,4.68603E+18,1,대지,982,null,전라남도 함평군 함평읍 기각리 982,4.68605E+11,전라남도 함평군 함평읍 시장길,49,null,4.68603E+24,함평천지전통시장,전라남도 함평군 함평읍 시장길 49,525802,57152,,null,,126.5234042,35.06392299
MA010120220805447881,천연염색헤어샵,,S2,수리·개인,S207,이용·미용,S20701,미용실,S96112,두발 미용업,46,전라남도,46830,영암군,46830253,삼호읍,4683025326,삼호읍,4.68303E+18,1,대지,434,7,전라남도 영암군 삼호읍 용앙리 434-7,4.68303E+11,전라남도 영암군 삼호읍 대불주거로,96,null,4.68303E+24,,전라남도 영암군 삼호읍 대불주거로 96,526897,58454,,null,,126.4625769,34.74911208
MA010120220805447642,뻘뚱,,I2,음식,I201,한식,I20111,횟집,I56114,한식 해산물 요리 전문점,46,전라남도,46910,신안군,46910410,팔금면,4691041024,팔금면,4.69104E+18,1,대지,314,1,전라남도 신안군 팔금면 읍리 314-1,4.69105E+11,전라남도 신안군 팔금면 탑목개길,163,null,4.69104E+24,,전라남도 신안군 팔금면 탑목개길 163,535851,58838,,null,,126.1428926,34.78371989
MA010120220805447470,여기어때횟집,,I2,음식,I201,한식,I20111,횟집,I56114,한식 해산물 요리 전문점,46,전라남도,46130,여수시,46130250,돌산읍,4613025029,돌산읍,4.61303E+18,1,대지,1405,26,전라남도 여수시 돌산읍 평사리 1405-26,4.61305E+11,전라남도 여수시 돌산읍 진모길,9,7,4.61303E+24,,전라남도 여수시 돌산읍 진모길 9-7,556905,59771,,1,,127.7586756,34.70690387
MA010120220805447102,프라임수학신대학원,,P1,교육,P105,일반 교육,P10501,입시·교과학원,P85501,일반 교과학원,46,전라남도,46150,순천시,46150310,해룡면,4615031022,해룡면,4.61503E+18,1,대지,1968,null,전라남도 순천시 해룡면 신대리 1968,4.61503E+11,전라남도 순천시 해룡면 좌야로,135,null,4.61503E+24,중흥에스-클래스6단지메가타운,전라남도 순천시 해룡면 좌야로 135,540853,58006,,2,,127.5449336,34.93494582
MA010120220805446849,아내의정원,,G2,소매,G219,식물 소매,G21901,꽃집,G47851,화초 및 식물 소매업,46,전라남도,46890,완도군,46890250,완도읍,4689025027,완도읍,4.68903E+18,1,대지,474,null,전라남도 완도군 완도읍 중도리 474,4.68905E+11,전라남도 완도군 완도읍 중도길,16,50,4.68903E+24,,전라남도 완도군 완도읍 중도길 16-50,537805,59110,,null,,126.7215973,34.30740894
MA010120220805447422,옥진식당,,I2,음식,I201,한식,I20101,백반/한정식,I56111,한식 일반 음식점업,46,전라남도,46870,영광군,46870250,영광읍,4687025023,영광읍,4.68703E+18,1,대지,321,34,전라남도 영광군 영광읍 남천리 321-34,4.68705E+11,전라남도 영광군 영광읍 신남로3길,15,6,4.68703E+24,,전라남도 영광군 영광읍 신남로3길 15-6,513803,57043,,1,,126.503316,35.27501358
MA010120220805447125,명성수산유통,,G2,소매,G205,식료품 소매,G20505,수산물 소매업,G47214,"신선, 냉동 및 기타 수산물 소매업",46,전라남도,46110,목포시,46110640,동명동,4611010200,산정동,4.61101E+18,1,대지,1102,21,전라남도 목포시 산정동 1102-21,4.61105E+11,전라남도 목포시 산정로47번길,17,null,4.61101E+24,,전라남도 목포시 산정로47번길 17,530812,58741,,1,,126.3909863,34.79273318
MA010120220805450293,카페글램,,I2,음식,I212,비알코올 ,I21201,카페,I56221,커피 전문점,46,전라남도,46170,나주시,46170540,금남동,4617010800,경현동,4.61701E+18,1,대지,96,1,전라남도 나주시 경현동 96-1,4.61705E+11,전라남도 나주시 경현길,65,null,4.61701E+24,,전라남도 나주시 경현길 65,520120,58247,,null,,126.7051599,35.03660558
MA010120220805450166,순천대점멘토즈스터디카페,,R1,예술·스포츠,R102,도서관·사적지,R10202,독서실/스터디 카페,R90212,독서실 운영업,46,전라남도,46150,순천시,46150540,매곡동,4615010700,매곡동,4.61501E+18,1,대지,475,6,전라남도 순천시 매곡동 475-6,4.61503E+11,전라남도 순천시 중앙로,226,null,4.61501E+24,,전라남도 순천시 중앙로 226,540947,57938,,null,,127.485191,34.96588898
MA010120220805450115,카페브라이언,,I2,음식,I212,비알코올 ,I21201,카페,I56221,커피 전문점,46,전라남도,46870,영광군,46870250,영광읍,4687025039,영광읍,4.68703E+18,1,대지,30,4,전라남도 영광군 영광읍 신하리 30-4,4.68703E+11,전라남도 영광군 영광읍 옥당로,134,null,4.68703E+24,,전라남도 영광군 영광읍 옥당로 134,513805,57043,,null,,126.5021993,35.27417955
MA010120220805449796,카페로사,,I2,음식,I212,비알코올 ,I21201,카페,I56221,커피 전문점,46,전라남도,46710,담양군,46710250,담양읍,4671025023,담양읍,4.67103E+18,1,대지,41,9,전라남도 담양군 담양읍 지침리 41-9,4.67103E+11,전라남도 담양군 담양읍 추성로,1356,null,4.67103E+24,,전라남도 담양군 담양읍 추성로 1356,517804,57345,,1,,126.9866192,35.31981452
MA010120220805449866,소울오카리나,,G2,소매,G212,기타 생활용품 소매,G21203,악기 소매업,G47593,악기 소매업,46,전라남도,46150,순천시,46150661,왕조1동,4615013200,왕지동,4.61501E+18,1,대지,87,87,전라남도 순천시 왕지동 87-87,4.61503E+11,전라남도 순천시 왕지로,375,10,4.61501E+24,,전라남도 순천시 왕지로 375-10,540330,57931,,null,,127.5554509,34.97797564
MA010120220805450252,투모아유블레스점,,I2,음식,I211,주점,I21104,요리 주점,I56219,기타 주점업,46,전라남도,46840,무안군,46840256,삼향읍,4684025622,삼향읍,4.68403E+18,1,대지,1476,null,전라남도 무안군 삼향읍 남악리 1476,4.68402E+11,전라남도 무안군 삼향읍 후광대로,330,null,4.68403E+24,,전라남도 무안군 삼향읍 후광대로 330,534821,58567,,1,,126.4678319,34.81398806
MA010120220805449486,집밥뷔페,,I2,음식,I201,한식,I20101,백반/한정식,I56111,한식 일반 음식점업,46,전라남도,46150,순천시,46150550,삼산동,4615010900,가곡동,4.61501E+18,1,대지,6,1,전라남도 순천시 가곡동 6-1,4.61503E+11,전라남도 순천시 중앙로,550,null,4.61501E+24,,전라남도 순천시 중앙로 550,540080,57925,,1,,127.4945294,34.99124119
MA010120220805449876,비치노래연습장,,R1,예술·스포츠,R104,유원지·오락,R10407,노래방,R91223,노래 연습장 운영업,46,전라남도,46230,광양시,46230350,진월면,4623035021,진월면,4.62304E+18,1,대지,60,16,전라남도 광양시 진월면 망덕리 60-16,4.62303E+11,전라남도 광양시 진월면 백운1로,389,null,4.62304E+24,,전라남도 광양시 진월면 백운1로 389,545852,57712,,null,,127.7513161,34.96202878
MA010120220805450401,순한고기,,G2,소매,G205,식료품 소매,G20503,정육점,G47212,육류 소매업,46,전라남도,46110,목포시,46110705,북항동,4611010200,산정동,4.61101E+18,1,대지,1633,14,전라남도 목포시 산정동 1633-14,4.61102E+11,전라남도 목포시 고하대로,672,null,4.61101E+24,,전라남도 목포시 고하대로 672,530813,58713,,null,,126.3714039,34.80730023
MA010120220805449708,거상,,I2,음식,I202,중식,I20201,중국집,I56121,중식 음식점업,46,전라남도,46130,여수시,46130730,미평동,4613012200,미평동,4.61301E+18,1,대지,756,5,전라남도 여수시 미평동 756-5,4.61303E+11,전라남도 여수시 대학로,39,null,4.61301E+24,,전라남도 여수시 대학로 39,550240,59628,,null,,127.702404,34.77304892
MA010120220805449285,알마시리크,,I2,음식,I205,동남아시아,I20501,베트남식 전문,I56129,기타 외국식 음식점업,46,전라남도,46830,영암군,46830253,삼호읍,4683025329,삼호읍,4.68303E+18,1,대지,2175,2,전라남도 영암군 삼호읍 용당리 2175-2,4.68303E+11,전라남도 영암군 삼호읍 신항로,135,29,4.68303E+24,,전라남도 영암군 삼호읍 신항로 135-29,526896,58462,,null,,126.3710058,34.74807469
MA010120220805449368,새우리공업사,,S2,수리·개인,S203,자동차 수리·세차,S20301,자동차 정비소,S95212,자동차 전문 수리업,46,전라남도,46730,구례군,46730250,구례읍,4673025030,구례읍,4.67303E+18,1,대지,394,null,전라남도 구례군 구례읍 봉북리 394,4.67303E+11,전라남도 구례군 구례읍 서시천로,82,null,4.67303E+24,,전라남도 구례군 구례읍 서시천로 82,542802,57635,,null,,127.4667961,35.21494097
MA010120220805449125,한솥국밥,,I2,음식,I201,한식,I20102,국/탕/찌개류,I56111,한식 일반 음식점업,46,전라남도,46890,완도군,46890250,완도읍,4689025021,완도읍,4.68903E+18,1,대지,310,218,전라남도 완도군 완도읍 군내리 310-218,4.68903E+11,전라남도 완도군 완도읍 청해진남로,5,null,4.68903E+24,,전라남도 완도군 완도읍 청해진남로 5,537800,59126,,null,,126.7576361,34.3145049
MA010120220805448752,출입국.외국인행정사사무소,,M1,과학·기술,M103,법무관련 ,M10306,행정사,M71109,기타 법무관련 서비스업,46,전라남도,46150,순천시,46150661,왕조1동,4615013200,왕지동,4.61501E+18,1,대지,863,2,전라남도 순천시 왕지동 863-2,4.61503E+11,전라남도 순천시 왕지로,6,null,4.61501E+24,호수빌딩,전라남도 순천시 왕지로 6,540330,57932,,2,,127.5227079,34.96966609
MA010120220805448894,남도,,I2,음식,I211,주점,I21103,생맥주 전문,I56213,생맥주 전문점,46,전라남도,46230,광양시,46230530,중마동,4623010600,중동,4.62301E+18,1,대지,1643,8,전라남도 광양시 중동 1643-8,4.62305E+11,전라남도 광양시 오류4길,27,null,4.62301E+24,,전라남도 광양시 오류4길 27,545881,57788,,2,,127.6971928,34.93717855
MA010120220805449216,정든집,,I2,음식,I201,한식,I20101,백반/한정식,I56111,한식 일반 음식점업,46,전라남도,46130,여수시,46130800,여천동,4613013500,선원동,4.61301E+18,1,대지,1279,12,전라남도 여수시 선원동 1279-12,4.61305E+11,전라남도 여수시 무선6길,47,null,4.61301E+24,,전라남도 여수시 무선6길 47,555801,59640,,1,,127.6497438,34.77578459
MA010120220805449442,드림조경,,G2,소매,G221,기타 상품 소매,G22199,그 외 기타 상품 전문 소매업,G47859,그 외 기타 분류 안된 상품 전문 소매업,46,전라남도,46720,곡성군,46720400,오산면,4672040028,오산면,4.67204E+18,1,대지,843,2,전라남도 곡성군 오산면 연화리 843-2,4.67203E+11,전라남도 곡성군 오산면 무옥로,184,null,4.67204E+24,,전라남도 곡성군 오산면 무옥로 184,516922,57517,,null,,127.0982173,35.26200901
MA010120220805449023,이삭공인중개사사무소,,L1,부동산,L102,부동산 서비스,L10203,부동산 중개/대리업,L68221,부동산 중개 및 대리업,46,전라남도,46840,무안군,46840256,삼향읍,4684025622,삼향읍,4.68403E+18,1,대지,2123,null,전라남도 무안군 삼향읍 남악리 2123,4.68405E+11,전라남도 무안군 삼향읍 남악3로82번길,7,null,4.68403E+24,제일파킹프라자,전라남도 무안군 삼향읍 남악3로82번길 7,534821,58567,,null,,126.4612978,34.81331069
MA010120220805449089,선우행정사사무소,,M1,과학·기술,M103,법무관련 ,M10306,행정사,M71109,기타 법무관련 서비스업,46,전라남도,46150,순천시,46150665,왕조2동,4615013300,조례동,4.61501E+18,1,대지,1588,5,전라남도 순천시 조례동 1588-5,4.61505E+11,전라남도 순천시 기적의도서관1길,4,null,4.61501E+24,"황제룸,남산국수",전라남도 순천시 기적의도서관1길 4,540968,57968,,null,,127.5239006,34.95469747
MA010120220805451698,선샤인호텔,,I1,숙박,I101,일반 숙박,I10102,여관/모텔,I55102,여관업,46,전라남도,46110,목포시,46110758,신흥동,4611015800,상동,4.61102E+18,1,대지,1144,null,전라남도 목포시 상동 1144,4.61105E+11,전라남도 목포시 평화로73번길,4,null,4.61102E+24,션샤인모텔,전라남도 목포시 평화로73번길 4,530500,58747,,null,,126.4327304,34.79707276
MA010120220805451814,오대세탁소,,S2,수리·개인,S209,세탁,S20901,세탁소,S96912,가정용 세탁업,46,전라남도,46840,무안군,46840340,현경면,4684034023,현경면,4.68403E+18,1,대지,1091,54,전라남도 무안군 현경면 평산리 1091-54,4.68403E+11,전라남도 무안군 현경면 현해로,70,null,4.68403E+24,반용건설,전라남도 무안군 현경면 현해로 70,534843,58512,,null,,126.4134395,35.02082015
MA010120220805452072,몬스터가든,,G2,소매,G209,섬유·의복·신발 소매,G20901,남성 의류 소매업,G47411,남자용 겉옷 소매업,46,전라남도,46110,목포시,46110758,신흥동,4611015800,상동,4.61102E+18,1,대지,997,3,전라남도 목포시 상동 997-3,4.61103E+11,전라남도 목포시 장미로,48,null,4.61102E+24,,전라남도 목포시 장미로 48,530826,58691,,1,,126.4266708,34.80256509
MA010120220805452488,용비어,,I2,음식,I211,주점,I21103,생맥주 전문,I56213,생맥주 전문점,46,전라남도,46230,광양시,46230530,중마동,4623010600,중동,4.62301E+18,1,대지,1414,4,전라남도 광양시 중동 1414-4,4.62303E+11,전라남도 광양시 중마로,207,null,4.62301E+24,,전라남도 광양시 중마로 207,545880,57783,,1,,127.6888935,34.94336873
MA010120220805451722,캐슬공인중개사사무소,,L1,부동산,L102,부동산 서비스,L10203,부동산 중개/대리업,L68221,부동산 중개 및 대리업,46,전라남도,46170,나주시,46170620,빛가람동,4617013400,빛가람동,4.61701E+18,1,대지,210,2,전라남도 나주시 빛가람동 210-2,4.61703E+11,전라남도 나주시 빛가람로,747,null,4.61701E+24,빛가람메디칼빌딩,전라남도 나주시 빛가람로 747,520350,58217,,null,,126.7937458,35.02158197
MA010120220805452414,예림인테리어,,M1,과학·기술,M112,전문 디자인,M11201,인테리어 디자인업,F42412,"도배, 실내 장식 및 내장 목공사업",46,전라남도,46130,여수시,46130250,돌산읍,4613025030,돌산읍,4.61303E+18,1,대지,686,28,전라남도 여수시 돌산읍 우두리 686-28,4.61303E+11,전라남도 여수시 돌산읍 돌산로,3482,null,4.61303E+24,,전라남도 여수시 돌산읍 돌산로 3482,550833,59769,,2,,127.7500766,34.72397011
MA010120220805451066,본전회수산,,I2,음식,I201,한식,I20111,횟집,I56114,한식 해산물 요리 전문점,46,전라남도,46110,목포시,46110800,부흥동,4611016400,옥암동,4.61102E+18,1,대지,1098,19,전라남도 목포시 옥암동 1098-19,4.61103E+11,전라남도 목포시 미항로,153,null,4.61102E+24,,전라남도 목포시 미항로 153,530847,58746,,null,,126.4365311,34.79775262
MA010120220805450625,김미정헤어스토리,,S2,수리·개인,S207,이용·미용,S20701,미용실,S96112,두발 미용업,46,전라남도,46130,여수시,46130710,문수동,4613012000,문수동,4.61301E+18,1,대지,170,null,전라남도 여수시 문수동 170,4.61303E+11,전라남도 여수시 여문2로,133,null,4.61301E+24,무궁화아파트,전라남도 여수시 여문2로 133,550817,59702,,1,,127.6994132,34.75421827
MA010120220805451027,뻘낙지,,I2,음식,I201,한식,I20112,해산물 구이/찜,I56111,한식 일반 음식점업,46,전라남도,46110,목포시,46110758,신흥동,4611015800,상동,4.61102E+18,1,대지,1124,6,전라남도 목포시 상동 1124-6,4.61103E+11,전라남도 목포시 원형로,44,2,4.61102E+24,,전라남도 목포시 원형로 44-2,530826,58747,,null,,126.4319435,34.79938818
MA010120220805454423,"시민행정사무소,시민선박중개사무소",,M1,과학·기술,M103,법무관련 ,M10306,행정사,M71109,기타 법무관련 서비스업,46,전라남도,46130,여수시,46130780,쌍봉동,4613012800,학동,4.61301E+18,1,대지,11,9,전라남도 여수시 학동 11-9,4.61303E+11,전라남도 여수시 쌍봉로,55,null,4.61301E+24,,전라남도 여수시 쌍봉로 55,555807,59671,,null,,127.6619519,34.76671398
MA010120220805453609,빽다방화순광덕점,,I2,음식,I212,비알코올 ,I21201,카페,G47320,가전제품 소매업,46,전라남도,46790,화순군,46790250,화순읍,4679025023,화순읍,4.67903E+18,1,대지,240,7,전라남도 화순군 화순읍 만연리 240-7,4.67903E+11,전라남도 화순군 화순읍 중앙로,93,null,4.67903E+24,,전라남도 화순군 화순읍 중앙로 93,519806,58117,,1,,126.991554,35.06058828
MA010120220805454042,새아지트,,I2,음식,I211,주점,I21104,요리 주점,I56219,기타 주점업,46,전라남도,46150,순천시,46150570,덕연동,4615011400,연향동,4.61501E+18,1,대지,1390,3,전라남도 순천시 연향동 1390-3,4.61503E+11,전라남도 순천시 연향1로,12,1,4.61501E+24,원광기획,전라남도 순천시 연향1로 12-1,540951,57990,,1,,127.5157256,34.94469496
MA010120220805454466,달보드레,,I2,음식,I212,비알코올 ,I21201,카페,I56221,커피 전문점,46,전라남도,46800,장흥군,46800250,장흥읍,4680025037,장흥읍,4.68003E+18,1,대지,708,1,전라남도 장흥군 장흥읍 건산리 708-1,4.68003E+11,전라남도 장흥군 장흥읍 중앙로,76,null,4.68003E+24,,전라남도 장흥군 장흥읍 중앙로 76,529801,59321,,null,,126.9063044,34.68251996
MA010120220805454020,루어카페,,G2,소매,G213,오락용품 소매,G21306,장난감 소매업,G47640,"게임용구, 인형 및 장난감 소매업",46,전라남도,46830,영암군,46830380,학산면,4683038030,학산면,4.68304E+18,1,대지,761,null,전라남도 영암군 학산면 매월리 761,4.68303E+11,전라남도 영암군 학산면 영산로,1139,null,4.68304E+24,,전라남도 영암군 학산면 영산로 1139,526873,58438,,null,,126.5231057,34.79354295
MA010120220805454249,청해동물,,G2,소매,G220,애완동물·용품 소매,G22001,애완동물/애완용품 소매업,G47211,"곡물, 곡분 및 가축 사료 소매업",46,전라남도,46890,완도군,46890250,완도읍,4689025021,완도읍,4.68903E+18,1,대지,782,101,전라남도 완도군 완도읍 군내리 782-101,4.68905E+11,전라남도 완도군 완도읍 중앙길,20,1,4.68903E+24,,전라남도 완도군 완도읍 중앙길 20-1,537800,59123,,null,,126.7575519,34.31358453
MA010120220805454192,오늘의회,,I2,음식,I201,한식,I20111,횟집,I56114,한식 해산물 요리 전문점,46,전라남도,46130,여수시,46130800,여천동,4613013500,선원동,4.61301E+18,1,대지,137,15,전라남도 여수시 선원동 137-15,4.61303E+11,전라남도 여수시 무선로,65,null,4.61301E+24,,전라남도 여수시 무선로 65,555800,59645,,null,,127.6557679,34.766904
MA010120220805452733,빈티지나무,,I2,음식,I212,비알코올 ,I21201,카페,I56221,커피 전문점,46,전라남도,46790,화순군,46790250,화순읍,4679025024,화순읍,4.67903E+18,1,대지,395,6,전라남도 화순군 화순읍 신기리 395-6,4.67905E+11,전라남도 화순군 화순읍 부처샘길,1,3,4.67903E+24,,전라남도 화순군 화순읍 부처샘길 1-3,519950,58114,,1,,126.9906846,35.06708923
MA010120220805453377,시선디자인,,M1,과학·기술,M105,광고,M10502,옥외/전시 광고 대행업,M71391,옥외 및 전시 광고업,46,전라남도,46110,목포시,46110810,부주동,4611016400,옥암동,4.61102E+18,1,대지,1215,3,전라남도 목포시 옥암동 1215-3,4.61105E+11,전라남도 목포시 후광대로143번안길,51,2,4.61102E+24,,전라남도 목포시 후광대로143번안길 51-2,530851,58671,,null,,126.4478001,34.81331951
MA010120220805452818,장원가든,,I2,음식,I201,한식,I20101,백반/한정식,I56111,한식 일반 음식점업,46,전라남도,46840,무안군,46840256,삼향읍,4684025627,삼향읍,4.68403E+18,1,대지,894,1,전라남도 무안군 삼향읍 지산리 894-1,4.68405E+11,전라남도 무안군 삼향읍 삼향공단길,25,null,4.68403E+24,장원가든,전라남도 무안군 삼향읍 삼향공단길 25,534822,58558,,null,,126.4202662,34.86784966
MA010120220805453006,하이포크정육식당,,I2,음식,I201,한식,I20101,백반/한정식,I56111,한식 일반 음식점업,46,전라남도,46130,여수시,46130780,쌍봉동,4613012800,학동,4.61301E+18,1,대지,58,20,전라남도 여수시 학동 58-20,4.61305E+11,전라남도 여수시 학동서5길,2,null,4.61301E+24,,전라남도 여수시 학동서5길 2,555808,59672,,2,,127.6565422,34.76194795
MA010120220805452843,은원상사,,G2,소매,G204,종합 소매,G20404,슈퍼마켓,G47129,기타 음ㆍ식료품 위주 종합 소매업,46,전라남도,46890,완도군,46890250,완도읍,4689025021,완도읍,4.68903E+18,1,대지,1249,null,전라남도 완도군 완도읍 군내리 1249,4.68905E+11,전라남도 완도군 완도읍 개포로56번길,16,4,4.68903E+24,완도종합시장(장터),전라남도 완도군 완도읍 개포로56번길 16-4,537800,59120,,null,,126.7477631,34.31650483
MA010120220805452980,크로스핏빛,,P1,교육,P106,기타 교육,P10601,태권도/무술학원,P85611,태권도 및 무술 교육기관,46,전라남도,46110,목포시,46110800,부흥동,4611016400,옥암동,4.61102E+18,1,대지,1032,10,전라남도 목포시 옥암동 1032-10,4.61103E+11,전라남도 목포시 옥암로,20,1,4.61102E+24,,전라남도 목포시 옥암로 20-1,530847,58687,,1,,126.4308802,34.8018713
MA010120220805456174,신안테크,,N1,시설관리·임대,N101,시설관리,N10101,사업시설 유지·관리 서비스업,N74100,사업시설 유지ㆍ관리 서비스업,46,전라남도,46910,신안군,46910330,자은면,4691033027,자은면,4.69103E+18,1,대지,605,4,전라남도 신안군 자은면 백산리 605-4,4.69105E+11,전라남도 신안군 자은면 자은서부2길,308,86,4.69103E+24,,전라남도 신안군 자은면 자은서부2길 308-86,535872,58831,,null,,126.0035774,34.88943598
MA010120220805455901,한성하이테크,,G2,소매,G210,철물·건설자재 소매,G21001,철물/공구 소매업,G47512,공구 소매업,46,전라남도,46830,영암군,46830253,삼호읍,4683025327,삼호읍,4.68303E+18,1,대지,1685,35,전라남도 영암군 삼호읍 난전리 1685-35,4.68303E+11,전라남도 영암군 삼호읍 대불로,745,null,4.68303E+24,,전라남도 영암군 삼호읍 대불로 745,526892,58448,,null,,126.4270436,34.77545639
MA010120220805455733,섬진강,,N1,시설관리·임대,N107,사무 지원,N10799,기타 사무 지원 서비스업,N75919,기타 사무 지원 서비스업,46,전라남도,46150,순천시,46150330,황전면,4615033031,황전면,4.61503E+18,1,대지,990,1,전라남도 순천시 황전면 비촌리 990-1,4.61505E+11,전라남도 순천시 황전면 비촌1길,87,null,4.61503E+24,,전라남도 순천시 황전면 비촌1길 87,540823,57900,,null,,127.42852,35.17372452
MA010120220805456406,모란교육원협동조합,,P1,교육,P106,기타 교육,P10619,사회교육시설,P85640,사회교육시설,46,전라남도,46900,진도군,46900250,진도읍,4690025023,진도읍,4.69003E+18,1,대지,46,1,전라남도 진도군 진도읍 성내리 46-1,4.69005E+11,전라남도 진도군 진도읍 서문길,8,21,4.69003E+24,진도청년회의소,전라남도 진도군 진도읍 서문길 8-21,539803,58915,,null,,126.2635425,34.48514505
MA010120220805456343,에스이와이,,M1,과학·기술,M107,본사·경영 컨설팅,M10703,경영 컨설팅업,M71531,경영 컨설팅업,46,전라남도,46110,목포시,46110595,목원동,4611011200,죽동,4.61101E+18,1,대지,220,null,전라남도 목포시 죽동 220,4.61105E+11,전라남도 목포시 마인계터로40번길,4,null,4.61101E+24,,전라남도 목포시 마인계터로40번길 4,530260,58727,,null,,126.3829691,34.79035546
MA010120220805456102,세븐고흥녹동항점,,G2,소매,G204,종합 소매,G20405,편의점,G47122,체인화 편의점,46,전라남도,46770,고흥군,46770253,도양읍,4677025324,도양읍,4.67703E+18,1,대지,2783,3,전라남도 고흥군 도양읍 봉암리 2783-3,4.67703E+11,전라남도 고흥군 도양읍 비봉로,154,null,4.67703E+24,백제약국,전라남도 고흥군 도양읍 비봉로 154,548907,59557,,null,,127.1349205,34.52761482
MA010120220805455931,지디뚜레쥬르영광법성포점,,I2,음식,I210,기타 간이,I21001,빵/도넛,I56191,제과점업,46,전라남도,46870,영광군,46870370,법성면,4687037022,법성면,4.68704E+18,1,대지,688,10,전라남도 영광군 법성면 법성리 688-10,4.68703E+11,전라남도 영광군 법성면 굴비로,83,null,4.68704E+24,,전라남도 영광군 법성면 굴비로 83,513873,57013,,null,,126.4489301,35.35634769
MA010120220805454608,공감,,I2,음식,I211,주점,I21104,요리 주점,I56219,기타 주점업,46,전라남도,46110,목포시,46110595,목원동,4611011200,죽동,4.61101E+18,1,대지,36,1,전라남도 목포시 죽동 36-1,4.61103E+11,전라남도 목포시 마인계터로,44,null,4.61101E+24,,전라남도 목포시 마인계터로 44,530260,58727,,null,,126.3831867,34.79040342
MA010120220805454865,심봉사도로케장흥관산점,,I2,음식,I210,기타 간이,I21001,빵/도넛,I56191,제과점업,46,전라남도,46800,장흥군,46800253,관산읍,4680025327,관산읍,4.68003E+18,1,대지,444,1,전라남도 장흥군 관산읍 죽교리 444-1,4.68003E+11,전라남도 장흥군 관산읍 정남진로,17,null,4.68003E+24,,전라남도 장흥군 관산읍 정남진로 17,529875,59347,,null,,126.9405679,34.5625846
MA010120220805455415,비비큐,,I2,음식,I210,기타 간이,I21006,치킨,I56193,치킨 전문점,46,전라남도,46150,순천시,46150661,왕조1동,4615013200,왕지동,4.61501E+18,1,대지,869,1,전라남도 순천시 왕지동 869-1,4.61503E+11,전라남도 순천시 왕지로,12,null,4.61501E+24,유신빌딩,전라남도 순천시 왕지로 12,540330,57932,,1,,127.523409,34.96963279
MA010120220805455407,다정청국장,,I2,음식,I201,한식,I20102,국/탕/찌개류,I56111,한식 일반 음식점업,46,전라남도,46150,순천시,46150580,풍덕동,4615011500,풍덕동,4.61501E+18,1,대지,1264,null,전라남도 순천시 풍덕동 1264,4.61503E+11,전라남도 순천시 장평로,60,null,4.61501E+24,,전라남도 순천시 장평로 60,540972,57961,,null,,127.4961153,34.94514707
MA010120220805457822,고흥전기조명상사,,G2,소매,G212,기타 생활용품 소매,G21201,전기용품/조명장치 소매업,G47591,전기용품 및 조명장치 소매업,46,전라남도,46770,고흥군,46770250,고흥읍,4677025024,고흥읍,4.67703E+18,1,대지,427,1,전라남도 고흥군 고흥읍 등암리 427-1,4.67703E+11,전라남도 고흥군 고흥읍 고흥로,1569,null,4.67703E+24,일반공장,전라남도 고흥군 고흥읍 고흥로 1569,548804,59542,,null,,127.2742722,34.59526992
MA010120220805458400,청록조경시설물,,N1,시설관리·임대,N103,조경·유지,N10301,조경 유지·관리 서비스업,N74300,조경관리 및 유지 서비스업,46,전라남도,46770,고흥군,46770253,도양읍,4677025324,도양읍,4.67703E+18,1,대지,2226,3,전라남도 고흥군 도양읍 봉암리 2226-3,4.67703E+11,전라남도 고흥군 도양읍 비봉로,152,1,4.67703E+24,상가,전라남도 고흥군 도양읍 비봉로 152-1,548905,59557,,null,,127.1352347,34.5277703
MA010120220805457887,"남경환경,향기로운집",,N1,시설관리·임대,N102,청소·방제,N10201,건축물 일반 청소업,N74211,건축물 일반 청소업,46,전라남도,46150,순천시,46150570,덕연동,4615011400,연향동,4.61501E+18,1,대지,1611,5,전라남도 순천시 연향동 1611-5,4.61505E+11,전라남도 순천시 도장길,25,null,4.61501E+24,E스마트빌,전라남도 순천시 도장길 25,540976,58003,,1,,127.526658,34.93977096
MA010120220805457708,정식육식당,,I2,음식,I201,한식,I20107,돼지고기 구이/찜,I56113,한식 육류 요리 전문점,46,전라남도,46110,목포시,46110558,원산동,4611010200,산정동,4.61101E+18,1,대지,1723,6,전라남도 목포시 산정동 1723-6,4.61105E+11,전라남도 목포시 죽산로30번길,18,null,4.61101E+24,,전라남도 목포시 죽산로30번길 18,530810,58637,,1,,126.3779558,34.81034425
MA010120220805458141,더조은치킨,,I2,음식,I211,주점,I21104,요리 주점,I56219,기타 주점업,46,전라남도,46830,영암군,46830340,시종면,4683034026,시종면,4.68303E+18,1,대지,11,6,전라남도 영암군 시종면 내동리 11-6,4.68303E+11,전라남도 영암군 시종면 내동중앙로,27,1,4.68303E+24,,전라남도 영암군 시종면 내동중앙로 27-1,526843,58427,,null,,126.6078764,34.86753756
MA010120220805457963,두바이,,I2,음식,I211,주점,I21101,일반 유흥 주점,I56211,일반 유흥 주점업,46,전라남도,46130,여수시,46130780,쌍봉동,4613012800,학동,4.61301E+18,1,대지,99,11,전라남도 여수시 학동 99-11,4.61305E+11,전라남도 여수시 시청동2길,22,1,4.61301E+24,,전라남도 여수시 시청동2길 22-1,555809,59689,,1,,127.6638075,34.75901131
MA010120220805457842,응답하라텔레콤,,G2,소매,G208,가전·통신 소매,G20802,핸드폰 소매업,G47312,통신기기 소매업,46,전라남도,46230,광양시,46230530,중마동,4623010600,중동,4.62301E+18,1,대지,1732,3,전라남도 광양시 중동 1732-3,4.62303E+11,전라남도 광양시 중마중앙로,88,null,4.62301E+24,중마시장,전라남도 광양시 중마중앙로 88,545886,57787,,1,,127.6988749,34.93820139
MA010120220805458022,제주까망이,,I2,음식,I201,한식,I20107,돼지고기 구이/찜,I56113,한식 육류 요리 전문점,46,전라남도,46150,순천시,46150310,해룡면,4615031022,해룡면,4.61503E+18,1,대지,1987,4,전라남도 순천시 해룡면 신대리 1987-4,4.61505E+11,전라남도 순천시 해룡면 신대4길,6,null,4.61503E+24,,전라남도 순천시 해룡면 신대4길 6,540853,58011,,1,,127.5516292,34.93361851
MA010120220805458083,한별공인중개사사무소,,L1,부동산,L102,부동산 서비스,L10203,부동산 중개/대리업,L68221,부동산 중개 및 대리업,46,전라남도,46880,장성군,46880320,남면,4688032028,남면,4.68803E+18,1,대지,878,2,전라남도 장성군 남면 삼태리 878-2,4.68803E+11,전라남도 장성군 남면 나노산단2로,201,null,4.68803E+24,,전라남도 장성군 남면 나노산단2로 201,515893,57248,,null,,126.838313,35.2368891
MA010120220805458423,올로르,,I1,숙박,I101,일반 숙박,I10103,펜션,I55109,기타 일반 및 생활 숙박시설 운영업,46,전라남도,46880,장성군,46880340,삼서면,4688034034,삼서면,4.68803E+18,1,대지,267,null,전라남도 장성군 삼서면 수양리 267,4.68803E+11,전라남도 장성군 삼서면 수양로,190,112,4.68803E+24,,전라남도 장성군 삼서면 수양로 190-112,515883,57256,,null,,126.6680819,35.23483801
MA010120220805457682,속초명태마을,,I2,음식,I201,한식,I20112,해산물 구이/찜,I56111,한식 일반 음식점업,46,전라남도,46800,장흥군,46800370,회진면,4680037022,회진면,4.68004E+18,1,대지,911,null,전라남도 장흥군 회진면 회진리 911,4.68003E+11,전라남도 장흥군 회진면 가학회진로,1601,null,4.68004E+24,,전라남도 장흥군 회진면 가학회진로 1601,529883,59360,,null,,126.9394677,34.48263147
MA010120220805458226,에스키즈모다,,G2,소매,G209,섬유·의복·신발 소매,G20910,신발 소매업,G47430,신발 소매업,46,전라남도,46150,순천시,46150310,해룡면,4615031025,해룡면,4.61503E+18,1,대지,99,null,전라남도 순천시 해룡면 남가리 99,4.61505E+11,전라남도 순천시 해룡면 상성길,70,null,4.61503E+24,순천만플라자모다아울렛,전라남도 순천시 해룡면 상성길 70,540854,58005,,3,,127.54446,34.92556877
MA010120220805456556,새론산업,,M1,과학·기술,M109,기술 서비스,M10904,환경 관련 엔지니어링 서비스업,M72122,환경 관련 엔지니어링 서비스업,46,전라남도,46870,영광군,46870340,군서면,4687034030,군서면,4.68703E+18,1,대지,481,9,전라남도 영광군 군서면 만곡리 481-9,4.68705E+11,전라남도 영광군 군서면 백수로16길,54,7,4.68703E+24,,전라남도 영광군 군서면 백수로16길 54-7,513842,57031,,null,,126.4636989,35.28928048
MA010120220805457203,여수달밤,,N1,시설관리·임대,N108,기타 사업 서비스,N10805,포장/충전업,N75994,포장 및 충전업,46,전라남도,46130,여수시,46130535,한려동,4613010300,공화동,4.61301E+18,1,대지,1047,11,전라남도 여수시 공화동 1047-11,4.61305E+11,전라남도 여수시 공화남2길,12,null,4.61301E+24,,전라남도 여수시 공화남2길 12,550020,59743,,1,,127.7430658,34.7454474
MA010120220805457156,광흥조경,,G2,소매,G219,식물 소매,G21901,꽃집,G47851,화초 및 식물 소매업,46,전라남도,46800,장흥군,46800350,유치면,4680035033,유치면,4.68004E+18,1,대지,516,4,전라남도 장흥군 유치면 대천리 516-4,4.68003E+11,전라남도 장흥군 유치면 유치도암로,43,null,4.68004E+24,,전라남도 장흥군 유치면 유치도암로 43,529823,59300,,null,,126.8799235,34.84624379
MA010120220805457179,레츠리드서적,,G2,소매,G213,오락용품 소매,G21301,서점,G47611,"서적, 신문 및 잡지류 소매업",46,전라남도,46150,순천시,46150570,덕연동,4615011400,연향동,4.61501E+18,1,대지,1603,1,전라남도 순천시 연향동 1603-1,4.61505E+11,전라남도 순천시 성죽길,31,null,4.61501E+24,에코빌,전라남도 순천시 성죽길 31,540976,58003,,4,,127.5248673,34.94086376
MA010120220805457246,제이엠음악학원,,P1,교육,P106,기타 교육,P10609,음악학원,P85621,음악학원,46,전라남도,46130,여수시,46130790,시전동,4613013300,신기동,4.61301E+18,1,대지,137,null,전라남도 여수시 신기동 137,4.61303E+11,전라남도 여수시 선소로,72,13,4.61301E+24,신기부영3단지,전라남도 여수시 선소로 72-13,555706,59688,,4,,127.6699167,34.75824372
MA010120220805460395,무공돈까스순천,,I2,음식,I204,서양식,I20401,경양식,I56122,일식 음식점업,46,전라남도,46150,순천시,46150661,왕조1동,4615013200,왕지동,4.61501E+18,1,대지,864,4,전라남도 순천시 왕지동 864-4,4.61505E+11,전라남도 순천시 왕지2길,4,36,4.61501E+24,,전라남도 순천시 왕지2길 4-36,540330,57932,,1,,127.5223323,34.96833946
MA010120220805459821,브릴랑시앙,,R1,예술·스포츠,R104,유원지·오락,R10405,기타 오락장,R91229,기타 오락장 운영업,46,전라남도,46170,나주시,46170620,빛가람동,4617013400,빛가람동,4.61701E+18,1,대지,283,1,전라남도 나주시 빛가람동 283-1,4.61705E+11,전라남도 나주시 배멧1길,46,null,4.61701E+24,,전라남도 나주시 배멧1길 46,520350,58325,,null,,126.791375,35.02036854
MA010120220805459831,네모드림,,M1,과학·기술,M107,본사·경영 컨설팅,M10703,경영 컨설팅업,M71531,경영 컨설팅업,46,전라남도,46130,여수시,46130780,쌍봉동,4613013100,소호동,4.61301E+18,1,대지,365,20,전라남도 여수시 소호동 365-20,4.61303E+11,전라남도 여수시 소호로,486,null,4.61301E+24,,전라남도 여수시 소호로 486,555060,59665,,null,,127.6541421,34.74548879
MA010120220805460026,고고모바일,,G2,소매,G208,가전·통신 소매,G20802,핸드폰 소매업,G47312,통신기기 소매업,46,전라남도,46130,여수시,46130790,시전동,4613013400,웅천동,4.61301E+18,1,대지,1880,5,전라남도 여수시 웅천동 1880-5,4.61303E+11,전라남도 여수시 웅천로,108,null,4.61301E+24,,전라남도 여수시 웅천로 108,555030,59792,,null,,127.6754004,34.74142744
MA010120220805460366,에이치타투,,G2,소매,G213,오락용품 소매,G21302,문구/회화용품 소매업,G47612,문구용품 및 회화용품 소매업,46,전라남도,46130,여수시,46130790,시전동,4613013300,신기동,4.61301E+18,1,대지,109,11,전라남도 여수시 신기동 109-11,4.61303E+11,전라남도 여수시 선소로,84,null,4.61301E+24,,전라남도 여수시 선소로 84,555803,59687,,3,,127.6682497,34.75990696
MA010120220805459521,혜뷰티,,G2,소매,G215,의약·화장품 소매,G21503,화장품 소매업,G47813,"화장품, 비누 및 방향제 소매업",46,전라남도,46710,담양군,46710250,담양읍,4671025022,담양읍,4.67103E+18,1,대지,33,1,전라남도 담양군 담양읍 천변리 33-1,4.67103E+11,전라남도 담양군 담양읍 중앙로,65,1,4.67103E+24,,전라남도 담양군 담양읍 중앙로 65-1,517805,57343,,2,,126.9825926,35.31905059
MA010120220805459690,루디오르,,G2,소매,G209,섬유·의복·신발 소매,G20902,여성 의류 소매업,G47412,여자용 겉옷 소매업,46,전라남도,46150,순천시,46150661,왕조1동,4615013200,왕지동,4.61501E+18,1,대지,863,1,전라남도 순천시 왕지동 863-1,4.61503E+11,전라남도 순천시 왕지로,8,null,4.61501E+24,,전라남도 순천시 왕지로 8,540330,57932,,null,,127.5230256,34.96964931
MA010120220805459713,광무체육관,,P1,교육,P106,기타 교육,P10601,태권도/무술학원,P85611,태권도 및 무술 교육기관,46,전라남도,46130,여수시,46130790,시전동,4613013300,신기동,4.61301E+18,1,대지,32,8,전라남도 여수시 신기동 32-8,4.61303E+11,전라남도 여수시 선소로,132,null,4.61301E+24,,전라남도 여수시 선소로 132,555802,59680,,3,,127.6700024,34.76415778
MA010120220805458698,더예헤어샵,,S2,수리·개인,S207,이용·미용,S20701,미용실,S96112,두발 미용업,46,전라남도,46150,순천시,46150570,덕연동,4615011400,연향동,4.61501E+18,1,대지,1346,null,전라남도 순천시 연향동 1346,4.61505E+11,전라남도 순천시 연향중앙상가길,56,null,4.61501E+24,동부아파트,전라남도 순천시 연향중앙상가길 56,540760,57977,,1,,127.5184392,34.94869923
MA010120220805459069,삼첩분식,,I2,음식,I210,기타 간이,I21007,김밥/만두/분식,I56194,김밥 및 기타 간이 음식점업,46,전라남도,46900,진도군,46900250,진도읍,4690025022,진도읍,4.69003E+18,1,대지,151,6,전라남도 진도군 진도읍 쌍정리 151-6,4.69005E+11,전라남도 진도군 진도읍 쌍정1길,10,null,4.69003E+24,,전라남도 진도군 진도읍 쌍정1길 10,539802,58926,,null,,126.2667436,34.48037704
MA010120220805459439,한국소방ENG,,G2,소매,G221,기타 상품 소매,G22199,그 외 기타 상품 전문 소매업,G47859,그 외 기타 분류 안된 상품 전문 소매업,46,전라남도,46130,여수시,46130780,쌍봉동,4613012800,학동,4.61301E+18,1,대지,17,31,전라남도 여수시 학동 17-31,4.61303E+11,전라남도 여수시 쌍봉로,128,null,4.61301E+24,,전라남도 여수시 쌍봉로 128,555807,59679,,null,,127.6698015,34.76523903
MA010120220805458910,자연담음·치유공방,,P1,교육,P106,기타 교육,P10625,기타 기술/직업 훈련학원,P85669,기타 기술 및 직업 훈련학원,46,전라남도,46150,순천시,46150570,덕연동,4615011400,연향동,4.61501E+18,1,대지,1483,1,전라남도 순천시 연향동 1483-1,4.61505E+11,전라남도 순천시 하대석길,47,null,4.61501E+24,테마커피,전라남도 순천시 하대석길 47,540975,57986,,null,,127.524615,34.94664117
MA010120220805459349,애호박국밥,,I2,음식,I201,한식,I20102,국/탕/찌개류,I56111,한식 일반 음식점업,46,전라남도,46830,영암군,46830380,학산면,4683038027,학산면,4.68304E+18,1,대지,35,19,전라남도 영암군 학산면 독천리 35-19,4.68303E+11,전라남도 영암군 학산면 독천로,214,null,4.68304E+24,,전라남도 영암군 학산면 독천로 214,526872,58439,,null,,126.5725994,34.72590615
MA010120220805458666,해정수산막회,,I2,음식,I203,일식,I20301,일식 회/초밥,I56122,일식 음식점업,46,전라남도,46150,순천시,46150635,도사동,4615012700,덕월동,4.61501E+18,1,대지,1375,17,전라남도 순천시 덕월동 1375-17,4.61505E+11,전라남도 순천시 덕월길,14,null,4.61501E+24,,전라남도 순천시 덕월길 14,540944,57997,,1,,127.4894492,34.930822
MA010120220805458667,장수국밥,,I2,음식,I201,한식,I20102,국/탕/찌개류,I56111,한식 일반 음식점업,46,전라남도,46230,광양시,46230530,중마동,4623010600,중동,4.62301E+18,1,대지,1385,4,전라남도 광양시 중동 1385-4,4.62305E+11,전라남도 광양시 중마용소5길,4,1,4.62301E+24,,전라남도 광양시 중마용소5길 4-1,545880,57783,,1,,127.6875238,34.94081404
MA010120220805458856,유노이아,,I2,음식,I212,비알코올 ,I21201,카페,I56221,커피 전문점,46,전라남도,46820,해남군,46820310,삼산면,4682031027,삼산면,4.68203E+18,1,대지,146,15,전라남도 해남군 삼산면 구림리 146-15,4.68205E+11,전라남도 해남군 삼산면 대흥사길,108,null,4.68203E+24,그린편의점기념품판매상가,전라남도 해남군 삼산면 대흥사길 108,536811,59047,,null,,126.6194467,34.4968152
MA010120220805458987,K스크린골프그늘집,,I2,음식,I210,기타 간이,I21007,김밥/만두/분식,I56194,김밥 및 기타 간이 음식점업,46,전라남도,46130,여수시,46130800,여천동,4613013700,화장동,4.61301E+18,1,대지,785,13,전라남도 여수시 화장동 785-13,4.61305E+11,전라남도 여수시 성산1길,27,null,4.61301E+24,,전라남도 여수시 성산1길 27,555090,59639,,2,,127.6489288,34.77733282
MA010120220805458873,커피꽃,,I1,숙박,I101,일반 숙박,I10103,펜션,I55104,민박업,46,전라남도,46810,강진군,46810340,도암면,4681034032,도암면,4.68103E+18,1,대지,295,25,전라남도 강진군 도암면 봉황리 295-25,4.68103E+11,전라남도 강진군 도암면 봉황로,616,null,4.68103E+24,,전라남도 강진군 도암면 봉황로 616,527881,59250,,null,,126.6825611,34.53923136
MA010120220805462028,파티,,I2,음식,I210,기타 간이,I21001,빵/도넛,I56191,제과점업,46,전라남도,46870,영광군,46870250,영광읍,4687025022,영광읍,4.68703E+18,1,대지,12,1,전라남도 영광군 영광읍 백학리 12-1,4.68703E+11,전라남도 영광군 영광읍 중앙로,191,null,4.68703E+24,,전라남도 영광군 영광읍 중앙로 191,513807,57044,,2,,126.5119253,35.27603013
MA010120220805461599,목포가자바다로,,I2,음식,I211,주점,I21104,요리 주점,I56219,기타 주점업,46,전라남도,46110,목포시,46110655,만호동,4611010200,산정동,4.61101E+18,1,대지,1454,7,전라남도 목포시 산정동 1454-7,4.61105E+11,전라남도 목포시 삼학로92번길,104,null,4.61101E+24,,전라남도 목포시 삼학로92번길 104,530130,58751,,null,,126.3882356,34.78079864
MA010120220805462255,연향얼음,,G2,소매,G206,음료 소매,G20601,얼음 소매업,G47221,음료 소매업,46,전라남도,46150,순천시,46150570,덕연동,4615011400,연향동,4.61501E+18,1,대지,1502,3,전라남도 순천시 연향동 1502-3,4.61505E+11,전라남도 순천시 대석2길,11,4,4.61501E+24,,전라남도 순천시 대석2길 11-4,540975,57987,,null,,127.5239919,34.94458339
MA010120220805462004,"남진스팀세차,광택",,S2,수리·개인,S203,자동차 수리·세차,S20302,자동차 세차장,S95213,자동차 세차업,46,전라남도,46150,순천시,46150635,도사동,4615012700,덕월동,4.61501E+18,1,대지,472,2,전라남도 순천시 덕월동 472-2,4.61505E+11,전라남도 순천시 지현길,30,null,4.61501E+24,,전라남도 순천시 지현길 30,540944,57997,,1,,127.4894949,34.93581631
MA010120220805461557,수나로움,,P1,교육,P106,기타 교육,P10625,기타 기술/직업 훈련학원,P85669,기타 기술 및 직업 훈련학원,46,전라남도,46150,순천시,46150515,향동,4615010500,행동,4.61501E+18,1,대지,115,null,전라남도 순천시 행동 115,4.61505E+11,전라남도 순천시 행금길,6,33,4.61501E+24,,전라남도 순천시 행금길 6-33,540060,57941,,null,,127.4825495,34.95580844
MA010120220805461807,피커,,G2,소매,G219,식물 소매,G21901,꽃집,G47851,화초 및 식물 소매업,46,전라남도,46110,목포시,46110756,상동,4611016000,석현동,4.61102E+18,1,대지,502,5,전라남도 목포시 석현동 502-5,4.61103E+11,전라남도 목포시 영산로,683,1,4.61102E+24,,전라남도 목포시 영산로 683-1,530828,58607,,1,,126.4217096,34.8260628
MA010120220805460589,뚜레쥬르완도점,,I2,음식,I210,기타 간이,I21001,빵/도넛,I56191,제과점업,46,전라남도,46890,완도군,46890250,완도읍,4689025021,완도읍,4.68903E+18,1,대지,1263,14,전라남도 완도군 완도읍 군내리 1263-14,4.68902E+11,전라남도 완도군 완도읍 장보고대로,237,null,4.68903E+24,,전라남도 완도군 완도읍 장보고대로 237,537800,59120,,null,,126.7513715,34.31641546
MA010120220805460829,휴다움카페,,I2,음식,I212,비알코올 ,I21201,카페,I56229,기타 비알코올 음료점업,46,전라남도,46810,강진군,46810380,병영면,4681038025,병영면,4.68104E+18,1,대지,432,2,전라남도 강진군 병영면 삼인리 432-2,4.68103E+11,전라남도 강진군 병영면 병영성로,80,null,4.68104E+24,,전라남도 강진군 병영면 병영성로 80,527831,59214,,null,,126.8167882,34.71166592
MA010120220805461153,화순돔아일랜드,,I1,숙박,I101,일반 숙박,I10104,캠핑/글램핑,I55109,기타 일반 및 생활 숙박시설 운영업,46,전라남도,46790,화순군,46790250,화순읍,4679025035,화순읍,4.67903E+18,1,대지,578,3,전라남도 화순군 화순읍 벽라리 578-3,4.67903E+11,전라남도 화순군 화순읍 학포로,2653,20,4.67903E+24,황칠나라,전라남도 화순군 화순읍 학포로 2653-20,519801,58149,,null,,126.961292,35.04622586
MA010120220805460961,나이발관,,S2,수리·개인,S207,이용·미용,S20701,미용실,S96111,이용업,46,전라남도,46110,목포시,46110535,연동,4611010200,산정동,4.61101E+18,1,대지,1080,69,전라남도 목포시 산정동 1080-69,4.61105E+11,전라남도 목포시 연동로4번길,13,null,4.61101E+24,,전라남도 목포시 연동로4번길 13,530811,58732,,null,,126.3938961,34.79424988
MA010120220805460556,해암요도예공방,,P1,교육,P106,기타 교육,P10625,기타 기술/직업 훈련학원,P85669,기타 기술 및 직업 훈련학원,46,전라남도,46720,곡성군,46720350,죽곡면,4672035029,죽곡면,4.67204E+18,1,대지,527,null,전라남도 곡성군 죽곡면 유봉리 527,4.67205E+11,전라남도 곡성군 죽곡면 비봉가목길,95,134,4.67204E+24,,전라남도 곡성군 죽곡면 비봉가목길 95-134,516832,57562,,null,,127.3329538,35.14272279
MA010120220805464030,김한나공인중개사사무소,,L1,부동산,L102,부동산 서비스,L10203,부동산 중개/대리업,L68221,부동산 중개 및 대리업,46,전라남도,46820,해남군,46820250,해남읍,4682025036,해남읍,4.68203E+18,1,대지,93,null,전라남도 해남군 해남읍 구교리 93,4.68205E+11,전라남도 해남군 해남읍 구교2길,26,null,4.68203E+24,,전라남도 해남군 해남읍 구교2길 26,536803,59023,,null,,126.5930002,34.57771515
MA010120220805464477,임회주유소,,G2,소매,G214,연료 소매,G21401,주유소,G47711,운송장비용 주유소 운영업,46,전라남도,46900,진도군,46900340,임회면,4690034026,임회면,4.69003E+18,1,대지,236,1,전라남도 진도군 임회면 석교리 236-1,4.69002E+11,전라남도 진도군 임회면 진도대로,5861,null,4.69003E+24,,전라남도 진도군 임회면 진도대로 5861,539841,58942,,null,,126.1939387,34.4103664
MA010120220805464424,해든뷰,,P1,교육,P106,기타 교육,P10607,청소년 수련시설,I55109,기타 일반 및 생활 숙박시설 운영업,46,전라남도,46130,여수시,46130765,만덕동,4613012600,덕충동,4.61301E+18,1,대지,695,1,전라남도 여수시 덕충동 695-1,4.61305E+11,전라남도 여수시 외밭넘2길,10,null,4.61301E+24,,전라남도 여수시 외밭넘2길 10,550811,59723,,null,,127.7477729,34.75628428
MA010120220805463611,대능상사,,G2,소매,G210,철물·건설자재 소매,G21001,철물/공구 소매업,G47512,공구 소매업,46,전라남도,46130,여수시,46130820,삼일동,4613014400,중흥동,4.61301E+18,1,대지,1703,2,전라남도 여수시 중흥동 1703-2,4.61303E+11,전라남도 여수시 여수산단로,724,null,4.61301E+24,,전라남도 여수시 여수산단로 724,555200,59614,,null,,127.6949292,34.8388484
MA010120220805463763,현그라픽스,,M1,과학·기술,M105,광고,M10502,옥외/전시 광고 대행업,M71391,옥외 및 전시 광고업,46,전라남도,46130,여수시,46130790,시전동,4613013300,신기동,4.61301E+18,1,대지,94,10,전라남도 여수시 신기동 94-10,4.61305E+11,전라남도 여수시 시전4길,12,4,4.61301E+24,,전라남도 여수시 시전4길 12-4,555803,59685,,null,,127.6743378,34.75895879
MA010120220805463801,메가MGC커피나주대호점,,I2,음식,I212,비알코올 ,I21201,카페,I56221,커피 전문점,46,전라남도,46170,나주시,46170550,성북동,4617011600,대호동,4.61701E+18,1,대지,1031,2,전라남도 나주시 대호동 1031-2,4.61705E+11,전라남도 나주시 대호길,83,null,4.61701E+24,,전라남도 나주시 대호길 83,520050,58244,,1,,126.7173286,35.04266595
MA010120220805463816,무안골프샵,,G2,소매,G213,오락용품 소매,G21304,운동용품 소매업,G47631,운동 및 경기용품 소매업,46,전라남도,46840,무안군,46840330,청계면,4684033030,청계면,4.68403E+18,1,대지,816,1,전라남도 무안군 청계면 도대리 816-1,4.68403E+11,전라남도 무안군 청계면 서호로,162,null,4.68403E+24,무안컨트리클럽,전라남도 무안군 청계면 서호로 162,534831,58540,,1,,126.4011501,34.96599208
MA010120220805463691,부킹노래연습장,,R1,예술·스포츠,R104,유원지·오락,R10407,노래방,R91223,노래 연습장 운영업,46,전라남도,46710,담양군,46710340,창평면,4671034022,창평면,4.67103E+18,1,대지,50,null,전라남도 담양군 창평면 삼천리 50,4.67103E+11,전라남도 담양군 창평면 의병로,213,null,4.67103E+24,,전라남도 담양군 창평면 의병로 213,517882,57389,,2,,127.0227384,35.24182681
MA010120220805463506,신깐부포차,,I2,음식,I211,주점,I21104,요리 주점,I56219,기타 주점업,46,전라남도,46110,목포시,46110756,상동,4611015800,상동,4.61102E+18,1,대지,1187,null,전라남도 목포시 상동 1187,4.61105E+11,전라남도 목포시 영산로565번길,23,null,4.61102E+24,상동광신프로그레스,전라남도 목포시 영산로565번길 23,530390,58617,,null,,126.4171485,34.81593519
MA010120220805462910,진바이크&바로고,,N1,시설관리·임대,N109,운송장비 대여,N10999,기타 운송장비 대여업,N76190,기타 운송장비 임대업,46,전라남도,46150,순천시,46150560,조곡동,4615011100,조곡동,4.61501E+18,1,대지,242,22,전라남도 순천시 조곡동 242-22,4.61503E+11,전라남도 순천시 이수로,93,null,4.61501E+24,,전라남도 순천시 이수로 93,540963,57955,,null,,127.496961,34.95008158
MA010120220805462790,온드뷰티,,S2,수리·개인,S207,이용·미용,S20703,네일숍,S96119,기타 미용업,46,전라남도,46130,여수시,46130790,시전동,4613013400,웅천동,4.61301E+18,1,대지,1708,1,전라남도 여수시 웅천동 1708-1,4.61305E+11,전라남도 여수시 웅남4길,46,null,4.61301E+24,,전라남도 여수시 웅남4길 46,555030,59692,,1,,127.6771711,34.74666086
MA010120220805463040,파우제키즈풀빌라A,,I1,숙박,I101,일반 숙박,I10103,펜션,I55104,민박업,46,전라남도,46130,여수시,46130820,삼일동,4613015000,상암동,4.61302E+18,1,대지,2089,null,전라남도 여수시 상암동 2089,4.61303E+11,전라남도 여수시 상암로,612,null,4.61302E+24,,전라남도 여수시 상암로 612,555230,59619,,null,,127.7324908,34.82418842
MA010120220805463484,루미51,,I2,음식,I210,기타 간이,I21003,피자,I56192,"피자, 햄버거, 샌드위치 및 유사 음식점업",46,전라남도,46790,화순군,46790250,화순읍,4679025021,화순읍,4.67903E+18,1,대지,95,10,전라남도 화순군 화순읍 교리 95-10,4.67903E+11,전라남도 화순군 화순읍 대교로,51,null,4.67903E+24,,전라남도 화순군 화순읍 대교로 51,519804,58112,,1,,126.9849731,35.06349903
MA010120220805462806,히어로,,I2,음식,I201,한식,I20101,백반/한정식,I56111,한식 일반 음식점업,46,전라남도,46130,여수시,46130780,쌍봉동,4613012800,학동,4.61301E+18,1,대지,54,null,전라남도 여수시 학동 54,4.61303E+11,전라남도 여수시 무선로,50,null,4.61301E+24,신동아파밀리에아파트,전라남도 여수시 무선로 50,555704,59672,,null,,127.6566334,34.76630244
MA010120220805462764,장수부동산공인중개사사무소,,L1,부동산,L102,부동산 서비스,L10203,부동산 중개/대리업,L68221,부동산 중개 및 대리업,46,전라남도,46840,무안군,46840256,삼향읍,4684025623,삼향읍,4.68403E+18,1,대지,298,3,전라남도 무안군 삼향읍 용포리 298-3,4.68403E+11,전라남도 무안군 삼향읍 삼일로,243,null,4.68403E+24,장수통닭,전라남도 무안군 삼향읍 삼일로 243,534829,58562,,null,,126.472947,34.83647876
MA010120220805463397,우리종합부동산공인중개사사무소,,L1,부동산,L102,부동산 서비스,L10203,부동산 중개/대리업,L68221,부동산 중개 및 대리업,46,전라남도,46150,순천시,46150590,남제동,4615011600,남정동,4.61501E+18,1,대지,555,35,전라남도 순천시 남정동 555-35,4.61505E+11,전라남도 순천시 장평4길,110,null,4.61501E+24,제주우유,전라남도 순천시 장평4길 110,540942,57959,,null,,127.4919973,34.94184859
MA010120220805465875,닥터베이연구소,,M1,과학·기술,M112,전문 디자인,M11201,인테리어 디자인업,M73201,인테리어 디자인업,46,전라남도,46170,나주시,46170620,빛가람동,4617013400,빛가람동,4.61701E+18,1,대지,336,6,전라남도 나주시 빛가람동 336-6,4.61705E+11,전라남도 나주시 중야2길,8,null,4.61701E+24,,전라남도 나주시 중야2길 8,520350,58325,,null,,126.7844866,35.01567558
MA010120220805466009,에스와이에스리테일,,G2,소매,G208,가전·통신 소매,G20803,가전제품 소매업,G47320,가전제품 소매업,46,전라남도,46150,순천시,46150570,덕연동,4615011400,연향동,4.61501E+18,1,대지,417,4,전라남도 순천시 연향동 417-4,4.61503E+11,전라남도 순천시 충효로,77,null,4.61501E+24,"신일주유소,캐노피",전라남도 순천시 충효로 77,540951,57991,,null,,127.5138907,34.94581446
MA010120220805466315,성목산업,,N1,시설관리·임대,N109,운송장비 대여,N10999,기타 운송장비 대여업,N76190,기타 운송장비 임대업,46,전라남도,46830,영암군,46830253,삼호읍,4683025329,삼호읍,4.68303E+18,1,대지,932,null,전라남도 영암군 삼호읍 용당리 932,4.68303E+11,전라남도 영암군 삼호읍 대불로,184,null,4.68303E+24,,전라남도 영암군 삼호읍 대불로 184,526896,58450,,null,,126.3870736,34.74675625
MA010120220805465601,춘짜장,,I2,음식,I202,중식,I20201,중국집,I56121,중식 음식점업,46,전라남도,46730,구례군,46730250,구례읍,4673025030,구례읍,4.67303E+18,1,대지,375,5,전라남도 구례군 구례읍 봉북리 375-5,4.67305E+11,전라남도 구례군 구례읍 구례1길,79,null,4.67303E+24,,전라남도 구례군 구례읍 구례1길 79,542802,57644,,null,,127.4659889,35.21240441
MA010120220805466305,오덕태양광,,M1,과학·기술,M109,기술 서비스,M10999,기타 엔지니어링 서비스업,M71531,경영 컨설팅업,46,전라남도,46170,나주시,46170620,빛가람동,4617013400,빛가람동,4.61701E+18,1,대지,353,1,전라남도 나주시 빛가람동 353-1,4.61705E+11,전라남도 나주시 교육길,13,null,4.61701E+24,스마트파크지식산업센터,전라남도 나주시 교육길 13,520350,58326,,4,,126.781081,35.02071628
MA010120220805465267,수나그림공방,,P1,교육,P106,기타 교육,P10625,기타 기술/직업 훈련학원,P85669,기타 기술 및 직업 훈련학원,46,전라남도,46130,여수시,46130800,여천동,4613013700,화장동,4.61301E+18,1,대지,739,8,전라남도 여수시 화장동 739-8,4.61305E+11,전라남도 여수시 화산1길,34,null,4.61301E+24,,전라남도 여수시 화산1길 34,555090,59641,,null,,127.6464821,34.77205199
MA010120220805465228,연,,I2,음식,I201,한식,I20107,돼지고기 구이/찜,I56113,한식 육류 요리 전문점,46,전라남도,46900,진도군,46900250,진도읍,4690025025,진도읍,4.69003E+18,1,대지,513,6,전라남도 진도군 진도읍 남동리 513-6,4.69005E+11,전라남도 진도군 진도읍 남동3길,4,15,4.69003E+24,,전라남도 진도군 진도읍 남동3길 4-15,539802,58921,,1,,126.2631866,34.48183187
MA010120220805464735,쌍둥이네인테리어,,M1,과학·기술,M112,전문 디자인,M11201,인테리어 디자인업,F42412,"도배, 실내 장식 및 내장 목공사업",46,전라남도,46810,강진군,46810360,성전면,4681036022,성전면,4.68104E+18,1,대지,1011,2,전라남도 강진군 성전면 월하리 1011-2,4.68105E+11,전라남도 강진군 성전면 녹향월촌길,281,null,4.68104E+24,,전라남도 강진군 성전면 녹향월촌길 281,527813,59201,,null,,126.6899439,34.72187026
MA010120220805465428,신크린하우스,,S2,수리·개인,S209,세탁,S20901,세탁소,S96912,가정용 세탁업,46,전라남도,46230,광양시,46230250,광양읍,4623025022,광양읍,4.62303E+18,1,대지,811,9,전라남도 광양시 광양읍 구산리 811-9,4.62303E+11,전라남도 광양시 광양읍 서평로,31,null,4.62303E+24,,전라남도 광양시 광양읍 서평로 31,545808,57737,,1,,127.5764284,34.97723029
MA010120220805465046,한줄애김밥여수웅천점,,I2,음식,I210,기타 간이,I21007,김밥/만두/분식,I56194,김밥 및 기타 간이 음식점업,46,전라남도,46130,여수시,46130790,시전동,4613013400,웅천동,4.61301E+18,1,대지,1851,null,전라남도 여수시 웅천동 1851,4.61303E+11,전라남도 여수시 웅천로,189,null,4.61301E+24,여수웅천부영1차,전라남도 여수시 웅천로 189,555030,59694,,null,,127.6839414,34.74125157
MA010120220805465050,에스쏠레지아LF스퀘어,,G2,소매,G209,섬유·의복·신발 소매,G20902,여성 의류 소매업,G47412,여자용 겉옷 소매업,46,전라남도,46230,광양시,46230250,광양읍,4623025035,광양읍,4.62303E+18,1,대지,1834,null,전라남도 광양시 광양읍 덕례리 1834,4.62303E+11,전라남도 광양시 광양읍 순광로,466,null,4.62303E+24,광양LF스퀘어,전라남도 광양시 광양읍 순광로 466,545802,57764,,2,,127.5658644,34.96176893
MA010120220805465231,씨유영암삼호원룸점,,G2,소매,G204,종합 소매,G20405,편의점,G47122,체인화 편의점,46,전라남도,46830,영암군,46830253,삼호읍,4683025329,삼호읍,4.68303E+18,1,대지,1924,4,전라남도 영암군 삼호읍 용당리 1924-4,4.68303E+11,전라남도 영암군 삼호읍 신항로,120,9,4.68303E+24,,전라남도 영암군 삼호읍 신항로 120-9,526896,58449,,null,,126.376319,34.7488938
MA010120220805465208,황제식당,,I2,음식,I201,한식,I20107,돼지고기 구이/찜,I56113,한식 육류 요리 전문점,46,전라남도,46130,여수시,46130710,문수동,4613012000,문수동,4.61301E+18,1,대지,44,10,전라남도 여수시 문수동 44-10,4.61305E+11,전라남도 여수시 문수북2길,6,null,4.61301E+24,,전라남도 여수시 문수북2길 6,550816,59699,,null,,127.7084243,34.76048757
MA010120220805467999,하림맥시칸,,I2,음식,I210,기타 간이,I21006,치킨,I56193,치킨 전문점,46,전라남도,46820,해남군,46820250,해남읍,4682025022,해남읍,4.68203E+18,1,대지,73,null,전라남도 해남군 해남읍 평동리 73,4.68205E+11,전라남도 해남군 해남읍 천변1길,18,null,4.68203E+24,하림맥시칸치킨해남점,전라남도 해남군 해남읍 천변1길 18,536801,59037,,null,,126.5992339,34.56993536
MA010120220805467953,불루술통,,I2,음식,I211,주점,I21104,요리 주점,I56219,기타 주점업,46,전라남도,46110,목포시,46110558,원산동,4611010200,산정동,4.61101E+18,1,대지,1726,null,전라남도 목포시 산정동 1726,4.61105E+11,전라남도 목포시 죽산로40번길,12,1,4.61101E+24,초원상아맨션,전라남도 목포시 죽산로40번길 12-1,530810,58637,,null,,126.3768137,34.81062647
MA010120220805468032,한울이발관,,S2,수리·개인,S207,이용·미용,S20701,미용실,S96111,이용업,46,전라남도,46110,목포시,46110545,산정동,4611010200,산정동,4.61101E+18,1,대지,253,11,전라남도 목포시 산정동 253-11,4.61103E+11,전라남도 목포시 양을로,116,7,4.61101E+24,,전라남도 목포시 양을로 116-7,530808,58648,,null,,126.3857059,34.80689592
MA010120220805467804,디자인그리다,,M1,과학·기술,M114,인쇄·제품제작,M11401,명함/간판/광고물 제작,N75999,그 외 기타 분류 안된 사업 지원 서비스업,46,전라남도,46130,여수시,46130800,여천동,4613013700,화장동,4.61301E+18,1,대지,867,5,전라남도 여수시 화장동 867-5,4.61305E+11,전라남도 여수시 대통2길,33,null,4.61301E+24,,전라남도 여수시 대통2길 33,555090,59637,,null,,127.6410413,34.7745873
MA010120220805466908,왁골프,,G2,소매,G213,오락용품 소매,G21304,운동용품 소매업,G47631,운동 및 경기용품 소매업,46,전라남도,46150,순천시,46150570,덕연동,4615011400,연향동,4.61501E+18,1,대지,1321,9,전라남도 순천시 연향동 1321-9,4.61505E+11,전라남도 순천시 연향번영길,127,null,4.61501E+24,PING골프순천연향점,전라남도 순천시 연향번영길 127,540952,57967,,null,,127.5178745,34.95164478
MA010120220805467068,덕이네김치집,,G2,소매,G205,식료품 소매,G20509,반찬/식료품 소매업,G47218,조리 반찬류 소매업,46,전라남도,46110,목포시,46110558,원산동,4611010200,산정동,4.61101E+18,1,대지,1721,5,전라남도 목포시 산정동 1721-5,4.61105E+11,전라남도 목포시 죽산로16번길,17,null,4.61101E+24,,전라남도 목포시 죽산로16번길 17,530810,58636,,1,,126.3786706,34.80956057
MA010120220805467333,장수수산,,G2,소매,G205,식료품 소매,G20505,수산물 소매업,G47214,"신선, 냉동 및 기타 수산물 소매업",46,전라남도,46870,영광군,46870370,법성면,4687037029,법성면,4.68704E+18,1,대지,873,4,전라남도 영광군 법성면 용성리 873-4,4.68705E+11,전라남도 영광군 법성면 신장길5길,125,null,4.68704E+24,,전라남도 영광군 법성면 신장길5길 125,513874,57020,,null,,126.4847759,35.34567128
MA010120220805469931,제작소쥬,,M1,과학·기술,M109,기술 서비스,M10901,건축 설계 및 관련 서비스업,M72111,건축 설계 및 관련 서비스업,46,전라남도,46130,여수시,46130570,중앙동,4613010700,중앙동,4.61301E+18,1,대지,424,2,전라남도 여수시 중앙동 424-2,4.61303E+11,전라남도 여수시 중앙로,81,null,4.61301E+24,,전라남도 여수시 중앙로 81,550060,59737,,2,,127.736574,34.73996141
MA010120220805470542,주원인테리어,,M1,과학·기술,M112,전문 디자인,M11201,인테리어 디자인업,F42412,"도배, 실내 장식 및 내장 목공사업",46,전라남도,46130,여수시,46130800,여천동,4613013700,화장동,4.61301E+18,1,대지,772,20,전라남도 여수시 화장동 772-20,4.61303E+11,전라남도 여수시 화산로,27,null,4.61301E+24,,전라남도 여수시 화산로 27,555090,59642,,null,,127.6416418,34.77216405
MA010120220805470310,조은모바일,,G2,소매,G208,가전·통신 소매,G20802,핸드폰 소매업,G47312,통신기기 소매업,46,전라남도,46150,순천시,46150661,왕조1동,4615013200,왕지동,4.61501E+18,1,대지,765,3,전라남도 순천시 왕지동 765-3,4.61505E+11,전라남도 순천시 왕지5길,11,null,4.61501E+24,,전라남도 순천시 왕지5길 11,540330,57930,,null,,127.523646,34.97220288
MA010120220805470488,우리할매떡볶이목포,,I2,음식,I210,기타 간이,I21007,김밥/만두/분식,I56194,김밥 및 기타 간이 음식점업,46,전라남도,46840,무안군,46840256,삼향읍,4684025622,삼향읍,4.68403E+18,1,대지,2105,null,전라남도 무안군 삼향읍 남악리 2105,4.68403E+11,전라남도 무안군 삼향읍 남악3로,55,null,4.68403E+24,펠리시티3차,전라남도 무안군 삼향읍 남악3로 55,534821,58566,,null,,126.4598009,34.81035324
MA010120220805470490,코너,,I2,음식,I210,기타 간이,I21007,김밥/만두/분식,I56194,김밥 및 기타 간이 음식점업,46,전라남도,46830,영암군,46830253,삼호읍,4683025326,삼호읍,4.68303E+18,1,대지,1647,10,전라남도 영암군 삼호읍 용앙리 1647-10,4.68305E+11,전라남도 영암군 삼호읍 대불주거7로10길,5,null,4.68303E+24,,전라남도 영암군 삼호읍 대불주거7로10길 5,526897,58456,,1,,126.4528622,34.75588466
MA010120220805470058,자금성,,I2,음식,I202,중식,I20201,중국집,I56121,중식 음식점업,46,전라남도,46860,함평군,46860310,손불면,4686031025,손불면,4.68603E+18,1,대지,678,5,전라남도 함평군 손불면 대전리 678-5,4.68603E+11,전라남도 함평군 손불면 손무로,765,6,4.68603E+24,,전라남도 함평군 손불면 손무로 765-6,525842,57110,,null,,126.4300938,35.14213181
MA010120220805468647,희망공인중개사사무소,,L1,부동산,L102,부동산 서비스,L10203,부동산 중개/대리업,L68221,부동산 중개 및 대리업,46,전라남도,46130,여수시,46130685,월호동,4613011800,신월동,4.61301E+18,1,대지,100,8,전라남도 여수시 신월동 100-8,4.61303E+11,전라남도 여수시 신월로,573,null,4.61301E+24,,전라남도 여수시 신월로 573,550190,59760,,null,,127.7095752,34.72502521
MA010120220805468633,보보노래연습장,,R1,예술·스포츠,R104,유원지·오락,R10407,노래방,R91223,노래 연습장 운영업,46,전라남도,46130,여수시,46130600,충무동,4613011000,충무동,4.61301E+18,1,대지,465,null,전라남도 여수시 충무동 465,4.61303E+11,전라남도 여수시 충무로,58,19,4.61301E+24,,전라남도 여수시 충무로 58-19,550100,59732,,2,,127.731697,34.741889
MA010120220805468772,유정치킨,,I2,음식,I210,기타 간이,I21006,치킨,I56193,치킨 전문점,46,전라남도,46840,무안군,46840250,무안읍,4684025021,무안읍,4.68403E+18,1,대지,21,6,전라남도 무안군 무안읍 성내리 21-6,4.68403E+11,전라남도 무안군 무안읍 승달로,11,null,4.68403E+24,,전라남도 무안군 무안읍 승달로 11,534802,58522,,1,,126.472457,34.99347314
MA010120220805469452,순이네,,G2,소매,G204,종합 소매,G20404,슈퍼마켓,G47216,"빵류, 과자류 및 당류 소매업",46,전라남도,46150,순천시,46150360,송광면,4615036032,송광면,4.61504E+18,1,대지,1269,null,전라남도 순천시 송광면 이읍리 1269,4.61505E+11,전라남도 순천시 송광면 이읍1길,54,null,4.61504E+24,,전라남도 순천시 송광면 이읍1길 54,540932,57914,,null,,127.2677818,34.97162387
MA010120220805469268,뽀데나,,G2,소매,G209,섬유·의복·신발 소매,G20902,여성 의류 소매업,G47412,여자용 겉옷 소매업,46,전라남도,46780,보성군,46780253,벌교읍,4678025321,벌교읍,4.67803E+18,1,대지,625,29,전라남도 보성군 벌교읍 벌교리 625-29,4.67805E+11,전라남도 보성군 벌교읍 태백산맥길,12,null,4.67803E+24,,전라남도 보성군 벌교읍 태백산맥길 12,546905,59425,,1,,127.343645,34.84328381
MA010120220805468663,다시석재,,S2,수리·개인,S210,장례식장 ,S21002,화장터/묘지/납골당,S96922,"화장터 운영, 묘지 분양 및 관리업",46,전라남도,46170,나주시,46170360,다시면,4617036022,다시면,4.61704E+18,1,대지,153,1,전라남도 나주시 다시면 월태리 153-1,4.61705E+11,전라남도 나주시 다시면 원동길,1,null,4.61704E+24,다시석재,전라남도 나주시 다시면 원동길 1,520934,58203,,null,,126.6460355,35.01795968
MA010120220805468781,씨유순천,,G2,소매,G204,종합 소매,G20405,편의점,G47122,체인화 편의점,46,전라남도,46150,순천시,46150610,장천동,4615011900,장천동,4.61501E+18,1,대지,46,7,전라남도 순천시 장천동 46-7,4.61503E+11,전라남도 순천시 장명로,37,null,4.61501E+24,상가,전라남도 순천시 장명로 37,540959,57956,,null,,127.4880641,34.9511442
MA010120220805472072,담양숯불갈비,,I2,음식,I201,한식,I20107,돼지고기 구이/찜,I56113,한식 육류 요리 전문점,46,전라남도,46900,진도군,46900250,진도읍,4690025022,진도읍,4.69003E+18,1,대지,257,26,전라남도 진도군 진도읍 쌍정리 257-26,4.69005E+11,전라남도 진도군 진도읍 쌍정1길,6,8,4.69003E+24,,전라남도 진도군 진도읍 쌍정1길 6-8,539802,58926,,null,,126.2658336,34.48016582
MA010120220805472183,염대감나주곰탕,,I2,음식,I201,한식,I20102,국/탕/찌개류,I56111,한식 일반 음식점업,46,전라남도,46110,목포시,46110554,연산동,4611010300,연산동,4.61101E+18,1,대지,1951,1,전라남도 목포시 연산동 1951-1,4.61105E+11,전라남도 목포시 연산백련로31번길,2,3,4.61101E+24,,전라남도 목포시 연산백련로31번길 2-3,530370,58763,,null,,126.3900267,34.817355
MA010120220805472272,뉴그린,,M1,과학·기술,M107,본사·경영 컨설팅,M10703,경영 컨설팅업,M71531,경영 컨설팅업,46,전라남도,46800,장흥군,46800253,관산읍,4680025326,관산읍,4.68003E+18,1,대지,737,4,전라남도 장흥군 관산읍 옥당리 737-4,4.68003E+11,전라남도 장흥군 관산읍 칠관로,1486,null,4.68003E+24,,전라남도 장흥군 관산읍 칠관로 1486,529875,59350,,null,,126.9291677,34.56358493
MA010120220805472325,홍,,I2,음식,I211,주점,I21104,요리 주점,I56219,기타 주점업,46,전라남도,46110,목포시,46110558,원산동,4611010200,산정동,4.61101E+18,1,대지,1733,11,전라남도 목포시 산정동 1733-11,4.61105E+11,전라남도 목포시 연산로159번길,28,null,4.61101E+24,,전라남도 목포시 연산로159번길 28,530810,58636,,1,,126.3775951,34.80923076
MA010120220805472426,초원장,,I1,숙박,I101,일반 숙박,I10102,여관/모텔,I55102,여관업,46,전라남도,46130,여수시,46130655,대교동,4613011500,봉산동,4.61301E+18,1,대지,255,19,전라남도 여수시 봉산동 255-19,4.61305E+11,전라남도 여수시 봉산남2길,23,22,4.61301E+24,,전라남도 여수시 봉산남2길 23-22,550818,59762,,null,,127.7234524,34.73509125
MA010120220805471412,아이비스PC방조례점,,R1,예술·스포츠,R104,유원지·오락,R10406,PC방,R91222,컴퓨터 게임방 운영업,46,전라남도,46150,순천시,46150661,왕조1동,4615013300,조례동,4.61501E+18,1,대지,1722,1,전라남도 순천시 조례동 1722-1,4.61505E+11,전라남도 순천시 남신월길,2,null,4.61501E+24,소호빌딩,전라남도 순천시 남신월길 2,540978,57949,,3,,127.5189103,34.95426313
MA010120220805471046,윤와인,,G2,소매,G206,음료 소매,G20602,주류 소매업,G47221,음료 소매업,46,전라남도,46150,순천시,46150610,장천동,4615011900,장천동,4.61501E+18,1,대지,5,5,전라남도 순천시 장천동 5-5,4.61503E+11,전라남도 순천시 강남로,68,null,4.61501E+24,대성쎌틱보일러,전라남도 순천시 강남로 68,540959,57956,,2,,127.4903607,34.95157754
MA010120220805471423,본가맛집,,I2,음식,I201,한식,I20101,백반/한정식,I56111,한식 일반 음식점업,46,전라남도,46870,영광군,46870370,법성면,4687037022,법성면,4.68704E+18,1,대지,1216,15,전라남도 영광군 법성면 법성리 1216-15,4.68703E+11,전라남도 영광군 법성면 법성포로,23,13,4.68704E+24,,전라남도 영광군 법성면 법성포로 23-13,513873,57012,,null,,126.4413382,35.35981015
MA010120220805471255,보성의료기,,G2,소매,G215,의약·화장품 소매,G21502,의료기기 소매업,G47812,의료용 기구 소매업,46,전라남도,46780,보성군,46780250,보성읍,4678025021,보성읍,4.67803E+18,1,대지,830,3,전라남도 보성군 보성읍 보성리 830-3,4.67803E+11,전라남도 보성군 보성읍 송재로,157,null,4.67803E+24,,전라남도 보성군 보성읍 송재로 157,546802,59455,,null,,127.0797417,34.77015117
MA010120220805473928,안양슈퍼,,G2,소매,G204,종합 소매,G20404,슈퍼마켓,G47129,기타 음ㆍ식료품 위주 종합 소매업,46,전라남도,46800,장흥군,46800320,안양면,4680032023,안양면,4.68003E+18,1,대지,884,2,전라남도 장흥군 안양면 당암리 884-2,4.68003E+11,전라남도 장흥군 안양면 남부관광로,593,null,4.68003E+24,,전라남도 장흥군 안양면 남부관광로 593,529851,59338,,null,,126.9622546,34.65884089
MA010120220805473630,하멜호스텔,,I1,숙박,I101,일반 숙박,I10102,여관/모텔,I55109,기타 일반 및 생활 숙박시설 운영업,46,전라남도,46130,여수시,46130515,동문동,4613010100,종화동,4.61301E+18,1,대지,544,2,전라남도 여수시 종화동 544-2,4.61305E+11,전라남도 여수시 고소3길,92,null,4.61301E+24,,전라남도 여수시 고소3길 92,550040,59740,,null,,127.7442093,34.73942776
MA010120220805474025,짜장나라,,I2,음식,I202,중식,I20201,중국집,I56121,중식 음식점업,46,전라남도,46170,나주시,46170360,다시면,4617036022,다시면,4.61704E+18,1,대지,42,6,전라남도 나주시 다시면 월태리 42-6,4.61703E+11,전라남도 나주시 다시면 백호로,97,null,4.61704E+24,짜장나라,전라남도 나주시 다시면 백호로 97,520934,58280,,null,,126.6482036,35.01071873
MA010120220805472885,와플대학해남캠퍼스,,I2,음식,I210,기타 간이,I21001,빵/도넛,I56199,간이 음식 포장 판매 전문점,46,전라남도,46820,해남군,46820250,해남읍,4682025026,해남읍,4.68203E+18,1,대지,17,4,전라남도 해남군 해남읍 성내리 17-4,4.68203E+11,전라남도 해남군 해남읍 중앙1로,139,null,4.68203E+24,국제반점,전라남도 해남군 해남읍 중앙1로 139,536807,59036,,null,,126.5996853,34.5716082
MA010120220805472888,인서리커피,,I2,음식,I212,비알코올 ,I21201,카페,I56221,커피 전문점,46,전라남도,46230,광양시,46230250,광양읍,4623025032,광양읍,4.62303E+18,1,대지,457,1,전라남도 광양시 광양읍 인서리 457-1,4.62305E+11,전라남도 광양시 광양읍 인서중앙길,30,null,4.62303E+24,,전라남도 광양시 광양읍 인서중앙길 30,545808,57756,,1,,127.5851508,34.96984135
MA010120220805473032,그린테크,,G2,소매,G209,섬유·의복·신발 소매,G20905,기타 의류 소매업,G47419,기타 의복 소매업,46,전라남도,46170,나주시,46170550,성북동,4617011500,중앙동,4.61701E+18,1,대지,33,7,전라남도 나주시 중앙동 33-7,4.61703E+11,전라남도 나주시 나주로,159,null,4.61701E+24,,전라남도 나주시 나주로 159,520050,58256,,null,,126.7183874,35.03241937
MA010120220805473477,엄마찬장,,I2,음식,I201,한식,I20101,백반/한정식,I56111,한식 일반 음식점업,46,전라남도,46150,순천시,46150665,왕조2동,4615013300,조례동,4.61501E+18,1,대지,1628,5,전라남도 순천시 조례동 1628-5,4.61505E+11,전라남도 순천시 장선배기길,152,null,4.61501E+24,무지개웅변예능선교원,전라남도 순천시 장선배기길 152,540977,57974,,null,,127.5297107,34.95155596
MA010120220805472992,서진철물,,G2,소매,G210,철물·건설자재 소매,G21001,철물/공구 소매업,G47511,철물 및 난방용구 소매업,46,전라남도,46130,여수시,46130250,돌산읍,4613025021,돌산읍,4.61303E+18,1,대지,583,1,전라남도 여수시 돌산읍 군내리 583-1,4.61305E+11,전라남도 여수시 돌산읍 남외길,24,null,4.61303E+24,,전라남도 여수시 돌산읍 남외길 24,556902,59777,,null,,127.7210617,34.61439124
MA010120220805476444,고려적산건축사사무소,,M1,과학·기술,M109,기술 서비스,M10901,건축 설계 및 관련 서비스업,M72111,건축 설계 및 관련 서비스업,46,전라남도,46150,순천시,46150610,장천동,4615011900,장천동,4.61501E+18,1,대지,51,1,전라남도 순천시 장천동 51-1,4.61505E+11,전라남도 순천시 장명2길,4,null,4.61501E+24,남흥회관,전라남도 순천시 장명2길 4,540959,57956,,null,,127.4867491,34.95132796
MA010120220805476206,숲길구례센터,,N1,시설관리·임대,N105,여행사·보조,N10599,기타 여행 보조/예약 서비스업,N75290,기타 여행 보조 및 예약 서비스업,46,전라남도,46730,구례군,46730250,구례읍,4673025030,구례읍,4.67303E+18,1,대지,1423,1,전라남도 구례군 구례읍 봉북리 1423-1,4.67303E+11,전라남도 구례군 구례읍 서시천로,90,11,4.67303E+24,,전라남도 구례군 구례읍 서시천로 90-11,542802,57635,,null,,127.4682215,35.21701149
MA010120220805475197,"푸라닭순천연향,조례점",,I2,음식,I210,기타 간이,I21006,치킨,I56193,치킨 전문점,46,전라남도,46150,순천시,46150665,왕조2동,4615013300,조례동,4.61501E+18,1,대지,1599,5,전라남도 순천시 조례동 1599-5,4.61505E+11,전라남도 순천시 장선배기길,14,null,4.61501E+24,푸라닭,전라남도 순천시 장선배기길 14,540968,57975,,null,,127.523901,34.95274129
MA010120220805474758,누룽지,,I2,음식,I201,한식,I20101,백반/한정식,I56111,한식 일반 음식점업,46,전라남도,46710,담양군,46710380,용면,4671038028,용면,4.67104E+18,1,대지,95,6,전라남도 담양군 용면 용치리 95-6,4.67103E+11,전라남도 담양군 용면 추월산로,1316,null,4.67104E+24,,전라남도 담양군 용면 추월산로 1316,517821,57300,,null,,126.9991239,35.42674863
MA010120220805475389,대박컬렉션,,G2,소매,G209,섬유·의복·신발 소매,G20902,여성 의류 소매업,G47412,여자용 겉옷 소매업,46,전라남도,46130,여수시,46130635,서강동,4613011300,서교동,4.61301E+18,1,대지,568,null,전라남도 여수시 서교동 568,4.61303E+11,전라남도 여수시 중앙로,3,3,4.61301E+24,,전라남도 여수시 중앙로 3-3,550130,59752,,null,,127.7280639,34.74078111
MA010120220805475332,한국체대골프아카데미,,R1,예술·스포츠,R103,스포츠 서비스,R10311,골프 연습장,R91136,골프 연습장 운영업,46,전라남도,46150,순천시,46150570,덕연동,4615011400,연향동,4.61501E+18,1,대지,1318,2,전라남도 순천시 연향동 1318-2,4.61503E+11,전라남도 순천시 충효로,138,null,4.61501E+24,,전라남도 순천시 충효로 138,540952,57967,,2,,127.516433,34.95101704
MA010120220805474718,슬기로운맥주창,,G2,소매,G204,종합 소매,G20404,슈퍼마켓,G47129,기타 음ㆍ식료품 위주 종합 소매업,46,전라남도,46150,순천시,46150310,해룡면,4615031022,해룡면,4.61503E+18,1,대지,1974,4,전라남도 순천시 해룡면 신대리 1974-4,4.61503E+11,전라남도 순천시 해룡면 매안로,157,null,4.61503E+24,,전라남도 순천시 해룡면 매안로 157,540853,58012,,1,,127.5485518,34.93588783
MA010120220805474904,아이비스튜디오,,M1,과학·기술,M113,사진 촬영,M11301,사진촬영업,M73301,인물 사진 및 행사용 영상 촬영업,46,전라남도,46110,목포시,46110595,목원동,4611011600,상락동2가,4.61101E+18,1,대지,11,10,전라남도 목포시 상락동2가 11-10,4.61103E+11,전라남도 목포시 영산로,79,null,4.61101E+24,,전라남도 목포시 영산로 79,530252,58728,,null,,126.3851348,34.78967213
MA010120220805474658,칸,,I2,음식,I201,한식,I20101,백반/한정식,I56111,한식 일반 음식점업,46,전라남도,46110,목포시,46110800,부흥동,4611016400,옥암동,4.61102E+18,1,대지,1035,8,전라남도 목포시 옥암동 1035-8,4.61103E+11,전라남도 목포시 하당남부로,86,null,4.61102E+24,,전라남도 목포시 하당남부로 86,530847,58687,,null,,126.4333057,34.80131665
MA010120220805474801,순천만뜰펜션,,I1,숙박,I101,일반 숙박,I10103,펜션,I55102,여관업,46,전라남도,46150,순천시,46150635,도사동,4615012400,대룡동,4.61501E+18,1,대지,126,6,전라남도 순천시 대룡동 126-6,4.61505E+11,전라남도 순천시 동너리길,118,null,4.61501E+24,,전라남도 순천시 동너리길 118,540250,58027,,null,,127.5037927,34.90465769
MA010120220805478108,씨유목포상동주공점,,G2,소매,G204,종합 소매,G20405,편의점,G47122,체인화 편의점,46,전라남도,46110,목포시,46110756,상동,4611015800,상동,4.61102E+18,1,대지,745,1,전라남도 목포시 상동 745-1,4.61105E+11,전라남도 목포시 상리로15번길,25,null,4.61102E+24,,전라남도 목포시 상리로15번길 25,530824,58642,,1,,126.4148565,34.81405753
MA010120220805476715,일양엔지니어링,,N1,시설관리·임대,N101,시설관리,N10101,사업시설 유지·관리 서비스업,N74100,사업시설 유지ㆍ관리 서비스업,46,전라남도,46110,목포시,46110800,부흥동,4611016400,옥암동,4.61102E+18,1,대지,1099,15,전라남도 목포시 옥암동 1099-15,4.61103E+11,전라남도 목포시 미항로,191,4,4.61102E+24,,전라남도 목포시 미항로 191-4,530847,58746,,null,,126.4380959,34.79879127
MA010120220805477540,어린음악대용당원음악학원,,P1,교육,P106,기타 교육,P10609,음악학원,P85621,음악학원,46,전라남도,46150,순천시,46150550,삼산동,4615011000,용당동,4.61501E+18,1,대지,558,1,전라남도 순천시 용당동 558-1,4.61503E+11,전라남도 순천시 삼산로,92,22,4.61501E+24,,전라남도 순천시 삼산로 92-22,540958,57935,,2,,127.4935643,34.97186481
MA010120220805476671,송담건설,,N1,시설관리·임대,N101,시설관리,N10101,사업시설 유지·관리 서비스업,N74100,사업시설 유지ㆍ관리 서비스업,46,전라남도,46230,광양시,46230530,중마동,4623010600,중동,4.62301E+18,1,대지,1303,7,전라남도 광양시 중동 1303-7,4.62305E+11,전라남도 광양시 동광길,21,null,4.62301E+24,,전라남도 광양시 동광길 21,545879,57786,,2,,127.6998724,34.94083616
MA010120220805476689,하얀풍차마을기업,,I1,숙박,I101,일반 숙박,I10103,펜션,I55104,민박업,46,전라남도,46110,목포시,46110595,목원동,4611015700,죽교동,4.61102E+18,1,대지,399,87,전라남도 목포시 죽교동 399-87,4.61103E+11,전라남도 목포시 유달로,126,null,4.61102E+24,,전라남도 목포시 유달로 126,530844,58727,,null,,126.380712,34.78900043
MA010120220805477323,김진아음악원,,P1,교육,P106,기타 교육,P10609,음악학원,P85621,음악학원,46,전라남도,46770,고흥군,46770350,포두면,4677035021,포두면,4.67704E+18,1,대지,2,2,전라남도 고흥군 포두면 남성리 2-2,4.67703E+11,전라남도 고흥군 포두면 우주로,2012,null,4.67704E+24,소매점,전라남도 고흥군 포두면 우주로 2012,548882,59527,,null,,127.4218502,34.53044592
MA010120220805477342,만장수산,,G2,소매,G205,식료품 소매,G20505,수산물 소매업,G47214,"신선, 냉동 및 기타 수산물 소매업",46,전라남도,46230,광양시,46230330,옥곡면,4623033024,옥곡면,4.62303E+18,1,대지,1337,1,전라남도 광양시 옥곡면 신금리 1337-1,4.62305E+11,전라남도 광양시 옥곡면 큰골1길,2,26,4.62303E+24,,전라남도 광양시 옥곡면 큰골1길 2-26,545833,57726,,null,,127.7002682,34.98850683
MA010120220805480159,메카피시방,,R1,예술·스포츠,R104,유원지·오락,R10406,PC방,R91222,컴퓨터 게임방 운영업,46,전라남도,46150,순천시,46150550,삼산동,4615010800,석현동,4.61501E+18,1,대지,86,2,전라남도 순천시 석현동 86-2,4.61503E+11,전라남도 순천시 중앙로,270,null,4.61501E+24,이디야커피점,전라남도 순천시 중앙로 270,540949,57938,,3,,127.4841149,34.96984183
MA010120220805480345,모인,,G2,소매,G209,섬유·의복·신발 소매,G20905,기타 의류 소매업,G47414,셔츠 및 블라우스 소매업,46,전라남도,46150,순천시,46150620,중앙동,4615012000,남내동,4.61501E+18,1,대지,89,null,전라남도 순천시 남내동 89,4.61505E+11,전라남도 순천시 별미길,20,null,4.61501E+24,거성스넥,전라남도 순천시 별미길 20,540210,57942,,null,,127.4854965,34.95380168
MA010120220805479683,루디아,,G2,소매,G209,섬유·의복·신발 소매,G20902,여성 의류 소매업,G47412,여자용 겉옷 소매업,46,전라남도,46150,순천시,46150570,덕연동,4615011400,연향동,4.61501E+18,1,대지,1333,null,전라남도 순천시 연향동 1333,4.61505E+11,전라남도 순천시 연향상가1길,4,null,4.61501E+24,동부상설시장,전라남도 순천시 연향상가1길 4,540952,57967,,1,,127.5212798,34.95161318
MA010120220805480403,나만봄hairsalon,,S2,수리·개인,S207,이용·미용,S20701,미용실,S96112,두발 미용업,46,전라남도,46150,순천시,46150661,왕조1동,4615013300,조례동,4.61501E+18,1,대지,804,null,전라남도 순천시 조례동 804,4.61505E+11,전라남도 순천시 비봉길,60,null,4.61501E+24,,전라남도 순천시 비봉길 60,540965,57933,,1,,127.5200986,34.9682946
MA010120220805480020,엄마죽집,,I2,음식,I201,한식,I20101,백반/한정식,I56112,한식 면 요리 전문점,46,전라남도,46110,목포시,46110510,용당1동,4611010100,용당동,4.61101E+18,1,대지,962,35,전라남도 목포시 용당동 962-35,4.61105E+11,전라남도 목포시 소영길,5,null,4.61101E+24,,전라남도 목포시 소영길 5,530361,58650,,null,,126.3958274,34.804542
MA010120220805479882,이디야커피영암점,,I2,음식,I212,비알코올 ,I21201,카페,I56221,커피 전문점,46,전라남도,46830,영암군,46830250,영암읍,4683025024,영암읍,4.68303E+18,1,대지,176,null,전라남도 영암군 영암읍 동무리 176,4.68305E+11,전라남도 영암군 영암읍 동문안1길,7,6,4.68303E+24,,전라남도 영암군 영암읍 동문안1길 7-6,526804,58416,,1,,126.6987624,34.80000988
MA010120220805479698,프린세스유흥주점,,I2,음식,I211,주점,I21104,요리 주점,I56219,기타 주점업,46,전라남도,46110,목포시,46110758,신흥동,4611015800,상동,4.61102E+18,1,대지,1139,2,전라남도 목포시 상동 1139-2,4.61103E+11,전라남도 목포시 원형동로,10,null,4.61102E+24,,전라남도 목포시 원형동로 10,530826,58747,,4,,126.4329842,34.79867147
MA010120220805479488,케이에스,,G2,소매,G219,식물 소매,G21901,꽃집,G47851,화초 및 식물 소매업,46,전라남도,46230,광양시,46230250,광양읍,4623025023,광양읍,4.62303E+18,1,대지,899,4,전라남도 광양시 광양읍 칠성리 899-4,4.62305E+11,전라남도 광양시 광양읍 호북길,5,null,4.62303E+24,,전라남도 광양시 광양읍 호북길 5,545808,57741,,2,,127.583941,34.97952795
MA010120220805479262,일로푸드,,G2,소매,G205,식료품 소매,G20503,정육점,G47212,육류 소매업,46,전라남도,46840,무안군,46840253,일로읍,4684025326,일로읍,4.68403E+18,1,대지,186,20,전라남도 무안군 일로읍 월암리 186-20,4.68403E+11,전라남도 무안군 일로읍 일로로,64,null,4.68403E+24,일로농협하나로마트,전라남도 무안군 일로읍 일로로 64,534904,58575,,null,,126.4941238,34.84902863
MA010120220805478766,폐기물처리.유품.빈집정리.청소.방역소독.철거.원상복구.인테리어,,M1,과학·기술,M112,전문 디자인,M11201,인테리어 디자인업,F42412,"도배, 실내 장식 및 내장 목공사업",46,전라남도,46150,순천시,46150540,매곡동,4615010700,매곡동,4.61501E+18,1,대지,38,1,전라남도 순천시 매곡동 38-1,4.61505E+11,전라남도 순천시 북문길,137,null,4.61501E+24,대동엠씨아이앤에스,전라남도 순천시 북문길 137,540947,57939,,1,,127.4849722,34.96235433
MA010120220805482051,고흥종합병원매점,,G2,소매,G204,종합 소매,G20404,슈퍼마켓,G47129,기타 음ㆍ식료품 위주 종합 소매업,46,전라남도,46770,고흥군,46770250,고흥읍,4677025026,고흥읍,4.67703E+18,1,대지,183,null,전라남도 고흥군 고흥읍 남계리 183,4.67703E+11,전라남도 고흥군 고흥읍 고흥로,1935,null,4.67703E+24,병원,전라남도 고흥군 고흥읍 고흥로 1935,548802,59535,,null,,127.2942822,34.6216841
MA010120220805481913,카페정,,I2,음식,I211,주점,I21104,요리 주점,I56219,기타 주점업,46,전라남도,46230,광양시,46230530,중마동,4623010600,중동,4.62301E+18,1,대지,1764,2,전라남도 광양시 중동 1764-2,4.62305E+11,전라남도 광양시 발섬4길,17,23,4.62301E+24,,전라남도 광양시 발섬4길 17-23,545888,57796,,null,,127.7004401,34.93525744
MA010120220805482570,GS25나주혁신코어점,,G2,소매,G204,종합 소매,G20405,편의점,G47122,체인화 편의점,46,전라남도,46170,나주시,46170620,빛가람동,4617013400,빛가람동,4.61701E+18,1,대지,348,17,전라남도 나주시 빛가람동 348-17,4.61705E+11,전라남도 나주시 배멧3길,19,13,4.61701E+24,,전라남도 나주시 배멧3길 19-13,520350,58325,,null,,126.786151,35.0201902
MA010120220805481747,안골프죤,,R1,예술·스포츠,R103,스포츠 서비스,R10311,골프 연습장,R91136,골프 연습장 운영업,46,전라남도,46230,광양시,46230530,중마동,4623010600,중동,4.62301E+18,1,대지,1643,4,전라남도 광양시 중동 1643-4,4.62305E+11,전라남도 광양시 오류3길,14,null,4.62301E+24,,전라남도 광양시 오류3길 14,545881,57788,,null,,127.6969847,34.9372231
MA010120220805482194,불타는꼼장어,,I2,음식,I201,한식,I20111,횟집,I56114,한식 해산물 요리 전문점,46,전라남도,46150,순천시,46150570,덕연동,4615011400,연향동,4.61501E+18,1,대지,1467,5,전라남도 순천시 연향동 1467-5,4.61505E+11,전라남도 순천시 대석3길,16,14,4.61501E+24,장어구이향연,전라남도 순천시 대석3길 16-14,540975,57986,,1,,127.5263848,34.94729714
MA010120220805481763,도담00도담,,I2,음식,I212,비알코올 ,I21201,카페,I56221,커피 전문점,46,전라남도,46790,화순군,46790250,화순읍,4679025021,화순읍,4.67903E+18,1,대지,383,null,전라남도 화순군 화순읍 교리 383,4.67903E+11,전라남도 화순군 화순읍 칠충로,145,null,4.67903E+24,,전라남도 화순군 화순읍 칠충로 145,519804,58120,,1,,126.9837589,35.06151477
MA010120220805482617,심할머니안흥찐빵만두,,I2,음식,I210,기타 간이,I21007,김밥/만두/분식,I56199,간이 음식 포장 판매 전문점,46,전라남도,46820,해남군,46820250,해남읍,4682025021,해남읍,4.68203E+18,1,대지,347,2,전라남도 해남군 해남읍 해리 347-2,4.68203E+11,전라남도 해남군 해남읍 남부순환로,37,null,4.68203E+24,,전라남도 해남군 해남읍 남부순환로 37,536809,59038,,null,,126.606275,34.56789759
MA010120220805480854,토형원,,G2,소매,G218,장식품 소매,G21801,예술품 소매업,G47841,예술품 및 골동품 소매업,46,전라남도,46150,순천시,46150400,상사면,4615040028,상사면,4.61504E+18,1,대지,184,null,전라남도 순천시 상사면 용암리 184,4.61505E+11,전라남도 순천시 상사면 민속마을길,694,null,4.61504E+24,토형원,전라남도 순천시 상사면 민속마을길 694,540862,57919,,null,,127.4284508,34.9382038
MA010120220805481447,옐로우서브마린온수수영장펜션커피숍,,I1,숙박,I101,일반 숙박,I10103,펜션,I55104,민박업,46,전라남도,46130,여수시,46130330,화양면,4613033029,화양면,4.61303E+18,1,대지,6,32,전라남도 여수시 화양면 장수리 6-32,4.61303E+11,전라남도 여수시 화양면 장수로,137,19,4.61303E+24,,전라남도 여수시 화양면 장수로 137-19,556825,59780,,null,,127.6162835,34.64237826
MA010120220805481062,이왕이면오리,,I2,음식,I201,한식,I20110,닭/오리고기 구이/찜,I56111,한식 일반 음식점업,46,전라남도,46900,진도군,46900250,진도읍,4690025025,진도읍,4.69003E+18,1,대지,778,2,전라남도 진도군 진도읍 남동리 778-2,4.69005E+11,전라남도 진도군 진도읍 남문길,12,1,4.69003E+24,,전라남도 진도군 진도읍 남문길 12-1,539802,58926,,1,,126.2641142,34.47909579
MA010120220805481336,안단테,,P1,교육,P106,기타 교육,P10613,기타 예술/스포츠 교육기관,P85629,기타 예술학원,46,전라남도,46900,진도군,46900250,진도읍,4690025025,진도읍,4.69003E+18,1,대지,354,null,전라남도 진도군 진도읍 남동리 354,4.69005E+11,전라남도 진도군 진도읍 남산1길,25,14,4.69003E+24,,전라남도 진도군 진도읍 남산1길 25-14,539802,58928,,null,,126.256764,34.47504304
MA010120220805480635,꿈꾸는바다,,I2,음식,I212,비알코올 ,I21201,카페,I56221,커피 전문점,46,전라남도,46800,장흥군,46800370,회진면,4680037022,회진면,4.68004E+18,1,대지,97,6,전라남도 장흥군 회진면 회진리 97-6,4.68003E+11,전라남도 장흥군 회진면 가학회진로,1105,null,4.68004E+24,,전라남도 장흥군 회진면 가학회진로 1105,529883,59360,,null,,126.9438832,34.4562019
MA010120220805481573,애플PC존,,R1,예술·스포츠,R104,유원지·오락,R10406,PC방,R91222,컴퓨터 게임방 운영업,46,전라남도,46150,순천시,46150570,덕연동,4615011400,연향동,4.61501E+18,1,대지,1595,6,전라남도 순천시 연향동 1595-6,4.61505E+11,전라남도 순천시 율산3길,112,null,4.61501E+24,,전라남도 순천시 율산3길 112,540976,58003,,1,,127.5281478,34.94151659
MA010120220805480824,행운여관,,I1,숙박,I101,일반 숙박,I10102,여관/모텔,I55102,여관업,46,전라남도,46820,해남군,46820250,해남읍,4682025021,해남읍,4.68203E+18,1,대지,611,5,전라남도 해남군 해남읍 해리 611-5,4.68205E+11,전라남도 해남군 해남읍 천변1길,38,null,4.68203E+24,행운장,전라남도 해남군 해남읍 천변1길 38,536809,59037,,null,,126.6009522,34.5707934
MA010120220805481103,마왕족발전남,,I2,음식,I201,한식,I20103,족발/보쌈,I56111,한식 일반 음식점업,46,전라남도,46770,고흥군,46770250,고흥읍,4677025026,고흥읍,4.67703E+18,1,대지,1030,null,전라남도 고흥군 고흥읍 남계리 1030,4.67705E+11,전라남도 고흥군 고흥읍 터미널길,5,20,4.67703E+24,유진오피스텔,전라남도 고흥군 고흥읍 터미널길 5-20,548802,59543,,1,,127.2804285,34.60574578
MA010120220805481487,하늘조경,,N1,시설관리·임대,N103,조경·유지,N10301,조경 유지·관리 서비스업,N74300,조경관리 및 유지 서비스업,46,전라남도,46230,광양시,46230250,광양읍,4623025029,광양읍,4.62303E+18,1,대지,1053,1,전라남도 광양시 광양읍 죽림리 1053-1,4.62303E+11,전라남도 광양시 광양읍 사곡로,358,null,4.62303E+24,,전라남도 광양시 광양읍 사곡로 358,545809,57732,,null,,127.6278952,34.97430687
MA010120220805484504,만나떡방앗간,,I2,음식,I210,기타 간이,I21002,떡/한과,C10612,곡물 제분업,46,전라남도,46820,해남군,46820350,북평면,4682035021,북평면,4.68204E+18,1,대지,113,4,전라남도 해남군 북평면 남창리 113-4,4.68205E+11,전라남도 해남군 북평면 볼무당길,56,null,4.68204E+24,,전라남도 해남군 북평면 볼무당길 56,536932,59055,,null,,126.6312352,34.40964179
MA010120220805484010,승연환경산업,,N1,시설관리·임대,N102,청소·방제,N10201,건축물 일반 청소업,N74211,건축물 일반 청소업,46,전라남도,46840,무안군,46840250,무안읍,4684025028,무안읍,4.68403E+18,1,대지,331,null,전라남도 무안군 무안읍 성암리 331,4.68405E+11,전라남도 무안군 무안읍 성암길,11,7,4.68403E+24,,전라남도 무안군 무안읍 성암길 11-7,534804,58547,,null,,126.4990653,34.9771028
MA010120220805483688,샐러드창고,,I2,음식,I210,기타 간이,I21007,김밥/만두/분식,I56194,김밥 및 기타 간이 음식점업,46,전라남도,46230,광양시,46230250,광양읍,4623025023,광양읍,4.62303E+18,1,대지,372,null,전라남도 광양시 광양읍 칠성리 372,4.62303E+11,전라남도 광양시 광양읍 매천로,808,1,4.62303E+24,,전라남도 광양시 광양읍 매천로 808-1,545808,57742,,null,,127.5839958,34.97517406
MA010120220805484366,쁘러이,,I2,음식,I212,비알코올 ,I21201,카페,I56221,커피 전문점,46,전라남도,46130,여수시,46130780,쌍봉동,4613012800,학동,4.61301E+18,1,대지,194,7,전라남도 여수시 학동 194-7,4.61305E+11,전라남도 여수시 시청서3길,13,9,4.61301E+24,,전라남도 여수시 시청서3길 13-9,555809,59674,,null,,127.6575399,34.75843491
MA010120220805484475,구이,,I2,음식,I201,한식,I20107,돼지고기 구이/찜,I56113,한식 육류 요리 전문점,46,전라남도,46230,광양시,46230530,중마동,4623010700,마동,4.62301E+18,1,대지,1195,2,전라남도 광양시 마동 1195-2,4.62305E+11,전라남도 광양시 눈소5길,31,6,4.62301E+24,,전라남도 광양시 눈소5길 31-6,545070,57798,,1,,127.7097044,34.93738938
MA010120220805483856,미니마리,,G2,소매,G209,섬유·의복·신발 소매,G20902,여성 의류 소매업,G47412,여자용 겉옷 소매업,46,전라남도,46230,광양시,46230250,광양읍,4623025035,광양읍,4.62303E+18,1,대지,1834,null,전라남도 광양시 광양읍 덕례리 1834,4.62303E+11,전라남도 광양시 광양읍 순광로,466,null,4.62303E+24,광양LF스퀘어,전라남도 광양시 광양읍 순광로 466,545802,57764,,2,,127.5658644,34.96176893
MA010120220805483795,다나은약국,,G2,소매,G215,의약·화장품 소매,G21501,약국,G47811,의약품 및 의료용품 소매업,46,전라남도,46720,곡성군,46720250,곡성읍,4672025021,곡성읍,4.67203E+18,1,대지,221,null,전라남도 곡성군 곡성읍 읍내리 221,4.67203E+11,전라남도 곡성군 곡성읍 곡성로,852,null,4.67203E+24,,전라남도 곡성군 곡성읍 곡성로 852,516804,57542,,null,,127.2970543,35.27941756
MA010120220805483364,오리정,,I2,음식,I201,한식,I20110,닭/오리고기 구이/찜,I56113,한식 육류 요리 전문점,46,전라남도,46110,목포시,46110810,부주동,4611016400,옥암동,4.61102E+18,1,대지,1188,2,전라남도 목포시 옥암동 1188-2,4.61105E+11,전라남도 목포시 후광대로105번안길,33,6,4.61102E+24,,전라남도 목포시 후광대로105번안길 33-6,530851,58671,,null,,126.4436183,34.81194106
MA010120220805482684,놀숲순천,,I2,음식,I212,비알코올 ,I21201,카페,I56229,기타 비알코올 음료점업,46,전라남도,46150,순천시,46150570,덕연동,4615011400,연향동,4.61501E+18,1,대지,1329,1,전라남도 순천시 연향동 1329-1,4.61505E+11,전라남도 순천시 연향상가5길,17,null,4.61501E+24,,전라남도 순천시 연향상가5길 17,540952,57967,,4,,127.5198917,34.95306807
MA010120220805483610,수양산펜션,,I1,숙박,I101,일반 숙박,I10103,펜션,I55104,민박업,46,전라남도,46710,담양군,46710350,대덕면,4671035030,대덕면,4.67104E+18,1,대지,400,null,전라남도 담양군 대덕면 운산리 400,4.67105E+11,전라남도 담양군 대덕면 운산1길,220,null,4.67104E+24,,전라남도 담양군 대덕면 운산1길 220,517891,57382,,null,,127.0798761,35.20255919
MA010120220805483307,리뷰티,,S2,수리·개인,S207,이용·미용,S20703,네일숍,S96119,기타 미용업,46,전라남도,46110,목포시,46110756,상동,4611015800,상동,4.61102E+18,1,대지,545,14,전라남도 목포시 상동 545-14,4.61103E+11,전라남도 목포시 영산로,415,2,4.61102E+24,,전라남도 목포시 영산로 415-2,530823,58644,,null,,126.4110114,34.806553
MA010120220805485856,벽오동설렁탕,,I2,음식,I201,한식,I20102,국/탕/찌개류,I56111,한식 일반 음식점업,46,전라남도,46790,화순군,46790360,도곡면,4679036032,도곡면,4.67904E+18,1,대지,318,null,전라남도 화순군 도곡면 원화리 318,4.67903E+11,전라남도 화순군 도곡면 지강로,481,null,4.67904E+24,,전라남도 화순군 도곡면 지강로 481,519832,58148,,null,,126.9052321,35.03681805
MA010120220805485724,이디야광양,,I2,음식,I212,비알코올 ,I21201,카페,I56221,커피 전문점,46,전라남도,46230,광양시,46230250,광양읍,4623025023,광양읍,4.62303E+18,1,대지,1007,19,전라남도 광양시 광양읍 칠성리 1007-19,4.62303E+11,전라남도 광양시 광양읍 매천로,739,null,4.62303E+24,,전라남도 광양시 광양읍 매천로 739,545809,57740,,1,,127.5779112,34.97854257
MA010120220805486081,푸드뱅크,,G2,소매,G204,종합 소매,G20404,슈퍼마켓,G47121,슈퍼마켓,46,전라남도,46130,여수시,46130320,율촌면,4613032021,율촌면,4.61303E+18,1,대지,268,null,전라남도 여수시 율촌면 조화리 268,4.61305E+11,전라남도 여수시 율촌면 당머리길,18,1,4.61303E+24,,전라남도 여수시 율촌면 당머리길 18-1,556892,59602,,null,,127.5806636,34.88322163
MA010120220805486369,오가닉메이커구례자연드림파크점,,G2,소매,G204,종합 소매,G20404,슈퍼마켓,G47121,슈퍼마켓,46,전라남도,46730,구례군,46730360,용방면,4673036027,용방면,4.67304E+18,1,대지,931,null,전라남도 구례군 용방면 죽정리 931,4.67303E+11,전라남도 구례군 용방면 용산로,107,73,4.67304E+24,,전라남도 구례군 용방면 용산로 107-73,542822,57607,,null,,127.4132111,35.27361868
MA010120220805485373,이슬촌미카페,,I2,음식,I212,비알코올 ,I21201,카페,I56221,커피 전문점,46,전라남도,46170,나주시,46170380,노안면,4617038033,노안면,4.61704E+18,1,대지,686,1,전라남도 나주시 노안면 양천리 686-1,4.61705E+11,전라남도 나주시 노안면 이슬촌길,106,10,4.61704E+24,이슬촌,전라남도 나주시 노안면 이슬촌길 106-10,520811,58205,,null,,126.6765956,35.10479288
MA010120220805485836,리뷰티,,G2,소매,G215,의약·화장품 소매,G21503,화장품 소매업,G47813,"화장품, 비누 및 방향제 소매업",46,전라남도,46130,여수시,46130790,시전동,4613013300,신기동,4.61301E+18,1,대지,60,14,전라남도 여수시 신기동 60-14,4.61305E+11,전라남도 여수시 흥국상가길,28,1,4.61301E+24,,전라남도 여수시 흥국상가길 28-1,555803,59687,,1,,127.6693689,34.76140649
MA010120220805485262,가화루,,I2,음식,I202,중식,I20201,중국집,I56121,중식 음식점업,46,전라남도,46770,고흥군,46770250,고흥읍,4677025028,고흥읍,4.67703E+18,1,대지,219,45,전라남도 고흥군 고흥읍 서문리 219-45,4.67705E+11,전라남도 고흥군 고흥읍 서문여산길,68,3,4.67703E+24,여관,전라남도 고흥군 고흥읍 서문여산길 68-3,548805,59540,,null,,127.282313,34.60720829
MA010120220805485456,한양행정사사무소,,M1,과학·기술,M103,법무관련 ,M10306,행정사,M71109,기타 법무관련 서비스업,46,전라남도,46150,순천시,46150610,장천동,4615011900,장천동,4.61501E+18,1,대지,78,9,전라남도 순천시 장천동 78-9,4.61503E+11,전라남도 순천시 중앙로,42,null,4.61501E+24,모닝글로리,전라남도 순천시 중앙로 42,540959,57956,,null,,127.4853903,34.94976268
MA010120220805485459,동네방네뮤직스쿨,,G2,소매,G212,기타 생활용품 소매,G21203,악기 소매업,G47593,악기 소매업,46,전라남도,46130,여수시,46130670,국동,4613011700,국동,4.61301E+18,1,대지,994,2,전라남도 여수시 국동 994-2,4.61303E+11,전라남도 여수시 신월로,650,null,4.61301E+24,,전라남도 여수시 신월로 650,550805,59761,,null,,127.7160682,34.72930464
MA010120220805484717,와이뷰티,,S2,수리·개인,S207,이용·미용,S20703,네일숍,S96119,기타 미용업,46,전라남도,46150,순천시,46150665,왕조2동,4615013300,조례동,4.61501E+18,1,대지,1815,11,전라남도 순천시 조례동 1815-11,4.61505E+11,전라남도 순천시 연동남3길,15,null,4.61501E+24,아름다운공방그림새,전라남도 순천시 연동남3길 15,540969,57970,,1,,127.5353403,34.95703149
MA010120220805484841,개미인력,,N1,시설관리·임대,N104,고용 알선,N10401,고용 알선업,N75110,고용 알선업,46,전라남도,46130,여수시,46130625,광림동,4613012100,오림동,4.61301E+18,1,대지,395,3,전라남도 여수시 오림동 395-3,4.61303E+11,전라남도 여수시 좌수영로,320,1,4.61301E+24,,전라남도 여수시 좌수영로 320-1,550210,59630,,null,,127.7109397,34.7596101
MA010120220805485490,송광석유,,G2,소매,G214,연료 소매,G21403,가정용 연료 소매업,G47722,가정용 액체 연료 소매업,46,전라남도,46150,순천시,46150360,송광면,4615036033,송광면,4.61504E+18,1,대지,1604,1,전라남도 순천시 송광면 장안리 1604-1,4.61505E+11,전라남도 순천시 송광면 장안길,66,null,4.61504E+24,,전라남도 순천시 송광면 장안길 66,540932,57914,,null,,127.2838086,34.96348921
MA010120220805485605,순수아로마,,G2,소매,G215,의약·화장품 소매,G21503,화장품 소매업,G47813,"화장품, 비누 및 방향제 소매업",46,전라남도,46110,목포시,46110758,신흥동,4611015800,상동,4.61102E+18,1,대지,988,null,전라남도 목포시 상동 988,4.61103E+11,전라남도 목포시 부흥로,25,null,4.61102E+24,,전라남도 목포시 부흥로 25,530826,58691,,3,,126.424741,34.80118805
MA010120220805488665,"희야소머리국밥,설렁탕,도가니탕",,I2,음식,I201,한식,I20101,백반/한정식,I56111,한식 일반 음식점업,46,전라남도,46150,순천시,46150310,해룡면,4615031022,해룡면,4.61503E+18,1,대지,1992,5,전라남도 순천시 해룡면 신대리 1992-5,4.61503E+11,전라남도 순천시 해룡면 매안로,83,null,4.61503E+24,,전라남도 순천시 해룡면 매안로 83,540853,58011,,1,,127.5554254,34.9340291
MA010120220805488081,안흥찐빵만두,,I2,음식,I211,주점,I21104,요리 주점,I56219,기타 주점업,46,전라남도,46820,해남군,46820310,삼산면,4682031027,삼산면,4.68203E+18,2,산,8,1,전라남도 해남군 삼산면 구림리 산8-1,4.68205E+11,전라남도 해남군 삼산면 대흥사길,113,null,4.68203E+24,두륜산나이트클럽,전라남도 해남군 삼산면 대흥사길 113,536811,59047,,null,,126.6190644,34.49622493
